Time (s),Setpoint (deg),Motor Position (deg),Tension 1 (N),Tension 2 (N),Tension 3 (N),Heading (deg),Pitch (deg),Roll (deg),Quaternion W,Quaternion X,Quaternion Y,Quaternion Z,Gravity X,Gravity Y,Gravity Z
0,0,0,0,0,0,0,0,0,0,0,0,0,0,0,0
0.0131593,0,0,0,0,0.9898,66.375,5.0592536023176,3.46940419776024,0.835622291399622,-0.040041506439602,0.0361350180064701,-0.546786302874931,-0.16,-1.04,9.74
0.0394773,0,0,0,0,0.98,66.375,5.0592536023176,3.46940419776024,0.835622291399622,-0.040041506439602,0.0361350180064701,-0.546786302874931,-0.16,-1.04,9.74
0.0604887,0,0,0,0,0.98,66.375,5.0592536023176,3.46940419776024,0.835622291399622,-0.040041506439602,0.0361350180064701,-0.546786302874931,-0.16,-1.04,9.74
0.1674826,0,0,0,0,0.9604,66.375,5.0592536023176,3.46940419776024,0.835622291399622,-0.040041506439602,0.0361350180064701,-0.546786302874931,-0.16,-1.04,9.74
0.1933505,0,0,0,0,0.9604,66.375,5.0592536023176,3.46940419776024,0.835622291399622,-0.040041506439602,0.0361350180064701,-0.546786302874931,-0.16,-1.04,9.74
0.2174854,0,0,0,0,0.9604,66.375,5.0592536023176,3.46940419776024,0.835622291399622,-0.040041506439602,0.0361350180064701,-0.546786302874931,-0.16,-1.04,9.74
0.3195976,0,0,0,0,0.9506,66.375,5.0592536023176,3.46940419776024,0.835622291399622,-0.040041506439602,0.0361350180064701,-0.546786302874931,-0.16,-1.04,9.74
0.3432522,0,0,0,0,0.9506,66.375,5.0592536023176,3.46940419776024,0.835622291399622,-0.040041506439602,0.0361350180064701,-0.546786302874931,-0.16,-1.04,9.74
0.3592423,0,0,0,0,0.9506,66.375,5.0592536023176,3.46940419776024,0.835622291399622,-0.040041506439602,0.0361350180064701,-0.546786302874931,-0.16,-1.04,9.74
0.3772533,0,0,0,0,0.9506,66.375,5.0592536023176,3.46940419776024,0.835622291399622,-0.040041506439602,0.0361350180064701,-0.546786302874931,-0.16,-1.04,9.74
0.3961597,0,0,0,0,0.9506,66.375,5.0592536023176,3.46940419776024,0.835622291399622,-0.040041506439602,0.0361350180064701,-0.546786302874931,-0.16,-1.04,9.74
0.4131725,0,0,0,0,0.9506,66.375,5.0592536023176,3.46940419776024,0.835622291399622,-0.040041506439602,0.0361350180064701,-0.546786302874931,-0.16,-1.04,9.74
0.4293523,0,0,0,0,0.9506,66.375,5.0592536023176,3.46940419776024,0.835622291399622,-0.040041506439602,0.0361350180064701,-0.546786302874931,-0.16,-1.04,9.74
0.4450765,0,0,0,0,0.9506,66.375,5.0592536023176,3.46940419776024,0.835622291399622,-0.040041506439602,0.0361350180064701,-0.546786302874931,-0.16,-1.04,9.74
0.461041,0,0,0,0,0.9506,66.375,5.0592536023176,3.46940419776024,0.835622291399622,-0.040041506439602,0.0361350180064701,-0.546786302874931,-0.16,-1.04,9.74
0.4771513,0,0,0,0,0.9506,66.375,5.0592536023176,3.46940419776024,0.835622291399622,-0.040041506439602,0.0361350180064701,-0.546786302874931,-0.16,-1.04,9.74
0.4942513,0,0,0,0,0.9506,66.375,5.0592536023176,3.46940419776024,0.835622291399622,-0.040041506439602,0.0361350180064701,-0.546786302874931,-0.16,-1.04,9.74
0.5120986,0,0,0,0,0.9506,66.375,5.0592536023176,3.46940419776024,0.835622291399622,-0.040041506439602,0.0361350180064701,-0.546786302874931,-0.16,-1.04,9.74
0.5280261,0,0,0,0,0.9506,66.375,5.0592536023176,3.46940419776024,0.835622291399622,-0.040041506439602,0.0361350180064701,-0.546786302874931,-0.16,-1.04,9.74
0.6260754,0,0,0,0,0.9506,66.375,5.0592536023176,3.46940419776024,0.835622291399622,-0.040041506439602,0.0361350180064701,-0.546786302874931,-0.16,-1.04,9.74
0.6444567,0,0,0,0,0.9506,66.375,5.0592536023176,3.46940419776024,0.835622291399622,-0.040041506439602,0.0361350180064701,-0.546786302874931,-0.16,-1.04,9.74
0.661136,0,0,0,0,0.9506,66.375,5.0592536023176,3.46940419776024,0.835622291399622,-0.040041506439602,0.0361350180064701,-0.546786302874931,-0.16,-1.04,9.74
0.759278,0,0,0,0,0.9506,66.375,5.0592536023176,3.46940419776024,0.835622291399622,-0.040041506439602,0.0361350180064701,-0.546786302874931,-0.16,-1.04,9.74
0.7773219,0,0,0,0,0.9506,66.375,5.0592536023176,3.46940419776024,0.835622291399622,-0.040041506439602,0.0361350180064701,-0.546786302874931,-0.16,-1.04,9.74
0.795406,0,0,0,0,0.9506,66.375,5.0592536023176,3.46940419776024,0.835622291399622,-0.040041506439602,0.0361350180064701,-0.546786302874931,-0.16,-1.04,9.74
0.9131283,0,0,0,0,0.9604,66.375,5.0592536023176,3.46940419776024,0.835622291399622,-0.040041506439602,0.0361350180064701,-0.546786302874931,-0.16,-1.04,9.74
0.931157,0,0,0,0,0.9604,66.375,5.0592536023176,3.46940419776024,0.835622291399622,-0.040041506439602,0.0361350180064701,-0.546786302874931,-0.16,-1.04,9.74
0.9471095,0,0,0,0,0.9604,66.375,5.0592536023176,3.46940419776024,0.835622291399622,-0.040041506439602,0.0361350180064701,-0.546786302874931,-0.16,-1.04,9.74
1.045252,0,0,0,0,0.9604,66.375,5.0592536023176,3.46940419776024,0.835622291399622,-0.040041506439602,0.0361350180064701,-0.546786302874931,-0.16,-1.04,9.74
1.0655148,0,0,0,0,0.9604,66.375,5.0592536023176,3.46940419776024,0.835622291399622,-0.040041506439602,0.0361350180064701,-0.546786302874931,-0.16,-1.04,9.74
1.0814607,0,0,0,0,0.9604,66.375,5.0592536023176,3.46940419776024,0.835622291399622,-0.040041506439602,0.0361350180064701,-0.546786302874931,-0.16,-1.04,9.74
1.1773702,0,0,0,0,0.9702,66.375,5.0592536023176,3.46940419776024,0.835622291399622,-0.040041506439602,0.0361350180064701,-0.546786302874931,-0.16,-1.04,9.74
1.1962399,0,0,0,0,0.9702,66.375,5.0592536023176,3.46940419776024,0.835622291399622,-0.040041506439602,0.0361350180064701,-0.546786302874931,-0.16,-1.04,9.74
1.2123795,0,0,0,0,0.9702,66.375,5.0592536023176,3.46940419776024,0.835622291399622,-0.040041506439602,0.0361350180064701,-0.546786302874931,-0.16,-1.04,9.74
1.3125978,0,0,0,0,0.9702,66.375,5.0592536023176,3.46940419776024,0.835622291399622,-0.040041506439602,0.0361350180064701,-0.546786302874931,-0.16,-1.04,9.74
1.3313474,0,0,0,0,0.9702,66.375,5.0592536023176,3.46940419776024,0.835622291399622,-0.040041506439602,0.0361350180064701,-0.546786302874931,-0.16,-1.04,9.74
1.3475967,0,0,0,0,0.9702,66.375,5.0592536023176,3.46940419776024,0.835622291399622,-0.040041506439602,0.0361350180064701,-0.546786302874931,-0.16,-1.04,9.74
1.4462401,0,0,0,0,0.9702,66.375,5.0592536023176,3.46940419776024,0.835622291399622,-0.040041506439602,0.0361350180064701,-0.546786302874931,-0.16,-1.04,9.74
1.4652377,0,0,0,0,0.98,66.375,5.0592536023176,3.46940419776024,0.835622291399622,-0.040041506439602,0.0361350180064701,-0.546786302874931,-0.16,-1.04,9.74
1.481192,0,0,0,0,0.98,66.375,5.0592536023176,3.46940419776024,0.835622291399622,-0.040041506439602,0.0361350180064701,-0.546786302874931,-0.16,-1.04,9.74
1.5791836,0,0,0,0,0.98,66.375,5.0592536023176,3.46940419776024,0.835622291399622,-0.040041506439602,0.0361350180064701,-0.546786302874931,-0.16,-1.04,9.74
1.5983179,0,0,0,0,0.98,66.375,5.0592536023176,3.46940419776024,0.835622291399622,-0.040041506439602,0.0361350180064701,-0.546786302874931,-0.16,-1.04,9.74
1.6172601,0,0,0,0,0.98,66.375,5.0592536023176,3.46940419776024,0.835622291399622,-0.040041506439602,0.0361350180064701,-0.546786302874931,-0.16,-1.04,9.74
1.7152561,0,0,0,0,0.98,66.375,5.0592536023176,3.46940419776024,0.835622291399622,-0.040041506439602,0.0361350180064701,-0.546786302874931,-0.16,-1.04,9.74
1.7366317,0,0,0,0,0.98,66.375,5.0592536023176,3.46940419776024,0.835622291399622,-0.040041506439602,0.0361350180064701,-0.546786302874931,-0.16,-1.04,9.74
1.7531652,0,0,0,0,0.98,66.375,5.0592536023176,3.46940419776024,0.835622291399622,-0.040041506439602,0.0361350180064701,-0.546786302874931,-0.16,-1.04,9.74
1.8542172,0,0,0,0,0.98,66.375,5.0592536023176,3.46940419776024,0.835622291399622,-0.040041506439602,0.0361350180064701,-0.546786302874931,-0.16,-1.04,9.74
1.8732193,0,0,0,0,0.98,66.375,5.0592536023176,3.46940419776024,0.835622291399622,-0.040041506439602,0.0361350180064701,-0.546786302874931,-0.16,-1.04,9.74
1.8902684,0,0,0,0,0.98,66.375,5.0592536023176,3.46940419776024,0.835622291399622,-0.040041506439602,0.0361350180064701,-0.546786302874931,-0.16,-1.04,9.74
1.9935582,0,0,0,0,0.9702,66.375,5.0592536023176,3.46940419776024,0.835622291399622,-0.040041506439602,0.0361350180064701,-0.546786302874931,-0.16,-1.04,9.74
2.0243146,0,0,0,0,0.9702,66.375,5.0592536023176,3.46940419776024,0.835622291399622,-0.040041506439602,0.0361350180064701,-0.546786302874931,-0.16,-1.04,9.74
2.0393084,0,0,0,0,0.9702,66.375,5.0592536023176,3.46940419776024,0.835622291399622,-0.040041506439602,0.0361350180064701,-0.546786302874931,-0.16,-1.04,9.74
2.1372365,0,0,0,0,0.9702,66.375,5.0592536023176,3.46940419776024,0.835622291399622,-0.040041506439602,0.0361350180064701,-0.546786302874931,-0.16,-1.04,9.74
2.1572893,0,0,0,0,0.9702,66.375,5.0592536023176,3.46940419776024,0.835622291399622,-0.040041506439602,0.0361350180064701,-0.546786302874931,-0.16,-1.04,9.74
2.1742152,0,0,0,0,0.9702,66.375,5.0592536023176,3.46940419776024,0.835622291399622,-0.040041506439602,0.0361350180064701,-0.546786302874931,-0.16,-1.04,9.74
2.2702924,0,0,0,0,0.9702,66.375,5.0592536023176,3.46940419776024,0.835622291399622,-0.040041506439602,0.0361350180064701,-0.546786302874931,-0.16,-1.04,9.74
2.2894931,0,0,0,0,0.9702,66.375,5.0592536023176,3.46940419776024,0.835622291399622,-0.040041506439602,0.0361350180064701,-0.546786302874931,-0.16,-1.04,9.74
2.311351,0,0,0,0,0.9702,66.375,5.0592536023176,3.46940419776024,0.835622291399622,-0.040041506439602,0.0361350180064701,-0.546786302874931,-0.16,-1.04,9.74
2.4082225,0,0,0,0,0.9604,66.375,5.0592536023176,3.46940419776024,0.835622291399622,-0.040041506439602,0.0361350180064701,-0.546786302874931,-0.16,-1.04,9.74
2.4274236,0,0,0,0,0.9604,66.375,5.0592536023176,3.46940419776024,0.835622291399622,-0.040041506439602,0.0361350180064701,-0.546786302874931,-0.16,-1.04,9.74
2.4497184,0,0,0,0,0.9604,66.375,5.0592536023176,3.46940419776024,0.835622291399622,-0.040041506439602,0.0361350180064701,-0.546786302874931,-0.16,-1.04,9.74
2.5492264,0,0,0,0,0.9604,66.375,5.0592536023176,3.46940419776024,0.835622291399622,-0.040041506439602,0.0361350180064701,-0.546786302874931,-0.16,-1.04,9.74
2.5687044,0,0,0,0,0.9604,66.375,5.0592536023176,3.46940419776024,0.835622291399622,-0.040041506439602,0.0361350180064701,-0.546786302874931,-0.16,-1.04,9.74
2.5853441,0,0,0,0,0.9604,66.375,5.0592536023176,3.46940419776024,0.835622291399622,-0.040041506439602,0.0361350180064701,-0.546786302874931,-0.16,-1.04,9.74
2.6832687,0,0,0,0,0.9604,66.375,5.0592536023176,3.46940419776024,0.835622291399622,-0.040041506439602,0.0361350180064701,-0.546786302874931,-0.16,-1.04,9.74
2.7036493,0,0,0,0,0.9604,66.375,5.0592536023176,3.46940419776024,0.835622291399622,-0.040041506439602,0.0361350180064701,-0.546786302874931,-0.16,-1.04,9.74
2.7201135,0,0,0,0,0.9604,66.375,5.0592536023176,3.46940419776024,0.835622291399622,-0.040041506439602,0.0361350180064701,-0.546786302874931,-0.16,-1.04,9.74
2.8202421,0,0,0,0,0.9604,66.375,5.0592536023176,3.46940419776024,0.835622291399622,-0.040041506439602,0.0361350180064701,-0.546786302874931,-0.16,-1.04,9.74
2.8406793,0,0,0,0,0.9604,66.375,5.0592536023176,3.46940419776024,0.835622291399622,-0.040041506439602,0.0361350180064701,-0.546786302874931,-0.16,-1.04,9.74
2.8683114,0,0,0,0,0.9604,66.375,5.0592536023176,3.46940419776024,0.835622291399622,-0.040041506439602,0.0361350180064701,-0.546786302874931,-0.16,-1.04,9.74
2.9734492,0,0,0,0,0.9604,66.375,5.0592536023176,3.46940419776024,0.835622291399622,-0.040041506439602,0.0361350180064701,-0.546786302874931,-0.16,-1.04,9.74
2.9926801,0,0,0,0,0.9604,66.375,5.0592536023176,3.46940419776024,0.835622291399622,-0.040041506439602,0.0361350180064701,-0.546786302874931,-0.16,-1.04,9.74
3.0104069,0,0,0,0,0.9604,66.375,5.0592536023176,3.46940419776024,0.835622291399622,-0.040041506439602,0.0361350180064701,-0.546786302874931,-0.16,-1.04,9.74
3.1092219,180,0,0,0,0.9604,66.375,5.0592536023176,3.46940419776024,0.835622291399622,-0.040041506439602,0.0361350180064701,-0.546786302874931,-0.16,-1.04,9.74
3.1297104,180,1.35,0,0,0.9604,66.375,5.0592536023176,3.46940419776024,0.835622291399622,-0.040041506439602,0.0361350180064701,-0.546786302874931,-0.16,-1.04,9.74
3.147504,180,3.15,0,0,0.9702,66.375,5.0592536023176,3.46940419776024,0.835622291399622,-0.040041506439602,0.0361350180064701,-0.546786302874931,-0.16,-1.04,9.74
3.2443028,180,31.95,0,0,1.3132,66.375,5.0592536023176,3.46940419776024,0.835622291399622,-0.040041506439602,0.0361350180064701,-0.546786302874931,-0.16,-1.04,9.74
3.2642262,180,41.4,0,0,1.4504,66.375,5.0592536023176,3.46940419776024,0.835622291399622,-0.040041506439602,0.0361350180064701,-0.546786302874931,-0.16,-1.04,9.74
3.2801662,180,49.95,0,0,1.5288,66.375,5.0592536023176,3.46940419776024,0.835622291399622,-0.040041506439602,0.0361350180064701,-0.546786302874931,-0.16,-1.04,9.74
3.379281,180,117.45,0,0,2.6166,66.375,5.08630813866263,3.41306325294073,0.835622291399622,-0.0401635842031374,0.0358908624793994,-0.546725263993164,-0.15,-1.04,9.74
3.3993911,180,129.6,0,0,2.7636,66.375,5.08630813866263,3.41306325294073,0.835683330281389,-0.0401635842031374,0.0358298235976317,-0.546725263993164,-0.15,-1.04,9.74
3.4175587,180,139.5,0,0,3.0478,66.375,5.08630813866263,3.41306325294073,0.835683330281389,-0.0401635842031374,0.035768784715864,-0.546725263993164,-0.15,-1.04,9.74
3.5162355,180,174.6,0,0,3.7632,66.3125,5.05702173018814,3.32966777177618,0.835866446926692,-0.0402246230849051,0.0349142403711164,-0.546481108466093,-0.14,-1.03,9.75
3.5376421,180,177.75,0,0,3.8612,66.3125,5.08407626653316,3.27332682695667,0.835866446926692,-0.0403467008484405,0.0346700848440457,-0.546420069584325,-0.13,-1.03,9.75
3.5542336,180,179.55,0,0,3.9004,66.3125,5.08407626653316,3.27332682695667,0.83592748580846,-0.0405298174937435,0.0344259293169749,-0.546359030702558,-0.12,-1.03,9.75
3.6542438,180,180,0,0,3.7926,66.25,5.32979896576786,2.90599474956509,0.836110602453763,-0.043154489409754,0.0316181407556614,-0.545992797411951,-0.05,-1.04,9.75
3.6748227,180,180,0,0,3.724,66.25,5.44024898327743,2.82036739627108,0.836171641335531,-0.0439479948727339,0.0308246352926814,-0.545931758530184,-0.03,-1.05,9.75
3.6914264,180,180,0,0,3.6946,66.25,5.46730351962245,2.76402645145157,0.836232680217298,-0.0448635780992492,0.0299700909479338,-0.545870719648416,-0.01,-1.05,9.74
3.7942996,180,180,0,0,3.4006,66.25,6.07143080773088,2.08347136935846,0.836171641335531,-0.0507233107489471,0.0247207471159128,-0.545626564121345,0.13,-1.09,9.74
3.8146764,180,180,0,0,3.3712,66.1875,6.2359898979305,1.88516212642542,0.836171641335531,-0.0521272050296039,0.0234999694805591,-0.545626564121345,0.17,-1.1,9.74
3.8305259,180,180,0,0,3.3124,66.1875,6.31938537909504,1.85587571795093,0.836171641335531,-0.0534700604284929,0.0223402307269731,-0.545565525239578,0.2,-1.11,9.74
3.9284411,180,180,0,0,2.9694,66.1875,7.00467627623854,1.00629780139927,0.835988524690228,-0.060062259659403,0.0166025758408106,-0.545260330830739,0.37,-1.16,9.73
3.9473972,180,180,0,0,2.8812,66.1875,7.11512629374811,0.920670448105268,0.835988524690228,-0.0607947262406153,0.015931148141366,-0.545260330830739,0.4,-1.17,9.72
3.9623707,180,180,0,0,2.8322,66.1875,7.30673992029275,0.666020260352717,0.835866446926692,-0.0630531648660197,0.0138558261612647,-0.545199291948972,0.44,-1.18,9.72
4.0723055,180,180,0,0,2.4696,66.1875,8.12953537129084,-0.32552595431246,0.835500213636086,-0.0709271806140511,0.00585973264969786,-0.544955136421901,0.66,-1.22,9.7
4.0915081,180,180,0,0,2.401,66.1875,8.1836444439809,-0.438207843951491,0.835500213636086,-0.0717206860770311,0.00512726606848563,-0.544894097540133,0.68,-1.23,9.7
4.117491,180,180,0,0,2.3226,66.1875,8.34820353418051,-0.636517086884527,0.835439174754319,-0.0733076970029909,0.00372337178782885,-0.544833058658365,0.72,-1.24,9.7
4.2205783,180,180,0,0,2.0776,66.1875,9.00420802284953,-1.56949048460072,0.834828785936642,-0.0806934016968809,-0.00476103277787951,-0.544649942013062,0.94,-1.27,9.67
4.2404673,180,180,0,0,2.009,66.1875,9.11242616822963,-1.79485426387879,0.834828785936642,-0.0811206738692547,-0.00537142159555637,-0.544588903131295,0.95,-1.27,9.67
4.2575102,180,180,0,0,1.9796,66.1875,9.27698525842925,-1.99316350681182,0.834706708173106,-0.0827687236769822,-0.00677531587621315,-0.544527864249527,0.99,-1.28,9.67
4.3552743,180,180,0,0,1.7934,66.1875,9.71655345633805,-2.4754093459719,0.834279436000733,-0.0874687175730941,-0.0112921931270219,-0.544405786485992,1.11,-1.31,9.65
4.3763864,180,180,0,0,1.764,66.25,9.77066252902811,-2.58809123561093,0.834218397118965,-0.0878959897454679,-0.0117805041811634,-0.544344747604224,1.14,-1.31,9.65
4.3946207,180,180,0,0,1.7346,66.25,9.9081670828827,-2.73005953372445,0.834035280473662,-0.0894830006714277,-0.0131843984618202,-0.544283708722456,1.17,-1.32,9.64
4.4922775,180,180,0,0,1.6856,66.25,10.2936262081015,-3.09962348324549,0.833730086064823,-0.0924128669962766,-0.0155649148507599,-0.544283708722456,1.24,-1.34,9.63
4.513362,180,180,0,0,1.6856,66.25,10.3206807444465,-3.15596442806501,0.833669047183056,-0.0927180614051151,-0.015931148141366,-0.544283708722456,1.25,-1.34,9.63
4.5294587,180,180,0,0,1.6856,66.25,10.3477352807915,-3.21230537288452,0.833608008301288,-0.0931453335774889,-0.0162973814319722,-0.544344747604224,1.26,-1.34,9.63
4.6293062,180,180,0,0,1.7738,66.3125,10.377021689266,-3.12890989171998,0.833424891655985,-0.0932063724592565,-0.015748031496063,-0.544588903131295,1.25,-1.35,9.63
4.6513694,180,180,0,0,1.8032,66.3125,10.349967152921,-3.07256894690047,0.833424891655985,-0.0930232558139535,-0.0155038759689922,-0.544649942013062,1.24,-1.35,9.63
4.6686464,180,180,0,0,1.8228,66.3125,10.349967152921,-3.07256894690047,0.833363852774217,-0.0929622169321858,-0.0150766037966184,-0.54471098089483,1.23,-1.35,9.63
4.7685539,180,180,0,0,2.058,66.3125,10.0501353809962,-2.59255497986986,0.833485930537753,-0.0898492339620338,-0.0115363486540927,-0.545138253067204,1.14,-1.34,9.64
4.7903393,180,180,0,0,2.0874,66.375,9.93968536348665,-2.50692762657585,0.83354696941952,-0.089238845144357,-0.0106207654275774,-0.545260330830739,1.12,-1.34,9.64
4.8074979,180,180,0,0,2.1462,66.375,9.8855762907966,-2.39424573693682,0.83354696941952,-0.0885674174449124,-0.0095831044375267,-0.545321369712507,1.1,-1.34,9.65
4.9074254,180,180,0,0,2.3912,66.375,9.47752637349175,-1.68886799062815,0.833852163828359,-0.0839284624305683,-0.00402856619666728,-0.545626564121345,0.96,-1.32,9.66
4.9263751,180,180,0,0,2.4598,66.375,9.39636276445667,-1.5198451561696,0.833913202710126,-0.0830739180858207,-0.00274674967954587,-0.545748641884881,0.93,-1.32,9.67
4.943658,180,180,0,0,2.4892,66.375,9.25885821060208,-1.37787685805608,0.833974241591894,-0.08203625709577,-0.00152597204419215,-0.545748641884881,0.9,-1.32,9.67
5.041418,180,180,0,0,2.8224,66.375,8.68401733096814,-0.613926294798428,0.834401513764268,-0.0755661356283953,0.00488311054141488,-0.546053836293719,0.72,-1.28,9.69
5.0615356,180,180,0,0,2.8616,66.375,8.54651277711355,-0.471957996684908,0.834523591527803,-0.0743453579930416,0.00634804370383935,-0.546053836293719,0.69,-1.28,9.69
5.0774025,180,180,0,0,2.94,66.375,8.46534916807847,-0.302935162226361,0.834523591527803,-0.0737960080571324,0.00701947140328389,-0.546053836293719,0.67,-1.28,9.69
5.1764209,180,180,0,0,3.2242,66.375,7.75300373458995,0.602983699144811,0.834828785936642,-0.0666544588903131,0.0139168650430324,-0.546420069584325,0.48,-1.24,9.71
5.1964353,180,180,0,0,3.3026,66.375,7.58844464439033,0.801292942077847,0.834828785936642,-0.065128486846121,0.0153817982054569,-0.546481108466093,0.44,-1.23,9.71
5.2173565,180,180,0,0,3.3712,66.375,7.45094009053573,0.943261240191366,0.834950863700177,-0.0636025148019288,0.0167856924861137,-0.546542147347861,0.4,-1.22,9.72
5.3155674,180,180,0,0,3.5868,66.375,6.68225371222769,1.82212556521751,0.835195019227248,-0.0559726545809681,0.0233778917170237,-0.546725263993164,0.21,-1.16,9.73
5.3413576,180,180,0,0,3.6064,66.375,6.43429914086353,2.04972121662504,0.835256058109015,-0.0537752548373314,0.0252090581700543,-0.546786302874931,0.16,-1.15,9.73
5.3565954,180,180,0,0,3.6456,66.375,6.38019006817348,2.16240310626407,0.835256058109015,-0.0531038271378868,0.0257584081059635,-0.546786302874931,0.13,-1.14,9.73
5.4563599,180,180,0,0,3.7926,66.375,5.77383090793559,2.70322176237312,0.835378135872551,-0.047244094488189,0.0302142464750046,-0.546908380638467,-0.01,-1.08,9.74
5.4753825,180,180,0,0,3.8122,66.375,5.636326354081,2.84519006048664,0.835378135872551,-0.0455960446804615,0.0314350241103583,-0.546969419520234,-0.02,-1.08,9.74
5.4964428,180,180,0,0,3.8318,66.375,5.52587633657143,2.93081741378065,0.835439174754319,-0.0446804614539462,0.0320454129280352,-0.546969419520234,-0.04,-1.07,9.74
5.598391,180,180,0,0,3.8906,66.375,5.16747174769771,3.24404041848218,0.835622291399622,-0.0405298174937435,0.0342428126716719,-0.546908380638467,-0.12,-1.03,9.75
5.6166669,180,180,0,0,3.8906,66.375,5.08407626653316,3.27332682695667,0.835622291399622,-0.0401635842031374,0.0343038515534395,-0.546847341756699,-0.13,-1.02,9.75
5.632421,180,180,0,0,3.8906,66.375,5.02773532171365,3.24627229061164,0.835622291399622,-0.0399804675578343,0.0343038515534395,-0.546847341756699,-0.13,-1.02,9.75
5.7324104,180,180,0,0,3.8318,66.375,4.99844891323916,3.1628768094471,0.835805408044925,-0.0394921565036929,0.0332661905633889,-0.546664225111396,-0.12,-1,9.75
5.750704,180,180,0,0,3.8024,66.3125,4.96916250476467,3.07948132828256,0.835866446926692,-0.0395531953854605,0.0330220350363181,-0.546664225111396,-0.11,-1,9.75
5.7766565,180,180,0,0,3.7632,66.3125,4.99621704110969,3.02314038346305,0.835866446926692,-0.040041506439602,0.0321674906915705,-0.546603186229628,-0.09,-0.99,9.75
5.8745308,180,180,0,0,3.5672,66.3125,5.23970786821493,2.51607188008741,0.836110602453763,-0.0425441005920772,0.0280778856131356,-0.546359030702558,0,-1,9.75
5.8954991,180,180,0,0,3.5378,66.3125,5.26676240455995,2.45973093526789,0.836110602453763,-0.0433376060550571,0.0270402246230849,-0.54629799182079,0.02,-1,9.75
5.9123402,180,180,0,0,3.4888,66.25,5.34792601359503,2.29070810080935,0.836171641335531,-0.0440700726362693,0.0259415247512666,-0.546236952939022,0.04,-1,9.75
6.0104865,180,180,0,0,3.283,66.25,5.83937141206442,1.55604394602618,0.836171641335531,-0.0489531831776842,0.020020753219801,-0.545992797411951,0.19,-1.01,9.75
6.0314317,180,180,0,0,3.2242,66.25,5.86642594840945,1.49970300120667,0.836171641335531,-0.0499908441677348,0.0187389367026796,-0.545931758530184,0.22,-1.02,9.75
6.0504478,180,180,0,0,3.2046,66.25,5.94758955744453,1.33068016674812,0.836171641335531,-0.0510285051577855,0.0174571201855582,-0.545931758530184,0.25,-1.02,9.74
6.149286,180,180,0,0,2.842,66.25,6.60359404611354,0.397706769031922,0.836049563571995,-0.0569492766892511,0.0106818043093451,-0.545687603003113,0.43,-1.04,9.74
6.1698206,180,180,0,0,2.7636,66.25,6.65770311880359,0.285024879392891,0.835988524690228,-0.0581090154428371,0.00927791002868827,-0.545687603003113,0.47,-1.05,9.73
6.1905102,180,180,0,0,2.7342,66.25,6.84931674534824,0.0303746916403407,0.835988524690228,-0.0593297930781908,0.00781297686626381,-0.545565525239578,0.5,-1.05,9.73
6.2883233,180,180,0,0,2.4108,66.1875,7.42192575285271,-0.873312297601369,0.835805408044925,-0.0654336812549594,0.00030519440883843,-0.545199291948972,0.69,-1.07,9.72
6.3114735,180,180,0,0,2.352,66.1875,7.47603482554276,-0.985994187240399,0.835744369163157,-0.0666544588903131,-0.00115973875358603,-0.545138253067204,0.73,-1.07,9.71
6.3285477,180,180,0,0,2.3226,66.1875,7.63836204361291,-1.32403985615749,0.835744369163157,-0.0677531587621315,-0.00280778856131356,-0.545077214185436,0.76,-1.08,9.71
6.4245111,180,180,0,0,2.0972,66.1875,8.15686197842733,-2.11504495576017,0.835439174754319,-0.0731245803576878,-0.00921687114692059,-0.54471098089483,0.93,-1.09,9.7
6.4466748,180,180,0,0,2.058,66.1875,8.23802558746241,-2.28406779021872,0.835378135872551,-0.0741012024659708,-0.0106818043093451,-0.544649942013062,0.98,-1.1,9.69
6.461527,180,180,0,0,2.0384,66.1875,8.31918919649749,-2.45309062467726,0.835317096990783,-0.0750778245742538,-0.0119636208264665,-0.544649942013062,0.99,-1.1,9.69
6.5606011,180,180,0,0,1.8914,66.1875,8.78358005862186,-3.13141383464091,0.834950863700177,-0.0794726240615272,-0.0172740035402551,-0.544405786485992,1.13,-1.11,9.67
6.5816804,180,180,0,0,1.862,66.1875,8.89403007613142,-3.21704118793492,0.834828785936642,-0.0804492461698102,-0.0181285478850027,-0.544405786485992,1.15,-1.12,9.67
6.597427,180,180,0,0,1.8522,66.1875,8.94813914882147,-3.32972307757395,0.834767747054874,-0.0812427516327901,-0.0187999755844473,-0.544344747604224,1.17,-1.12,9.67
6.700661,180,180,0,0,1.8032,66.1875,9.11269823902109,-3.52803232050698,0.834523591527803,-0.083195995849356,-0.0206311420374779,-0.544344747604224,1.23,-1.14,9.66
6.7217022,180,180,0,0,1.813,66.1875,9.22314825653066,-3.61365967380099,0.834462552646036,-0.0839284624305683,-0.0208752975645486,-0.544405786485992,1.23,-1.15,9.65
6.7396872,180,180,0,0,1.813,66.1875,9.22314825653066,-3.61365967380099,0.834401513764268,-0.0842336568394067,-0.0208752975645486,-0.544405786485992,1.24,-1.15,9.65
6.8385482,180,180,0,0,1.9012,66.25,9.22538012866012,-3.47392324781693,0.834279436000733,-0.0842336568394067,-0.0199597143380333,-0.544649942013062,1.22,-1.16,9.65
6.8604618,180,180,0,0,1.9208,66.25,9.25466653713461,-3.39052776665239,0.834218397118965,-0.084172617957639,-0.0192272477568211,-0.54471098089483,1.21,-1.17,9.66
6.8774559,180,180,0,0,1.96,66.25,9.22761200078959,-3.33418682183287,0.834218397118965,-0.0838674235488006,-0.0186168589391442,-0.544772019776598,1.2,-1.17,9.66
6.9768888,180,180,0,0,2.1364,66.3125,9.04046211850387,-2.80006378211221,0.8343404748825,-0.0816089849233962,-0.0144051760971739,-0.545138253067204,1.1,-1.18,9.67
6.996644,180,180,0,0,2.1756,66.3125,9.01340758215884,-2.74372283729269,0.8343404748825,-0.0814258682780931,-0.0139168650430324,-0.545138253067204,1.09,-1.18,9.67
7.0127287,180,180,0,0,2.1952,66.3125,8.98635304581382,-2.68738189247318,0.8343404748825,-0.0811817127510224,-0.0133675151071232,-0.545199291948972,1.06,-1.18,9.67
7.1143728,180,180,0,0,2.45,66.3125,8.71803955449302,-1.98423601829397,0.834645669291339,-0.0770310687908198,-0.00622596594030397,-0.54550448635781,0.92,-1.19,9.68
7.1344413,180,180,0,0,2.5186,66.3125,8.60982140911292,-1.75887223901591,0.834645669291339,-0.0766037966184459,-0.00555453824085943,-0.54550448635781,0.91,-1.19,9.69
7.1505811,180,180,0,0,2.548,66.3125,8.52865780007784,-1.58984940455736,0.834706708173106,-0.075810291155466,-0.00427272172373802,-0.54550448635781,0.88,-1.19,9.69
7.2556105,180,180,0,0,2.8518,66.3125,8.12283975490245,-0.744735232264631,0.835011902581945,-0.0707440639687481,0.0034792162607581,-0.545748641884881,0.71,-1.19,9.7
7.2767423,180,180,0,0,2.9204,66.3125,8.01462160952235,-0.519371452986569,0.835072941463712,-0.0702557529146066,0.00421168284197034,-0.545748641884881,0.66,-1.19,9.71
7.3008901,180,180,0,0,2.9792,66.3125,7.93345800048727,-0.350348618528023,0.83513398034548,-0.0693401696880913,0.00573765488616249,-0.545748641884881,0.64,-1.19,9.71
7.3963599,180,180,0,0,3.2438,66.3125,7.41942180993178,0.720129333042769,0.835378135872551,-0.0636025148019288,0.0142220594518708,-0.545931758530184,0.44,-1.19,9.72
7.4148067,180,180,0,0,3.2732,66.3125,7.33602632876724,0.749415741517258,0.835378135872551,-0.062992125984252,0.0149545260330831,-0.545931758530184,0.41,-1.19,9.72
7.4335179,180,180,0,0,3.332,66.3125,7.22780818338714,0.97477952079532,0.835500213636086,-0.0618323872306659,0.0164194591955075,-0.545870719648416,0.37,-1.18,9.72
7.5325385,180,180,0,0,3.5476,66.3125,6.73859465704721,1.84918010156254,0.835622291399622,-0.0564609656351096,0.0235610083623268,-0.545992797411951,0.2,-1.17,9.73
7.5548198,180,180,0,0,3.577,66.3125,6.60109010319261,1.99114839967606,0.835683330281389,-0.0553012268815235,0.0249038637612159,-0.545992797411951,0.18,-1.17,9.73
7.5717501,180,180,0,0,3.577,66.3125,6.51992649415754,2.16017123413461,0.835683330281389,-0.0542635658914729,0.0260636025148019,-0.546053836293719,0.15,-1.16,9.73
7.6787151,180,180,0,0,3.7142,66.3125,6.05553563203317,2.83849444409825,0.835744369163157,-0.049380455350058,0.0318622962827321,-0.546114875175487,0,-1.15,9.73
7.696778,180,180,0,0,3.724,66.3125,6.00142655934312,2.95117633373728,0.835744369163157,-0.0487090276506134,0.032655801745712,-0.546053836293719,-0.01,-1.14,9.73
7.7126087,180,180,0,0,3.7436,66.3125,5.97437202299809,3.0075172785568,0.835744369163157,-0.0484648721235427,0.0329609961545504,-0.546053836293719,-0.03,-1.14,9.73
7.8185157,180,180,0,0,3.7534,66.25,5.75570386010842,3.31850841112887,0.835866446926692,-0.0462064334981383,0.0355856680705609,-0.545931758530184,-0.08,-1.13,9.73
7.8405833,180,180,0,0,3.7534,66.25,5.75570386010842,3.31850841112887,0.835866446926692,-0.0460233168528353,0.0357077458340963,-0.545931758530184,-0.09,-1.13,9.74
7.8606964,180,180,0,0,3.7436,66.25,5.75570386010842,3.31850841112887,0.83592748580846,-0.0459622779710676,0.035768784715864,-0.545870719648416,-0.09,-1.13,9.74
7.9626441,180,180,0,0,3.6554,66.25,5.80981293279847,3.20582652148984,0.836049563571995,-0.0463895501434414,0.0346700848440457,-0.545687603003113,-0.06,-1.13,9.74
7.9859545,180,180,0,0,3.626,66.25,5.78052652432398,3.12243104032529,0.836110602453763,-0.0468778611975829,0.0338155404992981,-0.545626564121345,-0.05,-1.13,9.74
8.1074909,180,180,0,0,3.4496,66.1875,6.05107188777424,2.55902159213014,0.836354757980834,-0.0499908441677348,0.0289324299578832,-0.545260330830739,0.05,-1.12,9.74
8.1287653,180,180,0,0,3.4006,66.1875,6.10518096046429,2.44633970249111,0.836354757980834,-0.0506622718671794,0.0278947689678325,-0.545260330830739,0.08,-1.12,9.74
8.1468127,180,180,0,0,3.3516,66.1875,6.18634456949937,2.27731686803256,0.836415796862601,-0.0513947384483916,0.0267960690960142,-0.545199291948972,0.1,-1.12,9.74
8.260785,180,180,0,0,3.1164,66.125,6.53805354198471,1.54488458537886,0.836415796862601,-0.0562778489898065,0.0194103644021242,-0.544955136421901,0.28,-1.13,9.73
8.2784452,180,180,0,0,3.038,66.125,6.70261263218433,1.34657534244583,0.836415796862601,-0.0567051211621803,0.0187999755844473,-0.544955136421901,0.29,-1.13,9.73
8.2978606,180,180,0,0,2.9694,66.125,6.7837762412194,1.17755250798728,0.836415796862601,-0.0576207043886956,0.0174571201855582,-0.544955136421901,0.32,-1.13,9.73
8.3953919,180,180,0,0,2.7048,66.125,7.18959428639479,0.332438335694552,0.836354757980834,-0.0622596594030397,0.0105597265458097,-0.54471098089483,0.49,-1.13,9.72
8.414548,180,180,0,0,2.6754,66.125,7.27075789542987,0.163415501236006,0.836354757980834,-0.063175242629555,0.00921687114692059,-0.544588903131295,0.52,-1.13,9.72
8.4317617,180,180,0,0,2.6068,66.125,7.32486696811992,0.0507336115969754,0.836293719099066,-0.0640908258560703,0.00775193798449612,-0.544588903131295,0.55,-1.13,9.72
8.530575,180,180,0,0,2.3618,66.125,7.75773954964034,-0.85072150551527,0.836171641335531,-0.0684856253433437,0.00128181651712141,-0.544344747604224,0.71,-1.13,9.71
8.5486108,180,180,0,0,2.3128,66.0625,7.81184862233039,-0.963403395154301,0.836110602453763,-0.0689739363974852,0.000549349935909174,-0.544283708722456,0.76,-1.13,9.71
8.5687775,180,180,0,0,2.2834,66.0625,7.92006676771049,-1.18876717443236,0.836110602453763,-0.0703167917963743,-0.00164804980772752,-0.544161630958921,0.77,-1.13,9.7
8.668534,180,180,0,0,2.0874,66.0625,8.32588481288588,-2.03388134672509,0.835866446926692,-0.0745284746383446,-0.00836232680217298,-0.543856436550082,0.94,-1.13,9.69
8.6906641,180,180,0,0,2.058,66.0625,8.3529393492309,-2.09022229154461,0.835805408044925,-0.0753219801013245,-0.00964414331929439,-0.543795397668315,0.96,-1.13,9.69
8.709523,180,180,0,0,2.0384,66.0625,8.43410295826598,-2.25924512600315,0.835805408044925,-0.075627174510163,-0.0102545321369713,-0.543795397668315,1,-1.12,9.68
8.8085124,180,180,0,0,1.9404,66.0625,8.67536191324175,-2.90605005536285,0.835500213636086,-0.078923274125618,-0.0164194591955075,-0.543612281023012,1.1,-1.11,9.67
8.8275508,180,180,0,0,1.9306,66.0625,8.7294709859318,-3.01873194500188,0.835500213636086,-0.0791063907709211,-0.0167856924861137,-0.543612281023012,1.11,-1.11,9.67
8.8479404,180,180,0,0,1.9208,66.0625,8.75652552227683,-3.0750728898214,0.835439174754319,-0.0795336629432949,-0.0174571201855582,-0.543612281023012,1.13,-1.11,9.67
8.9447985,180,180,0,0,1.9306,66.0625,8.83545725918244,-3.383832150264,0.835256058109015,-0.0806323628151132,-0.0195324421656595,-0.543673319904779,1.18,-1.11,9.67
8.9665682,180,180,0,0,1.9306,66.0625,8.83545725918244,-3.383832150264,0.835195019227248,-0.0806934016968809,-0.0197155588109626,-0.543734358786547,1.18,-1.11,9.67
8.9837685,180,180,0,0,1.9404,66.125,8.86251179552747,-3.44017309508351,0.835195019227248,-0.0806934016968809,-0.019837636574498,-0.543734358786547,1.18,-1.11,9.67
9.0845527,180,180,0,0,2.0286,66.125,8.80840272283742,-3.32749120544448,0.83513398034548,-0.079899896233901,-0.0187999755844473,-0.543978514313618,1.16,-1.1,9.67
9.1057143,180,180,0,0,2.058,66.125,8.78134818649239,-3.27115026062497,0.83513398034548,-0.0797167795885979,-0.0185558200573765,-0.544039553195385,1.15,-1.1,9.67
9.1315531,180,180,0,0,2.0972,66.125,8.72723911380234,-3.15846837098594,0.83513398034548,-0.0791674296526888,-0.0177012757126289,-0.544161630958921,1.13,-1.1,9.67
9.234677,180,180,0,0,2.2932,66.1875,8.45669375035208,-2.59505892279078,0.835195019227248,-0.0762375633278398,-0.0133064762253556,-0.544588903131295,1.03,-1.1,9.68
9.2557171,180,180,0,0,2.3422,66.1875,8.40258467766203,-2.48237703315175,0.835195019227248,-0.075627174510163,-0.0122688152353049,-0.54471098089483,1,-1.1,9.69
9.2797961,180,180,0,0,2.401,66.1875,8.34847560497198,-2.36969514351272,0.835195019227248,-0.0748947079289507,-0.0112311542452542,-0.544772019776598,0.97,-1.1,9.69
9.3767581,180,180,0,0,2.6362,66.25,7.99676663248664,-1.63726286085902,0.835317096990783,-0.0711102972593542,-0.00543246047732406,-0.545260330830739,0.84,-1.1,9.7
9.3947857,180,180,0,0,2.695,66.25,7.91560302345156,-1.46824002640048,0.835317096990783,-0.0703167917963743,-0.00421168284197034,-0.545321369712507,0.82,-1.1,9.7
9.4094807,180,180,0,0,2.7244,66.25,7.88854848710654,-1.41189908158096,0.835378135872551,-0.0694622474516267,-0.00292986632484893,-0.545382408594275,0.79,-1.1,9.71
9.4259284,180,180,0,0,2.7538,66.25,7.80738487807146,-1.24287624712241,0.835378135872551,-0.0690960141610206,-0.00231947750717207,-0.545443447476042,0.77,-1.1,9.71
9.5264267,180,180,0,0,3.038,66.25,7.34522588807656,-0.424816611174709,0.835561252517854,-0.0643960202649087,0.00433376060550571,-0.545748641884881,0.61,-1.1,9.72
9.5445699,180,180,0,0,3.1066,66.25,7.26406227904148,-0.255793776716164,0.835561252517854,-0.0634804370383935,0.00573765488616249,-0.545809680766648,0.58,-1.1,9.72
9.5594477,180,180,0,0,3.136,66.25,7.1828986700064,-0.0867709422576173,0.835622291399622,-0.0625038149301105,0.00714154916681926,-0.545809680766648,0.55,-1.1,9.72
9.5745388,180,180,0,0,3.1654,66.25,7.15584413366138,-0.0304299974381022,0.835622291399622,-0.062015503875969,0.00781297686626381,-0.545870719648416,0.53,-1.09,9.73
9.6726699,180,180,0,0,3.3908,66.3125,6.66663060732145,0.843970583329118,0.835744369163157,-0.0570713544527864,0.0147103705060123,-0.546114875175487,0.37,-1.09,9.73
9.6929403,180,180,0,0,3.4398,66.3125,6.58546699828637,1.01299341778766,0.835744369163157,-0.0560947323445034,0.0159921870231337,-0.546114875175487,0.33,-1.09,9.73
9.7136401,180,180,0,0,3.4888,66.3125,6.50430338925129,1.18201625224621,0.835744369163157,-0.0551791491179882,0.0172740035402551,-0.546175914057255,0.3,-1.08,9.74
9.8086758,180,180,0,0,3.5672,66.3125,6.12330800829147,1.83105305373537,0.835805408044925,-0.0508453885124825,0.023133736189953,-0.54629799182079,0.16,-1.08,9.74
9.8375405,180,180,0,0,3.5868,66.3125,6.04214439925639,2.00007588819391,0.835805408044925,-0.0497466886406641,0.0246597082341452,-0.546359030702558,0.12,-1.07,9.74
9.8579833,180,180,0,0,3.6162,66.3125,5.96098079022131,2.16909872265246,0.835805408044925,-0.049380455350058,0.0251480192882866,-0.546359030702558,0.11,-1.07,9.74
9.9775735,180,180,0,0,3.6946,66.3125,5.71748996311608,2.6761672260281,0.835866446926692,-0.0466947445522798,0.0297259354208631,-0.546236952939022,0,-1.08,9.74
9.9965526,180,180,0,0,3.6946,66.3125,5.69043542677105,2.73250817084761,0.835866446926692,-0.0465116279069767,0.0302142464750046,-0.546236952939022,0,-1.08,9.74
10.0126101,180,180,0,0,3.6946,66.3125,5.69043542677105,2.73250817084761,0.835866446926692,-0.0463285112616737,0.0306415186473784,-0.546236952939022,0,-1.08,9.74
10.1125818,180,180,0,0,3.6358,66.25,5.77606278006506,2.84295818835718,0.83592748580846,-0.0469389000793505,0.0314350241103583,-0.545992797411951,-0.01,-1.1,9.74
10.1304526,180,180,0,0,3.626,66.25,5.77606278006506,2.84295818835718,0.83592748580846,-0.0470609778428859,0.0313739852285906,-0.545992797411951,-0.01,-1.1,9.74
10.1457651,180,180,0,0,3.6064,66.25,5.8594582612296,2.81367177988269,0.835988524690228,-0.0476713666605628,0.0311908685832876,-0.545931758530184,0,-1.11,9.74
10.1628373,180,180,0,0,3.5868,66.25,5.8594582612296,2.81367177988269,0.835988524690228,-0.0479155221876335,0.0310687908197522,-0.545870719648416,0,-1.11,9.74
10.2648203,180,180,0,0,3.4202,66.25,6.13446736893878,2.52973518365565,0.836049563571995,-0.0508453885124825,0.0288103521943478,-0.545626564121345,0.07,-1.14,9.73
10.2865336,180,180,0,0,3.381,66.1875,6.24491738644835,2.44410783036165,0.836110602453763,-0.0516388939754624,0.0281389244949033,-0.545565525239578,0.09,-1.14,9.73
10.3036896,180,180,0,0,3.3712,66.1875,6.27197192279338,2.38776688554213,0.836110602453763,-0.0520661661478362,0.0277726912042971,-0.54550448635781,0.1,-1.15,9.73
10.4035469,180,180,0,0,3.1654,66.1875,6.73859465704721,1.84918010156254,0.836171641335531,-0.0563999267533419,0.0235610083623268,-0.545138253067204,0.21,-1.17,9.73
10.4237023,180,180,0,0,3.1458,66.1875,6.79270372973726,1.73649821192351,0.836232680217298,-0.0578038210339987,0.02215711408167,-0.545016175303668,0.25,-1.18,9.73
10.4499542,180,180,0,0,3.087,66.125,6.95726281993688,1.53818896899047,0.836232680217298,-0.0587194042605139,0.021180491973387,-0.544955136421901,0.28,-1.18,9.73
10.5684973,180,180,0,0,2.744,66.125,7.4757627547513,0.747183869387795,0.836232680217298,-0.064151864737838,0.0146493316242446,-0.544527864249527,0.45,-1.21,9.72
10.5997307,180,180,0,0,2.6852,66.125,7.55692636378637,0.578161034929249,0.836171641335531,-0.0661661478361716,0.0123908929988403,-0.544405786485992,0.5,-1.21,9.71
10.6157345,180,180,0,0,2.6264,66.125,7.72148545398599,0.379851791996213,0.836171641335531,-0.0665934200085454,0.0117805041811634,-0.544344747604224,0.51,-1.21,9.71
10.7147456,180,180,0,0,2.4108,66.0625,8.10024896281636,-0.408921435477002,0.836049563571995,-0.0709271806140511,0.00573765488616249,-0.544100592077153,0.66,-1.22,9.7
10.7345164,180,180,0,0,2.352,66.0625,8.21069898032592,-0.494548788771007,0.836049563571995,-0.0718427638405664,0.00445583836904108,-0.544039553195385,0.69,-1.22,9.7
10.7505404,180,180,0,0,2.3324,66.0625,8.291862589361,-0.663571623229553,0.836049563571995,-0.0727583470670817,0.00329609961545504,-0.54391747543185,0.72,-1.22,9.7
10.8704487,180,180,0,0,2.1462,66.0625,8.69768063453639,-1.50868579552228,0.835866446926692,-0.0772141854361228,-0.00323506073368736,-0.543551242141244,0.87,-1.23,9.68
10.8897636,180,180,0,0,2.1168,66.0625,8.80813065204596,-1.59431314881629,0.835805408044925,-0.077946652017335,-0.00427272172373802,-0.543551242141244,0.9,-1.23,9.68
10.9066165,180,180,0,0,2.0972,66.0625,8.83518518839098,-1.6506540936358,0.835805408044925,-0.0786791185985473,-0.005249343832021,-0.543490203259476,0.92,-1.23,9.68
11.0127624,180,180,0,0,1.9992,66.0625,9.04938960702172,-2.24111807817598,0.835622291399622,-0.081059634987487,-0.00970518220106208,-0.543307086614173,1.02,-1.22,9.67
11.0458412,180,180,0,0,1.9796,66.0625,9.1305532160568,-2.41014091263453,0.835561252517854,-0.0817921015686993,-0.0111090764817189,-0.543307086614173,1.05,-1.22,9.67
11.1438394,180,180,0,0,1.9796,66.0625,9.12608947179788,-2.68961376460264,0.835439174754319,-0.0822804126228407,-0.0130623206982848,-0.543307086614173,1.09,-1.2,9.67
11.1638696,180,180,0,0,1.9894,66.0625,9.12608947179788,-2.68961376460264,0.835439174754319,-0.0822804126228407,-0.0133675151071232,-0.543368125495941,1.09,-1.2,9.67
11.1819628,180,180,0,0,1.9992,66.0625,9.12608947179788,-2.68961376460264,0.835439174754319,-0.0822193737410731,-0.0134895928706586,-0.543368125495941,1.09,-1.2,9.67
11.2836294,180,180,0,0,2.0776,66.0625,8.98635304581382,-2.68738189247318,0.835439174754319,-0.0808154794604163,-0.0132454373435879,-0.543551242141244,1.07,-1.18,9.67
11.3038426,180,180,0,0,2.107,66.0625,8.95929850946879,-2.63104094765366,0.835439174754319,-0.0803882072880425,-0.0129402429347494,-0.543612281023012,1.06,-1.17,9.67
11.3197603,180,180,0,0,2.1168,66.0625,8.87590302830425,-2.60175453917917,0.835439174754319,-0.0800219739974364,-0.0125740096441433,-0.543673319904779,1.05,-1.17,9.67
11.4197595,180,180,0,0,2.2932,66.125,8.57383938425004,-2.26147699813262,0.835561252517854,-0.0769700299090521,-0.00982725996459745,-0.544039553195385,0.98,-1.15,9.68
11.4438297,180,180,0,0,2.3324,66.125,8.54678484790501,-2.2051360533131,0.835561252517854,-0.0766037966184459,-0.00946102667399133,-0.544100592077153,0.97,-1.15,9.68
11.4606691,180,180,0,0,2.3618,66.125,8.40928029405042,-2.06316775519958,0.835561252517854,-0.0754440578648599,-0.00836232680217298,-0.544222669840689,0.94,-1.14,9.69
11.5597215,180,180,0,0,2.597,66.125,7.99899850461611,-1.49752643487496,0.835744369163157,-0.0711102972593542,-0.00402856619666728,-0.544588903131295,0.82,-1.12,9.7
11.5798935,180,180,0,0,2.6264,66.125,7.97194396827108,-1.44118549005545,0.835744369163157,-0.0706830250869804,-0.00360129402429347,-0.544649942013062,0.81,-1.11,9.7
11.5978498,180,180,0,0,2.6852,66.1875,7.83443941441649,-1.29921719194193,0.835805408044925,-0.0698284807422328,-0.0026246719160105,-0.54471098089483,0.77,-1.11,9.71
11.6946682,180,180,0,0,2.9106,66.1875,7.39710308863715,-0.677234926797797,0.83592748580846,-0.0650674479643533,0.00231947750717207,-0.545138253067204,0.65,-1.09,9.72
11.717973,180,180,0,0,2.9792,66.1875,7.25959853478255,-0.535266628684277,0.83592748580846,-0.0634804370383935,0.00378441066959653,-0.545260330830739,0.61,-1.08,9.72
11.8376087,180,180,0,0,3.2634,66.25,6.68475765514862,0.228683934573376,0.836049563571995,-0.057742782152231,0.00952206555575902,-0.545626564121345,0.44,-1.04,9.74
11.8575429,180,180,0,0,3.3124,66.25,6.520198564949,0.426993177506412,0.836110602453763,-0.0561557712262711,0.0111701153634865,-0.545748641884881,0.41,-1.03,9.74
11.8741503,180,180,0,0,3.3614,66.25,6.46608949225895,0.539675067145442,0.836110602453763,-0.0556674601721296,0.011658426417628,-0.545748641884881,0.4,-1.03,9.74
11.9727008,180,180,0,0,3.528,66.25,5.97241222166009,1.13460279594455,0.836171641335531,-0.0508453885124825,0.0166025758408106,-0.545931758530184,0.27,-1.01,9.75
11.9908047,180,180,0,0,3.5378,66.25,5.91830314897004,1.24728468558358,0.836171641335531,-0.0501129219312702,0.0175181590673259,-0.545992797411951,0.24,-1,9.75
12.0077766,180,180,0,0,3.577,66.25,5.86419407627999,1.35996657522261,0.836171641335531,-0.049380455350058,0.0183727034120735,-0.545992797411951,0.22,-1,9.75
12.1075546,180,180,0,0,3.5868,66.25,5.56436230435524,1.83998054225322,0.836232680217298,-0.0463895501434414,0.0220960751999023,-0.546053836293719,0.13,-0.99,9.75
12.1281078,180,180,0,0,3.6064,66.25,5.53730776801021,1.89632148707274,0.836232680217298,-0.0459012390892999,0.0226454251358115,-0.546053836293719,0.12,-0.99,9.75
12.1470206,180,180,0,0,3.6162,66.25,5.51025323166519,1.95266243189225,0.836293719099066,-0.0455350057986938,0.0230726973081853,-0.546053836293719,0.1,-0.99,9.75
12.2436181,180,180,0,0,3.626,66.25,5.34569414146557,2.15097167482529,0.836354757980834,-0.0443752670451077,0.0244155527070744,-0.545992797411951,0.07,-0.99,9.75
12.2649931,180,180,0,0,3.6162,66.25,5.34569414146557,2.15097167482529,0.836354757980834,-0.0444363059268754,0.0245986693523775,-0.545931758530184,0.07,-0.99,9.75
12.2839746,180,180,0,0,3.6064,66.25,5.40203508628508,2.17802621117031,0.836354757980834,-0.0445583836904108,0.0246597082341452,-0.545931758530184,0.07,-0.99,9.75
12.3817369,180,180,0,0,3.5084,66.1875,5.53953964013968,2.03605791305679,0.836415796862601,-0.0459622779710676,0.0240493194164683,-0.545748641884881,0.1,-1.01,9.75
12.4039494,180,180,0,0,3.479,66.1875,5.62293512130422,2.0067715045823,0.836415796862601,-0.0468168223158152,0.0235610083623268,-0.545687603003113,0.11,-1.02,9.75
12.4229931,180,180,0,0,3.4594,66.1875,5.64998965764924,1.95043055976279,0.836415796862601,-0.0471220167246536,0.0233778917170237,-0.545626564121345,0.12,-1.02,9.75
12.5235828,180,180,0,0,3.3222,66.1875,6.035448782868,1.58086661024174,0.836476835744369,-0.0507233107489471,0.0206921809192456,-0.545382408594275,0.2,-1.05,9.74
12.5419263,180,180,0,0,3.3026,66.1875,6.09178972768751,1.60792114658677,0.836476835744369,-0.0520661661478362,0.0196545199291949,-0.545260330830739,0.23,-1.06,9.74
12.5576878,180,180,0,0,3.2438,66.1875,6.17295333672259,1.43889831212822,0.836476835744369,-0.05249343832021,0.0192882866385888,-0.545199291948972,0.24,-1.06,9.74
12.6556304,180,180,0,0,3.038,66.125,6.69591701579594,0.927366064493659,0.836476835744369,-0.0572544710980895,0.0152597204419215,-0.544833058658365,0.36,-1.1,9.73
12.6767357,180,180,0,0,2.9792,66.125,6.72297155214096,0.871025119674144,0.836476835744369,-0.057742782152231,0.0148324482695477,-0.544833058658365,0.37,-1.1,9.73
12.6968966,180,180,0,0,2.9498,66.125,6.86047610599555,0.729056821560623,0.836476835744369,-0.0587194042605139,0.0140389428065678,-0.544772019776598,0.4,-1.11,9.73
12.7961909,180,180,0,0,2.695,66.0625,7.32709884024939,0.190470037581032,0.836415796862601,-0.0634193981566258,0.00952206555575902,-0.544405786485992,0.52,-1.14,9.72
12.8261928,180,180,0,0,2.646,66.0625,7.43531698562949,-0.0348937416970294,0.836415796862601,-0.0648232924372825,0.00811817127510224,-0.544283708722456,0.55,-1.14,9.72
12.9327338,180,180,0,0,2.3912,66.0625,8.01238973739289,-0.659107878970626,0.836232680217298,-0.0701947140328389,0.00299090520661661,-0.54391747543185,0.69,-1.18,9.7
12.9530127,180,180,0,0,2.3618,66.0625,8.03944427373791,-0.715448823790141,0.836232680217298,-0.071537569431728,0.00170908868949521,-0.543856436550082,0.73,-1.19,9.7
12.969804,180,180,0,0,2.3226,66.0625,8.17694882759251,-0.857417121903661,0.836171641335531,-0.0719648416041018,0.00128181651712141,-0.543795397668315,0.74,-1.19,9.7
13.07168,180,180,0,0,2.1854,66,8.53088967220731,-1.4501129785733,0.836049563571995,-0.075810291155466,-0.00299090520661661,-0.543551242141244,0.85,-1.21,9.69
13.0897513,180,180,0,0,2.156,66,8.61428515337185,-1.47939938704779,0.835988524690228,-0.0763596410913752,-0.00372337178782885,-0.543490203259476,0.87,-1.21,9.69
13.1061152,180,180,0,0,2.1462,66,8.64133968971687,-1.53574033186731,0.835988524690228,-0.0766648355002136,-0.00415064396020265,-0.543490203259476,0.89,-1.21,9.69
13.2117006,180,180,0,0,2.0678,66,8.88483051682211,-2.04280883524295,0.835805408044925,-0.0795336629432949,-0.00775193798449612,-0.543307086614173,0.97,-1.22,9.68
13.2297835,180,180,0,0,2.0482,66,8.96822599798665,-2.07209524371744,0.835744369163157,-0.079899896233901,-0.00817921015686993,-0.543307086614173,0.98,-1.22,9.68
13.2488946,180,180,0,0,2.0482,66,8.99528053433167,-2.12843618853695,0.835744369163157,-0.0803271684062748,-0.00866752121101141,-0.543307086614173,0.99,-1.22,9.67
13.3795543,180,180,0,0,2.058,66.0625,9.13278508818627,-2.27040448665047,0.835561252517854,-0.0815479460416285,-0.00976622108282976,-0.543368125495941,1.02,-1.23,9.67
13.398605,180,180,0,0,2.0678,66.0625,9.13278508818627,-2.27040448665047,0.835561252517854,-0.0815479460416285,-0.00970518220106208,-0.543368125495941,1.02,-1.23,9.67
13.4146262,180,180,0,0,2.0776,66.0625,9.10573055184124,-2.21406354183096,0.835500213636086,-0.0815479460416285,-0.00952206555575902,-0.543429164377709,1.02,-1.23,9.67
13.5187195,180,180,0,0,2.1756,66.0625,9.02456694280616,-2.04504070737241,0.835500213636086,-0.0805102850515779,-0.00775193798449612,-0.543612281023012,0.98,-1.23,9.67
13.5400867,180,180,0,0,2.205,66.0625,8.99751240646114,-1.9886997625529,0.835500213636086,-0.0802050906427394,-0.00726362693035464,-0.543673319904779,0.97,-1.23,9.67
13.5588097,180,180,0,0,2.2344,66.0625,8.97045787011611,-1.93235881773338,0.835500213636086,-0.079899896233901,-0.00671427699444546,-0.543734358786547,0.96,-1.23,9.68
13.6538376,180,180,0,0,2.3814,66.125,8.69768063453639,-1.50868579552228,0.835561252517854,-0.0770921076725874,-0.00354025514252579,-0.544100592077153,0.88,-1.22,9.68
13.6769475,180,180,0,0,2.4304,66.125,8.64357156184634,-1.39600390588325,0.835561252517854,-0.0764206799731429,-0.00280778856131356,-0.544161630958921,0.86,-1.22,9.69
13.6948808,180,180,0,0,2.45,66.125,8.5601760806818,-1.36671749740876,0.835561252517854,-0.0757492522736983,-0.00201428309833364,-0.544283708722456,0.84,-1.21,9.69
13.7968057,180,180,0,0,2.6754,66.1875,8.14989429124748,-0.801076177084146,0.835683330281389,-0.0716596471952634,0.00201428309833364,-0.544649942013062,0.73,-1.19,9.7
13.816865,180,180,0,0,2.7244,66.1875,8.03944427373791,-0.715448823790141,0.835683330281389,-0.0708051028505158,0.00286882744308124,-0.544772019776598,0.7,-1.19,9.7
13.8318728,180,180,0,0,2.7538,66.1875,7.98533520104786,-0.60276693415111,0.835683330281389,-0.0700115973875359,0.00372337178782885,-0.544833058658365,0.68,-1.18,9.71
13.931787,180,180,0,0,2.9596,66.1875,7.57505341161355,-0.0371256138264928,0.835744369163157,-0.0656167979002625,0.00817921015686993,-0.545199291948972,0.56,-1.16,9.72
13.9540367,180,180,0,0,3.0086,66.1875,7.46460339410398,0.048501739467512,0.835744369163157,-0.0647012146737472,0.00909479338338522,-0.545260330830739,0.54,-1.15,9.72
13.9709681,180,180,0,0,3.0576,66.1875,7.41049432141393,0.161183629106543,0.835805408044925,-0.0637856314472319,0.0100103766099005,-0.545382408594275,0.51,-1.15,9.72
14.0719726,180,180,0,0,3.2634,66.25,6.91681705081507,0.756111357905649,0.835866446926692,-0.0592077153146554,0.0139168650430324,-0.545626564121345,0.39,-1.11,9.73
14.0928531,180,180,0,0,3.3026,66.25,6.77931249696048,0.89807965601917,0.83592748580846,-0.057925898797534,0.0151986815601538,-0.545687603003113,0.37,-1.11,9.73
14.112784,180,180,0,0,3.3418,66.25,6.66886247945091,0.983707009313174,0.83592748580846,-0.0569492766892511,0.0160532259049014,-0.545748641884881,0.34,-1.1,9.73
14.2096212,180,180,0,0,3.4888,66.25,6.25634881788713,1.40961190365373,0.836049563571995,-0.0526155160837453,0.0195934810474272,-0.545931758530184,0.24,-1.07,9.74
14.2310172,180,180,0,0,3.5084,66.25,6.20223974519708,1.52229379329277,0.836049563571995,-0.0522492827931392,0.0198986754562656,-0.545931758530184,0.22,-1.06,9.74
14.2488429,180,180,0,0,3.528,66.25,6.11884426403254,1.55158020176726,0.836049563571995,-0.051516816211927,0.0205090642739425,-0.545931758530184,0.2,-1.06,9.74
14.3466765,180,180,0,0,3.5476,66.25,5.81678061997833,1.89185774281381,0.836171641335531,-0.0484648721235427,0.0226454251358115,-0.545992797411951,0.14,-1.03,9.75
14.367015,180,180,0,0,3.5378,66.25,5.73338513881378,1.9211441512883,0.836171641335531,-0.0480375999511689,0.0228895806628823,-0.545992797411951,0.13,-1.03,9.75
14.3847506,180,180,0,0,3.528,66.25,5.73338513881378,1.9211441512883,0.836232680217298,-0.0476713666605628,0.0230726973081853,-0.545992797411951,0.13,-1.02,9.75
14.4847022,180,180,0,0,3.5378,66.25,5.62293512130422,2.0067715045823,0.836293719099066,-0.0467557834340475,0.0233778917170237,-0.545870719648416,0.11,-1.01,9.75
14.5070562,180,180,0,0,3.528,66.25,5.64998965764924,1.95043055976279,0.836293719099066,-0.0468168223158152,0.0232558139534884,-0.545870719648416,0.12,-1.01,9.75
14.5339856,180,180,0,0,3.4986,66.25,5.64998965764924,1.95043055976279,0.836354757980834,-0.0468168223158152,0.0230726973081853,-0.545809680766648,0.12,-1.01,9.75
14.630817,180,180,0,0,3.4006,66.1875,5.70186685820983,1.6980122441397,0.836415796862601,-0.0478544833058658,0.0210584142098517,-0.545687603003113,0.17,-1.01,9.75
14.6517279,180,180,0,0,3.381,66.1875,5.75597593089988,1.58533035450067,0.836476835744369,-0.048403833241775,0.0201428309833364,-0.545626564121345,0.18,-1.01,9.75
14.6700025,180,180,0,0,3.3712,66.1875,5.78303046724491,1.52898940968116,0.836476835744369,-0.0485869498870781,0.019837636574498,-0.545565525239578,0.19,-1,9.75
14.770672,180,180,0,0,3.2144,66.1875,6.05580770282463,1.10531638747006,0.836537874626137,-0.0517609717389977,0.0163584203137399,-0.545321369712507,0.28,-1.02,9.74
14.789966,180,180,0,0,3.2046,66.1875,6.1662577203342,1.01968903417605,0.836537874626137,-0.0524323994384423,0.0155649148507599,-0.545260330830739,0.3,-1.02,9.74
14.8070482,180,180,0,0,3.1556,66.125,6.22036679302425,0.907007144537024,0.836537874626137,-0.0531648660196545,0.0147103705060123,-0.545199291948972,0.33,-1.03,9.74
14.939677,180,180,0,0,2.8518,66.125,6.76815313631316,0.199397526098887,0.836598913507904,-0.058902520905817,0.00860648232924373,-0.54471098089483,0.48,-1.05,9.73
14.9610041,180,180,0,0,2.8028,66.125,6.82226220900321,0.0867156364598558,0.836598913507904,-0.0593297930781908,0.00817921015686993,-0.54471098089483,0.51,-1.06,9.73
14.9779087,180,180,0,0,2.7734,66.125,6.87637128169326,-0.0259662531791749,0.836537874626137,-0.0602453763047061,0.00732466581212232,-0.544588903131295,0.53,-1.06,9.73
15.0737766,180,180,0,0,2.548,66.0625,7.3137076074726,-0.647948518323307,0.836476835744369,-0.0643349813831411,0.00268571079777818,-0.544283708722456,0.64,-1.08,9.72
15.0956726,180,180,0,0,2.5284,66.0625,7.42415762498217,-0.733575871617312,0.836476835744369,-0.065128486846121,0.00177012757126289,-0.544222669840689,0.66,-1.08,9.72
15.1121891,180,180,0,0,2.4794,66.0625,7.47826669767222,-0.846257761256343,0.836476835744369,-0.0659219923091009,0.000854544344747604,-0.544161630958921,0.68,-1.09,9.72
15.2117883,180,180,0,0,2.3226,66.0625,7.86149395076151,-1.35555813676144,0.836293719099066,-0.0698895196240005,-0.00341817737899042,-0.543856436550082,0.8,-1.1,9.71
15.2307489,180,180,0,0,2.2834,66.0625,7.91560302345156,-1.46824002640048,0.836293719099066,-0.0706219862052127,-0.00415064396020265,-0.543856436550082,0.82,-1.11,9.7
15.2470803,180,180,0,0,2.2736,66.0625,7.94265755979659,-1.52458097121999,0.836232680217298,-0.0709882194958188,-0.00451687725080877,-0.543795397668315,0.84,-1.11,9.7
15.3462489,180,180,0,0,2.1658,66.0625,8.27177574019583,-1.92119945708606,0.836049563571995,-0.0742843191112739,-0.00805713239333455,-0.543673319904779,0.92,-1.13,9.69
15.3658357,180,180,0,0,2.156,66.0625,8.32588481288588,-2.03388134672509,0.836049563571995,-0.0745284746383446,-0.0083012879204053,-0.543612281023012,0.93,-1.13,9.69
15.3840253,180,180,0,0,2.1364,66.0625,8.3529393492309,-2.09022229154461,0.835988524690228,-0.0750167856924861,-0.00878959897454679,-0.543612281023012,0.94,-1.13,9.69
15.4810379,180,180,0,0,2.107,66.0625,8.51749843943052,-2.28853153447764,0.835805408044925,-0.0766648355002136,-0.0104376487822743,-0.543612281023012,0.98,-1.14,9.68
15.4997161,180,180,0,0,2.107,66.0625,8.54455297577555,-2.34487247929716,0.835805408044925,-0.0768479521455167,-0.0106207654275774,-0.543612281023012,0.99,-1.14,9.68
15.5166837,180,180,0,0,2.1168,66.0625,8.60089392059507,-2.31781794295213,0.835805408044925,-0.0770310687908198,-0.0107428431911127,-0.543612281023012,0.99,-1.14,9.68
15.613942,180,180,0,0,2.1462,66.0625,8.57383938425004,-2.26147699813262,0.835744369163157,-0.0770921076725874,-0.0103766099005066,-0.543734358786547,0.99,-1.15,9.68
15.6338884,180,180,0,0,2.1658,66.0625,8.57383938425004,-2.26147699813262,0.835744369163157,-0.0770310687908198,-0.0102545321369713,-0.543734358786547,0.98,-1.15,9.68
15.6498142,180,180,0,0,2.1756,66.0625,8.54678484790501,-2.2051360533131,0.835683330281389,-0.076786913263749,-0.00982725996459745,-0.543795397668315,0.98,-1.15,9.68
15.7457876,180,180,0,0,2.2834,66.125,8.43856670252491,-1.97977227403504,0.835683330281389,-0.0754440578648599,-0.00744674357565769,-0.544039553195385,0.92,-1.15,9.69
15.7668921,180,180,0,0,2.303,66.125,8.41151216617988,-1.92343132921553,0.835683330281389,-0.0752609412195569,-0.00714154916681926,-0.544100592077153,0.92,-1.15,9.69
15.7832916,180,180,0,0,2.3324,66.125,8.35740309348983,-1.8107494395765,0.835683330281389,-0.0748336690471831,-0.00647012146737472,-0.544161630958921,0.9,-1.15,9.69
15.8817169,180,180,0,0,2.4892,66.125,8.19730774754914,-1.33296734467535,0.835683330281389,-0.0724531526582433,-0.0026246719160105,-0.544466825367759,0.81,-1.15,9.7
15.9020496,180,180,0,0,2.5382,66.125,8.14319867485909,-1.22028545503632,0.835683330281389,-0.0719038027223341,-0.00177012757126289,-0.544588903131295,0.79,-1.15,9.7
15.9200622,180,180,0,0,2.5578,66.125,8.11614413851406,-1.1639445102168,0.835683330281389,-0.071354452786425,-0.000854544344747604,-0.544649942013062,0.77,-1.16,9.7
16.0177712,180,180,0,0,2.7636,66.1875,7.8455987750638,-0.600535062021646,0.835683330281389,-0.0686687419886468,0.00329609961545504,-0.544955136421901,0.66,-1.16,9.71
16.0380874,180,180,0,0,2.793,66.1875,7.79148970237375,-0.487853172382616,0.835683330281389,-0.0681193920527376,0.00421168284197034,-0.545077214185436,0.65,-1.16,9.71
16.0539736,180,180,0,0,2.842,66.1875,7.7373806296837,-0.375171282743585,0.835683330281389,-0.0675090032350607,0.00518830495025331,-0.545138253067204,0.62,-1.16,9.71
16.152909,180,180,0,0,3.0184,66.25,7.46683526623344,0.188238165451569,0.835683330281389,-0.0643960202649087,0.0100714154916682,-0.545443447476042,0.52,-1.16,9.72
16.1710311,180,180,0,0,3.0674,66.25,7.32933071237885,0.330206463565089,0.835683330281389,-0.0636635536836965,0.0109869987181835,-0.54550448635781,0.5,-1.16,9.72
16.1898857,180,180,0,0,3.087,66.25,7.2752216396888,0.442888353204119,0.835683330281389,-0.0628700482207166,0.0119025819446988,-0.545565525239578,0.47,-1.15,9.72
16.2867839,180,180,0,0,3.2732,66.25,6.97538986776405,0.922902320234732,0.835744369163157,-0.0591466764328877,0.0163584203137399,-0.545809680766648,0.36,-1.14,9.73
16.3091153,180,180,0,0,3.2928,66.25,6.921280795074,1.03558420987376,0.835744369163157,-0.0584142098516755,0.0172129646584875,-0.545870719648416,0.34,-1.14,9.73
16.3280855,180,180,0,0,3.332,66.25,6.81083077756443,1.12121156316777,0.835744369163157,-0.0580479765610694,0.0176402368308613,-0.545870719648416,0.32,-1.13,9.73
16.4580087,180,180,0,0,3.4692,66.25,6.4298353966046,1.77024836465693,0.835805408044925,-0.0538973326008668,0.0224012696087408,-0.545992797411951,0.2,-1.12,9.73
16.4770678,180,180,0,0,3.4888,66.25,6.34643991544006,1.79953477313142,0.835805408044925,-0.0533479826649576,0.0228895806628823,-0.545992797411951,0.19,-1.11,9.74
16.4951803,180,180,0,0,3.4986,66.25,6.31938537909504,1.85587571795093,0.835866446926692,-0.0531038271378868,0.023133736189953,-0.545992797411951,0.18,-1.11,9.74
16.6149054,180,180,0,0,3.5182,66.25,6.21116723371493,2.08123949722899,0.83592748580846,-0.051516816211927,0.0249038637612159,-0.545992797411951,0.14,-1.11,9.74
16.6336563,180,180,0,0,3.5182,66.25,6.21116723371493,2.08123949722899,0.83592748580846,-0.0514557773301593,0.0249649026429836,-0.545931758530184,0.14,-1.11,9.74
16.6518993,180,180,0,0,3.5084,66.25,6.21116723371493,2.08123949722899,0.83592748580846,-0.0514557773301593,0.0249649026429836,-0.545931758530184,0.14,-1.11,9.74
16.7510807,180,180,0,0,3.4496,66.25,6.20893536158547,1.94150307124494,0.836049563571995,-0.0518830495025331,0.0240493194164683,-0.545809680766648,0.16,-1.1,9.74
16.7721026,180,180,0,0,3.43,66.25,6.20893536158547,1.94150307124494,0.836049563571995,-0.0521272050296039,0.0236220472440945,-0.545748641884881,0.17,-1.1,9.74
16.7891092,180,180,0,0,3.4202,66.25,6.2359898979305,1.88516212642542,0.836110602453763,-0.0523713605566746,0.0231947750717207,-0.545687603003113,0.18,-1.1,9.74
16.8888063,180,180,0,0,3.2732,66.1875,6.42537165234568,1.49077551268881,0.836171641335531,-0.0542635658914729,0.0202649087468718,-0.54550448635781,0.24,-1.1,9.74
