Time (s),Setpoint (deg),Motor Position (deg),Tension 1 (N),Tension 2 (N),Tension 3 (N),Heading (deg),Pitch (deg),Roll (deg),Quaternion W,Quaternion X,Quaternion Y,Quaternion Z,Gravity X,Gravity Y,Gravity Z
0,0,0,0,0,0,0,0,0,0,0,0,0,0,0,0
0.0168909,0,0.45,0,0,0.8722,63.1875,4.43727133717347,3.0320678719809,0.850637856314472,-0.0359519013611671,0.0304584020020753,-0.523713605566746,-0.14,-0.91,9.76
0.0450243,0,0,0,0,0.882,63.1875,4.43727133717347,3.0320678719809,0.850637856314472,-0.0358298235976317,0.0306415186473784,-0.523713605566746,-0.14,-0.91,9.76
0.1520911,0,0,0,0,0.8722,63.1875,4.41021680082844,3.08840881680041,0.850637856314472,-0.0355246291887933,0.0311908685832876,-0.523774644448514,-0.15,-0.91,9.76
0.1737621,0,0,0,0,0.8722,63.1875,4.41021680082844,3.08840881680041,0.850637856314472,-0.0354635903070256,0.0313129463468229,-0.523774644448514,-0.15,-0.91,9.76
0.1950397,0,0,0,0,0.882,63.1875,4.41021680082844,3.08840881680041,0.850637856314472,-0.0354635903070256,0.0313129463468229,-0.523774644448514,-0.15,-0.91,9.76
0.2976888,0,0,0,0,0.8918,63.1875,4.41021680082844,3.08840881680041,0.850637856314472,-0.0354635903070256,0.0313129463468229,-0.523774644448514,-0.15,-0.91,9.76
0.3166667,0,0,0,0,0.9016,63.1875,4.41021680082844,3.08840881680041,0.850637856314472,-0.0354635903070256,0.0313129463468229,-0.523774644448514,-0.15,-0.91,9.76
0.4086972,0,0,0,0,0.9114,63.1875,4.41021680082844,3.08840881680041,0.850637856314472,-0.0354635903070256,0.0313129463468229,-0.523774644448514,-0.15,-0.91,9.76
0.4245944,0,0,0,0,0.9114,63.1875,4.41021680082844,3.08840881680041,0.850637856314472,-0.0354635903070256,0.0313129463468229,-0.523774644448514,-0.15,-0.91,9.76
0.4406362,0,0,0,0,0.9114,63.1875,4.41021680082844,3.08840881680041,0.850637856314472,-0.0354635903070256,0.0313129463468229,-0.523774644448514,-0.15,-0.91,9.76
0.456749,0,0,0,0,0.9114,63.1875,4.41021680082844,3.08840881680041,0.850637856314472,-0.0354635903070256,0.0313129463468229,-0.523774644448514,-0.15,-0.91,9.76
0.4746508,0,0,0,0,0.9114,63.1875,4.41021680082844,3.08840881680041,0.850637856314472,-0.0354635903070256,0.0313129463468229,-0.523774644448514,-0.15,-0.91,9.76
0.4906477,0,0,0,0,0.9114,63.1875,4.41021680082844,3.08840881680041,0.850637856314472,-0.0354635903070256,0.0313129463468229,-0.523774644448514,-0.15,-0.91,9.76
0.5086364,0,0,0,0,0.9114,63.1875,4.41021680082844,3.08840881680041,0.850637856314472,-0.0354635903070256,0.0313129463468229,-0.523774644448514,-0.15,-0.91,9.76
0.5237105,0,0,0,0,0.9114,63.1875,4.41021680082844,3.08840881680041,0.850637856314472,-0.0354635903070256,0.0313129463468229,-0.523774644448514,-0.15,-0.91,9.76
0.5386327,0,0,0,0,0.9114,63.1875,4.41021680082844,3.08840881680041,0.850637856314472,-0.0354635903070256,0.0313129463468229,-0.523774644448514,-0.15,-0.91,9.76
0.6400189,0,0,0,0,0.9114,63.1875,4.41021680082844,3.08840881680041,0.850637856314472,-0.0354635903070256,0.0313129463468229,-0.523774644448514,-0.15,-0.91,9.76
0.6589732,0,0,0,0,0.9016,63.1875,4.41021680082844,3.08840881680041,0.850637856314472,-0.0354635903070256,0.0312519074650552,-0.523774644448514,-0.15,-0.91,9.76
0.6738478,0,0,0,0,0.9016,63.1875,4.41021680082844,3.08840881680041,0.850637856314472,-0.0355246291887933,0.0311908685832876,-0.523774644448514,-0.15,-0.91,9.76
0.6897166,0,0,0,0,0.9016,63.1875,4.41021680082844,3.08840881680041,0.850637856314472,-0.0355246291887933,0.0311298297015199,-0.523774644448514,-0.15,-0.91,9.76
0.7900035,0,0,0,0,0.8918,63.1875,4.41021680082844,3.08840881680041,0.850637856314472,-0.0355246291887933,0.0311298297015199,-0.523774644448514,-0.15,-0.91,9.76
0.807816,0,0,0,0,0.8918,63.1875,4.41021680082844,3.08840881680041,0.850637856314472,-0.0355246291887933,0.0311298297015199,-0.523774644448514,-0.15,-0.91,9.76
0.8257976,0,0,0,0,0.882,63.1875,4.41021680082844,3.08840881680041,0.850637856314472,-0.0355856680705609,0.0310687908197522,-0.523774644448514,-0.15,-0.91,9.76
0.9340181,0,0,0,0,0.8624,63.1875,4.43727133717347,3.0320678719809,0.850637856314472,-0.035768784715864,0.0307635964109138,-0.523713605566746,-0.14,-0.91,9.76
0.9529729,0,0,0,0,0.8624,63.1875,4.43727133717347,3.0320678719809,0.850637856314472,-0.0358298235976317,0.0306415186473784,-0.523713605566746,-0.14,-0.91,9.76
0.9690845,0,0,0,0,0.8624,63.1875,4.43727133717347,3.0320678719809,0.850637856314472,-0.0358908624793994,0.0305804797656107,-0.523713605566746,-0.14,-0.91,9.76
1.069775,0,0,0,0,0.833,63.1875,4.46432587351849,2.97572692716138,0.850637856314472,-0.0361350180064701,0.0301532075932369,-0.523713605566746,-0.13,-0.91,9.76
1.0919599,0,0,0,0,0.833,63.1875,4.46432587351849,2.97572692716138,0.850637856314472,-0.0361960568882378,0.0300921687114692,-0.523713605566746,-0.13,-0.91,9.76
1.1183367,0,0,0,0,0.8232,63.1875,4.49138040986352,2.91938598234187,0.85069889519624,-0.0362570957700055,0.0299700909479338,-0.523713605566746,-0.12,-0.91,9.76
1.2387875,0,0,0,0,0.8036,63.1875,4.49138040986352,2.91938598234187,0.85069889519624,-0.0364402124153086,0.0296038576573277,-0.523713605566746,-0.11,-0.91,9.76
1.2589328,0,0,0,0,0.8036,63.1875,4.49138040986352,2.91938598234187,0.85069889519624,-0.0364402124153086,0.0296038576573277,-0.523713605566746,-0.11,-0.91,9.76
1.2748674,0,0,0,0,0.7938,63.1875,4.49138040986352,2.91938598234187,0.85069889519624,-0.0364402124153086,0.0296038576573277,-0.523713605566746,-0.11,-0.91,9.76
1.3747789,0,0,0,0,0.784,63.1875,4.49138040986352,2.91938598234187,0.85069889519624,-0.0364402124153086,0.0296038576573277,-0.523713605566746,-0.11,-0.91,9.76
1.3939276,0,0,0,0,0.7742,63.1875,4.49138040986352,2.91938598234187,0.85069889519624,-0.0364402124153086,0.0296038576573277,-0.523713605566746,-0.11,-0.91,9.76
1.4098398,0,0,0,0,0.7742,63.1875,4.49138040986352,2.91938598234187,0.85069889519624,-0.0364402124153086,0.0296038576573277,-0.523713605566746,-0.11,-0.91,9.76
1.5110398,0,0,0,0,0.7742,63.1875,4.49138040986352,2.91938598234187,0.85069889519624,-0.0364402124153086,0.0296038576573277,-0.523713605566746,-0.11,-0.91,9.76
1.5291093,0,0,0,0,0.7742,63.1875,4.49138040986352,2.91938598234187,0.85069889519624,-0.0364402124153086,0.0296038576573277,-0.523713605566746,-0.11,-0.91,9.76
1.5449091,0,0,0,0,0.7742,63.1875,4.49138040986352,2.91938598234187,0.85069889519624,-0.0364402124153086,0.0296038576573277,-0.523713605566746,-0.11,-0.91,9.76
1.6423221,0,0,0,0,0.7742,63.1875,4.49138040986352,2.91938598234187,0.85069889519624,-0.0364402124153086,0.0296038576573277,-0.523713605566746,-0.11,-0.91,9.76
1.662163,0,0,0,0,0.7742,63.1875,4.49138040986352,2.91938598234187,0.85069889519624,-0.0364402124153086,0.0296648965390954,-0.523713605566746,-0.12,-0.91,9.76
1.6778898,0,0,0,0,0.7742,63.1875,4.49138040986352,2.91938598234187,0.85069889519624,-0.0364402124153086,0.0296648965390954,-0.523713605566746,-0.12,-0.91,9.76
1.7762192,0,0,0,0,0.784,63.1875,4.49138040986352,2.91938598234187,0.85069889519624,-0.0363791735335409,0.0297259354208631,-0.523713605566746,-0.12,-0.91,9.76
1.7948948,0,0,0,0,0.784,63.1875,4.49138040986352,2.91938598234187,0.85069889519624,-0.0363791735335409,0.0297259354208631,-0.523713605566746,-0.12,-0.91,9.76
1.8109173,0,0,0,0,0.784,63.1875,4.49138040986352,2.91938598234187,0.85069889519624,-0.0363791735335409,0.0297259354208631,-0.523713605566746,-0.12,-0.91,9.76
1.9079519,0,0,0,0,0.8036,63.1875,4.46432587351849,2.97572692716138,0.850637856314472,-0.0361960568882378,0.0300311298297015,-0.523713605566746,-0.12,-0.91,9.76
1.9288467,0,0,0,0,0.8036,63.1875,4.46432587351849,2.97572692716138,0.850637856314472,-0.0361960568882378,0.0300921687114692,-0.523713605566746,-0.12,-0.91,9.76
1.9449224,0,0,0,0,0.8036,63.1875,4.46432587351849,2.97572692716138,0.850637856314472,-0.0361350180064701,0.0300921687114692,-0.523713605566746,-0.13,-0.91,9.76
2.0438815,0,0,0,0,0.833,63.1875,4.43727133717347,3.0320678719809,0.850637856314472,-0.0358298235976317,0.0306415186473784,-0.523713605566746,-0.14,-0.91,9.76
2.0628323,0,0,0,0,0.833,63.1875,4.43727133717347,3.0320678719809,0.850637856314472,-0.035768784715864,0.0307635964109138,-0.523713605566746,-0.14,-0.91,9.76
2.0790328,0,0,0,0,0.833,63.1875,4.43727133717347,3.0320678719809,0.850637856314472,-0.0357077458340963,0.0308246352926814,-0.523774644448514,-0.14,-0.91,9.76
2.1770173,0,0,0,0,0.8526,63.1875,4.41021680082844,3.08840881680041,0.850637856314472,-0.0354025514252579,0.0313739852285906,-0.523774644448514,-0.15,-0.91,9.76
2.1990324,0,0,0,0,0.8624,63.1875,4.38316226448342,3.14474976161993,0.850637856314472,-0.0353415125434902,0.0314350241103583,-0.523774644448514,-0.16,-0.91,9.76
2.2209012,0,0,0,0,0.8624,63.1875,4.38316226448342,3.14474976161993,0.850637856314472,-0.0353415125434902,0.0314350241103583,-0.523774644448514,-0.16,-0.91,9.76
2.3182663,0,0,0,0,0.882,63.1875,4.38316226448342,3.14474976161993,0.850637856314472,-0.0353415125434902,0.0314350241103583,-0.523774644448514,-0.16,-0.91,9.76
2.3357771,0,0,0,0,0.882,63.1875,4.38316226448342,3.14474976161993,0.850637856314472,-0.0353415125434902,0.0314350241103583,-0.523774644448514,-0.16,-0.91,9.76
2.3558922,0,0,0,0,0.8918,63.1875,4.38316226448342,3.14474976161993,0.850637856314472,-0.0353415125434902,0.0314350241103583,-0.523774644448514,-0.16,-0.91,9.76
2.4531404,0,0,0,0,0.9016,63.1875,4.38316226448342,3.14474976161993,0.850637856314472,-0.0353415125434902,0.0314350241103583,-0.523774644448514,-0.16,-0.91,9.76
2.4727506,0,0,0,0,0.9016,63.1875,4.38316226448342,3.14474976161993,0.850637856314472,-0.0353415125434902,0.0314350241103583,-0.523774644448514,-0.16,-0.91,9.76
2.4899941,0,0,0,0,0.9016,63.1875,4.38316226448342,3.14474976161993,0.850637856314472,-0.0353415125434902,0.0314350241103583,-0.523774644448514,-0.16,-0.91,9.76
2.6249222,0,0,0,0,0.9114,63.1875,4.38316226448342,3.14474976161993,0.850637856314472,-0.0353415125434902,0.0314350241103583,-0.523774644448514,-0.16,-0.91,9.76
2.6438477,0,0,0,0,0.9114,63.1875,4.38316226448342,3.14474976161993,0.850637856314472,-0.0353415125434902,0.0314350241103583,-0.523774644448514,-0.16,-0.91,9.76
2.6600604,0,0,0,0,0.9114,63.1875,4.38316226448342,3.14474976161993,0.850637856314472,-0.0353415125434902,0.0314350241103583,-0.523774644448514,-0.16,-0.91,9.76
2.7658906,0,0,0,0,0.9016,63.1875,4.38316226448342,3.14474976161993,0.850637856314472,-0.0353415125434902,0.0314350241103583,-0.523774644448514,-0.16,-0.91,9.76
2.7839859,0,0,0,0,0.9016,63.1875,4.38316226448342,3.14474976161993,0.850637856314472,-0.0353415125434902,0.0314350241103583,-0.523774644448514,-0.16,-0.91,9.76
2.8020697,0,0,0,0,0.9016,63.1875,4.38316226448342,3.14474976161993,0.850637856314472,-0.0353415125434902,0.0314350241103583,-0.523774644448514,-0.16,-0.91,9.76
2.9139705,0,0,0,0,0.8918,63.1875,4.41021680082844,3.08840881680041,0.850637856314472,-0.0354025514252579,0.0313739852285906,-0.523774644448514,-0.15,-0.91,9.76
2.9328576,0,0,0,0,0.882,63.1875,4.41021680082844,3.08840881680041,0.850637856314472,-0.0354025514252579,0.0313129463468229,-0.523774644448514,-0.15,-0.91,9.76
2.949151,0,0,0,0,0.882,63.1875,4.41021680082844,3.08840881680041,0.850637856314472,-0.0354025514252579,0.0313129463468229,-0.523774644448514,-0.15,-0.91,9.76
3.0509336,180,0,0,0,0.8624,63.1875,4.43727133717347,3.0320678719809,0.850637856314472,-0.0357077458340963,0.0308856741744491,-0.523774644448514,-0.14,-0.91,9.76
3.0700599,180,0.9,0,0,0.8624,63.1875,4.43727133717347,3.0320678719809,0.850637856314472,-0.035768784715864,0.0307635964109138,-0.523774644448514,-0.14,-0.91,9.76
3.0929496,180,3.6,0,0,0.8624,63.1875,4.43727133717347,3.0320678719809,0.850637856314472,-0.0358298235976317,0.0307025575291461,-0.523713605566746,-0.14,-0.91,9.76
3.1990265,180,37.8,0,0,1.2544,63.1875,4.46432587351849,2.97572692716138,0.850637856314472,-0.0361960568882378,0.0300311298297015,-0.523713605566746,-0.12,-0.91,9.76
3.2238181,180,50.85,0,0,1.4014,63.1875,4.49138040986352,2.91938598234187,0.85069889519624,-0.0363181346517732,0.0299090520661661,-0.523713605566746,-0.12,-0.91,9.76
3.2412996,180,61.65,0,0,1.5778,63.1875,4.49138040986352,2.91938598234187,0.85069889519624,-0.0363791735335409,0.0297869743026308,-0.523713605566746,-0.12,-0.91,9.76
3.3428174,180,130.5,0,0,2.6068,63.1875,4.51843494620855,2.86304503752235,0.85069889519624,-0.03692852346945,0.0292986632484893,-0.523652566684978,-0.1,-0.91,9.76
3.3619552,180,140.85,0,0,2.891,63.1875,4.60183042737309,2.83375862904786,0.850759934078008,-0.0371726789965208,0.0291765854849539,-0.523591527803211,-0.1,-0.92,9.76
3.3781131,180,148.95,0,0,3.0086,63.1875,4.60183042737309,2.83375862904786,0.850759934078008,-0.0372947567600562,0.0291155466031862,-0.523591527803211,-0.1,-0.92,9.76
3.4922086,180,179.1,0,0,3.7044,63.125,4.71228044488265,2.74813127575386,0.850882011841543,-0.0384544955136422,0.0283220411402063,-0.523286333394372,-0.07,-0.93,9.76
3.5100945,180,180,0,0,3.724,63.125,4.73933498122768,2.69179033093434,0.850943050723311,-0.0390038454495514,0.0278947689678325,-0.523225294512605,-0.06,-0.93,9.76
3.5261269,180,180,0,0,3.7534,63.125,4.76638951757271,2.63544938611483,0.850943050723311,-0.0391869620948544,0.0277116523225295,-0.523164255630837,-0.06,-0.93,9.76
3.6282936,180,180,0,0,3.528,63.125,5.12479410644643,2.3222263814133,0.851065128486846,-0.0428492950009156,0.0244155527070744,-0.522859061221998,0.03,-0.96,9.75
3.6468846,180,180,0,0,3.4692,63.0625,5.26229866030103,2.18025808329978,0.851126167368614,-0.0438259171091986,0.0234999694805591,-0.522736983458463,0.05,-0.97,9.75
3.6638078,180,180,0,0,3.4398,63.0625,5.31640773299108,2.06757619366075,0.851126167368614,-0.0448635780992492,0.0225233473722761,-0.522675944576695,0.08,-0.97,9.75
3.7609062,180,180,0,0,3.1556,63.0625,5.94758955744453,1.33068016674812,0.851126167368614,-0.0508453885124825,0.0170298480131844,-0.522370750167857,0.23,-1.02,9.75
3.7798212,180,180,0,0,3.1164,63.0625,6.03098503860907,1.30139375827363,0.851126167368614,-0.051516816211927,0.0164804980772752,-0.522309711286089,0.25,-1.02,9.74
3.7961845,180,180,0,0,3.0282,63.0625,6.16848959246366,1.15942546016011,0.851065128486846,-0.0527986327290484,0.0152597204419215,-0.522309711286089,0.28,-1.03,9.74
3.9109956,180,180,0,0,2.597,63.0625,6.99128504346176,0.167879245494933,0.850759934078008,-0.060855765122383,0.00781297686626381,-0.522065555759018,0.49,-1.09,9.73
3.93113,180,180,0,0,2.5578,63,7.0746805246263,0.138592837020444,0.850759934078008,-0.0621375816395044,0.00647012146737472,-0.521943477995483,0.52,-1.1,9.73
3.9489203,180,180,0,0,2.4892,63,7.15584413366138,-0.0304299974381022,0.85069889519624,-0.0627479704571812,0.00585973264969786,-0.521943477995483,0.54,-1.1,9.72
4.0459904,180,180,0,0,2.1952,63.0625,7.89747597562439,-0.852953377644734,0.850210584142098,-0.0695232863333944,-0.000793505462979918,-0.521882439113715,0.72,-1.15,9.71
4.0660859,180,180,0,0,2.1266,63.0625,8.06203506582401,-1.05126262057777,0.850149545260331,-0.0709271806140511,-0.0021973997436367,-0.521821400231948,0.76,-1.16,9.7
4.0870568,180,180,0,0,2.0972,63.0625,8.14319867485909,-1.22028545503632,0.850027467496795,-0.0721479582494049,-0.00354025514252579,-0.521882439113715,0.79,-1.16,9.7
4.2008755,180,180,0,0,1.862,63.125,8.85554410834762,-2.12620431640749,0.849417078679119,-0.0788011963620826,-0.0107428431911127,-0.521821400231948,0.98,-1.2,9.68
4.22009,180,180,0,0,1.813,63.125,8.99304866220221,-2.26817261452101,0.849295000915583,-0.0803271684062748,-0.0119636208264665,-0.52176036135018,1.02,-1.21,9.67
4.24508,180,180,0,0,1.764,63.125,9.1305532160568,-2.41014091263453,0.84911188427028,-0.0816700238051639,-0.0130623206982848,-0.52176036135018,1.05,-1.22,9.67
4.3569394,180,180,0,0,1.6464,63.125,9.59717595031063,-2.94872769661412,0.848623573216139,-0.0866141732283465,-0.0175791979490936,-0.521638283586645,1.17,-1.26,9.65
4.3761632,180,180,0,0,1.6268,63.125,9.7076259678202,-3.03435504990812,0.848623573216139,-0.0869804065189526,-0.0178233534761643,-0.521638283586645,1.18,-1.26,9.65
4.3951396,180,180,0,0,1.617,63.125,9.79102144898474,-3.06364145838261,0.848562534334371,-0.0875297564548617,-0.0181285478850027,-0.521638283586645,1.19,-1.27,9.64
4.5189196,180,180,0,0,1.6562,63.1875,9.90147146649431,-3.14926881167662,0.848257339925533,-0.0888115729719832,-0.0184947811756089,-0.521821400231948,1.21,-1.28,9.64
4.5412276,180,180,0,0,1.6856,63.1875,9.87441693014928,-3.0929278668571,0.848257339925533,-0.0885674174449124,-0.0181895867667704,-0.521882439113715,1.2,-1.28,9.64
4.5579637,180,180,0,0,1.7052,63.1875,9.84736239380426,-3.03658692203759,0.8483183788073,-0.0881401452725386,-0.017884392357932,-0.521943477995483,1.19,-1.28,9.64
4.6541165,180,180,0,0,1.8816,63.1875,9.6850351757341,-2.6985412531205,0.8483183788073,-0.086125862174205,-0.01477140938778,-0.522309711286089,1.12,-1.28,9.65
4.6740015,180,180,0,0,1.911,63.1875,9.57458515822453,-2.61291389982649,0.848379417689068,-0.0856985900018312,-0.0143441372154062,-0.522309711286089,1.1,-1.27,9.66
4.6911384,180,180,0,0,1.9698,63.1875,9.54753062187951,-2.55657295500698,0.848440456570836,-0.0847830067753159,-0.0134895928706586,-0.522431789049625,1.09,-1.27,9.66
4.7902053,180,180,0,0,2.1854,63.25,9.16653524091968,-1.90753615351782,0.848623573216139,-0.0814258682780931,-0.00866752121101141,-0.522736983458463,0.96,-1.26,9.67
4.809971,180,180,0,0,2.2442,63.25,9.08537163188461,-1.73851331905927,0.848745650979674,-0.0804492461698102,-0.00695843252151621,-0.522736983458463,0.93,-1.26,9.67
4.8270203,180,180,0,0,2.2638,63.25,9.03126255919455,-1.62583142942024,0.848745650979674,-0.0800219739974364,-0.00634804370383935,-0.522798022340231,0.92,-1.26,9.68
4.9251762,180,180,0,0,2.5872,63.25,8.45642167956062,-0.861880866162589,0.84911188427028,-0.0742232802295062,-0.000122077763535372,-0.523042177867301,0.76,-1.23,9.69
4.9439609,180,180,0,0,2.6264,63.25,8.31891712570603,-0.719912568049068,0.849172923152048,-0.0731245803576878,0.00115973875358603,-0.523103216749069,0.73,-1.22,9.7
4.9610435,180,180,0,0,2.695,63.25,8.23775351667095,-0.550889733590522,0.849295000915583,-0.0721479582494049,0.00244155527070744,-0.523103216749069,0.69,-1.22,9.7
5.0609115,180,180,0,0,2.9792,63.25,7.55246261952745,0.298688182961135,0.849661234206189,-0.0654336812549594,0.00939998779222365,-0.523286333394372,0.51,-1.18,9.72
5.0811845,180,180,0,0,3.0478,63.25,7.38790352932783,0.496997425894171,0.849722273087957,-0.064151864737838,0.0107428431911127,-0.52334737227614,0.47,-1.17,9.72
5.1009526,180,180,0,0,3.1164,63.25,7.3608489929828,0.553338370713687,0.849783311969725,-0.0636025148019288,0.0114142708905573,-0.523286333394372,0.46,-1.17,9.72
5.1999926,180,180,0,0,3.381,63.25,6.59216261467476,1.43220269573983,0.850027467496795,-0.0561557712262711,0.0185558200573765,-0.523530488921443,0.26,-1.12,9.73
5.2222624,180,180,0,0,3.4398,63.25,6.40054898813012,1.68685288349238,0.850088506378563,-0.0544466825367759,0.0204480253921748,-0.523530488921443,0.21,-1.11,9.74
5.2390156,180,180,0,0,3.4692,63.25,6.34643991544006,1.79953477313142,0.850088506378563,-0.0531648660196545,0.0217298419092962,-0.523591527803211,0.18,-1.1,9.74
5.3422879,180,180,0,0,3.5966,63.25,5.63186260982207,2.56571720851853,0.850210584142098,-0.0466337056705121,0.027406457913691,-0.523713605566746,0.02,-1.05,9.74
5.3621524,180,180,0,0,3.6358,63.25,5.5214125923125,2.65134456181254,0.850271623023866,-0.0456570835622291,0.0282610022584386,-0.523774644448514,-0.01,-1.04,9.75
5.3929895,180,180,0,0,3.675,63.25,5.38390803845791,2.79331285992606,0.850271623023866,-0.0440700726362693,0.02954281877556,-0.523774644448514,-0.04,-1.03,9.75
5.5030186,180,180,0,0,3.7338,63.25,4.91505343207462,3.19216321792159,0.850393700787402,-0.039858389794299,0.0323506073368736,-0.523713605566746,-0.12,-0.99,9.75
5.5219579,180,180,0,0,3.7338,63.25,4.83165795091008,3.22144962639608,0.850454739669169,-0.0392480009766221,0.0325337239821766,-0.523713605566746,-0.13,-0.98,9.75
5.5391381,180,180,0,0,3.7338,63.1875,4.77531700609056,3.19439509005105,0.850454739669169,-0.0386376121589452,0.0327778795092474,-0.523713605566746,-0.14,-0.98,9.75
5.6391287,180,180,0,0,3.6946,63.1875,4.71897606127105,3.16734055370603,0.850576817432705,-0.0380272233412684,0.0321064518098028,-0.523530488921443,-0.14,-0.96,9.75
5.6581403,180,180,0,0,3.6652,63.1875,4.66263511645153,3.140286017361,0.850637856314472,-0.0379661844595007,0.0317402185191967,-0.523530488921443,-0.13,-0.95,9.75
5.6740899,180,180,0,0,3.6554,63.1875,4.68968965279656,3.08394507254149,0.850637856314472,-0.0380272233412684,0.0315571018738937,-0.523530488921443,-0.13,-0.95,9.75
5.7949305,180,180,0,0,3.4496,63.125,4.93318047990179,2.57687656916585,0.850882011841543,-0.0407129341390466,0.0266739913324788,-0.523225294512605,-0.02,-0.95,9.76
5.8149714,180,180,0,0,3.4398,63.125,5.01434408893687,2.4078537347073,0.850943050723311,-0.0414454007202588,0.0256973692241958,-0.523164255630837,0,-0.95,9.76
5.8319416,180,180,0,0,3.3908,63.125,5.01434408893687,2.4078537347073,0.850943050723311,-0.0422999450650064,0.0245986693523775,-0.523103216749069,0.02,-0.95,9.75
5.9349507,180,180,0,0,3.1556,63.125,5.42239400624172,1.70247598839863,0.850943050723311,-0.0465116279069767,0.0187389367026796,-0.522920100103766,0.16,-0.96,9.75
5.9553409,180,180,0,0,3.1164,63.125,5.61400763278636,1.44782580064608,0.851004089605078,-0.0475492888970274,0.0174571201855582,-0.522859061221998,0.19,-0.97,9.75
5.9833223,180,180,0,0,2.9988,63.125,5.69517124182144,1.27880296618753,0.851004089605078,-0.0491973387047549,0.0155038759689922,-0.522736983458463,0.24,-0.98,9.75
6.0899361,180,180,0,0,2.6558,63.0625,6.26778024932591,0.375115976945823,0.850943050723311,-0.0545077214185436,0.00885063785631447,-0.522492827931392,0.42,-1,9.74
6.1100731,180,180,0,0,2.6264,63.0625,6.4052848031805,0.233147678832303,0.850943050723311,-0.0557284990538973,0.00738570469389001,-0.522370750167857,0.46,-1,9.74
6.126034,180,180,0,0,2.548,63.0625,6.51350294856061,0.00778389955424164,0.850882011841543,-0.0569492766892511,0.00598181041323323,-0.522309711286089,0.48,-1.01,9.74
6.2252002,180,180,0,0,2.2834,63.0625,7.05905741972005,-0.839562144867952,0.850759934078008,-0.0625038149301105,-0.00134285539888909,-0.522004516877251,0.66,-1.02,9.73
6.2441803,180,180,0,0,2.2246,63,7.16727556510016,-1.06492592414601,0.85069889519624,-0.0636025148019288,-0.00286882744308124,-0.521882439113715,0.69,-1.03,9.72
6.2649821,180,180,0,0,2.1658,63,7.30478011895475,-1.20689422225953,0.850637856314472,-0.0647012146737472,-0.00439479948727339,-0.521821400231948,0.73,-1.03,9.72
6.3641489,180,180,0,0,1.9698,63,7.85033459011419,-2.05424026668173,0.850332661905634,-0.0700726362693035,-0.0111090764817189,-0.521516205823109,0.9,-1.05,9.7
6.3841877,180,180,0,0,1.9306,63,7.87738912645922,-2.11058121150124,0.850332661905634,-0.070560947323445,-0.0117805041811634,-0.521516205823109,0.91,-1.05,9.7
6.4052644,180,180,0,0,1.911,63,8.01266180818435,-2.39228593559882,0.850210584142098,-0.0719648416041018,-0.013611670634194,-0.521455166941342,0.96,-1.06,9.7
6.5139437,180,180,0,0,1.7836,63,8.44999813396369,-3.01426820074295,0.849844350851492,-0.0759934078007691,-0.018861014466215,-0.521272050296039,1.09,-1.07,9.68
6.5331468,180,180,0,0,1.7738,63,8.47705267030872,-3.07060914556247,0.849844350851492,-0.0763596410913752,-0.0192272477568211,-0.521272050296039,1.1,-1.07,9.68
6.5489005,180,180,0,0,1.764,63,8.56044815147326,-3.09989555403696,0.849722273087957,-0.0770921076725874,-0.0197765976927303,-0.521272050296039,1.12,-1.08,9.68
6.6471882,180,180,0,0,1.7542,63.0625,8.7520617780179,-3.35454574178951,0.849478117560886,-0.0789843130073857,-0.0215467252639932,-0.521333089177806,1.16,-1.09,9.67
6.6660196,180,180,0,0,1.7542,63.0625,8.7520617780179,-3.35454574178951,0.849478117560886,-0.0792895074162241,-0.0215467252639932,-0.521333089177806,1.16,-1.09,9.67
6.6822048,180,180,0,0,1.764,63.0625,8.80840272283742,-3.32749120544448,0.849417078679119,-0.0794115851797595,-0.0214856863822255,-0.521333089177806,1.16,-1.1,9.67
6.788086,180,180,0,0,1.8718,63.0625,8.72723911380234,-3.15846837098594,0.849356039797351,-0.078923274125618,-0.0197765976927303,-0.521638283586645,1.13,-1.11,9.67
6.8071154,180,180,0,0,1.9012,63.0625,8.75652552227683,-3.0750728898214,0.849356039797351,-0.0786791185985473,-0.0191051699932857,-0.521699322468412,1.12,-1.11,9.67
6.8279387,180,180,0,0,1.9208,63.125,8.70241644958678,-2.96239100018236,0.849356039797351,-0.0783128853079412,-0.0184337422938412,-0.52176036135018,1.1,-1.11,9.67
6.9300775,180,180,0,0,2.107,63.125,8.45892562248154,-2.45532249680673,0.849417078679119,-0.0759323689190014,-0.0140389428065678,-0.522126594640786,1.01,-1.12,9.68
6.949305,180,180,0,0,2.156,63.125,8.43187108613652,-2.39898155198721,0.849478117560886,-0.0750167856924861,-0.0123908929988403,-0.522309711286089,0.97,-1.12,9.69
6.9670924,180,180,0,0,2.1854,63.125,8.35070747710144,-2.22995871752866,0.849478117560886,-0.0747115912836477,-0.0118415430629311,-0.522309711286089,0.96,-1.12,9.69
7.0632602,180,180,0,0,2.4108,63.1875,8.02605304096113,-1.55386737969448,0.849539156442654,-0.0711102972593542,-0.0056766160043948,-0.522736983458463,0.82,-1.12,9.7
7.0833202,180,180,0,0,2.4794,63.1875,7.94488943192605,-1.38484454523593,0.849600195324422,-0.0703167917963743,-0.00427272172373802,-0.522798022340231,0.79,-1.12,9.7
7.1000824,180,180,0,0,2.548,63.1875,7.86372582289098,-1.21582171077739,0.849661234206189,-0.0698895196240005,-0.00360129402429347,-0.522798022340231,0.76,-1.12,9.71
7.201059,180,180,0,0,2.8028,63.1875,7.5142487225351,-0.343653002139632,0.84990538973326,-0.0651895257278887,0.00421168284197034,-0.522981138985534,0.59,-1.12,9.72
7.2203037,180,180,0,0,2.8616,63.1875,7.43308511350002,-0.174630167681086,0.849966428615028,-0.0642739425013734,0.0056766160043948,-0.522920100103766,0.56,-1.12,9.72
7.2370866,180,180,0,0,2.9008,63.1875,7.29558055964543,-0.0326618695675656,0.850027467496795,-0.0637856314472319,0.00634804370383935,-0.522920100103766,0.54,-1.12,9.72
7.338098,180,180,0,0,3.185,63.1875,6.83565344177999,0.925134192364195,0.850210584142098,-0.0587804431422816,0.0138558261612647,-0.523103216749069,0.37,-1.12,9.73
7.3591042,180,180,0,0,3.2438,63.1875,6.6981488879254,1.06710249047772,0.850210584142098,-0.0576817432704633,0.0152597204419215,-0.523164255630837,0.31,-1.11,9.73
7.3759912,180,180,0,0,3.2634,63.1875,6.61698527889032,1.23612532493626,0.850210584142098,-0.0567051211621803,0.016724653604346,-0.523164255630837,0.3,-1.11,9.73
7.4762576,180,180,0,0,3.479,63.1875,6.12777175255039,2.11052590570348,0.850271623023866,-0.0517609717389977,0.0235610083623268,-0.523408411157908,0.12,-1.1,9.74
7.494969,180,180,0,0,3.4986,63.1875,6.07366267986034,2.22320779534251,0.850271623023866,-0.0508453885124825,0.0247817859976805,-0.523408411157908,0.1,-1.1,9.74
7.5133251,180,180,0,0,3.5378,63.1875,5.99249907082526,2.39223062980106,0.850271623023866,-0.0501129219312702,0.0259415247512666,-0.523408411157908,0.08,-1.1,9.74
7.6094631,180,180,0,0,3.577,63.1875,5.636326354081,2.84519006048664,0.850332661905634,-0.046267472379906,0.0307025575291461,-0.523469450039675,-0.03,-1.08,9.74
7.6293411,180,180,0,0,3.5966,63.1875,5.60927181773597,2.90153100530616,0.850332661905634,-0.0460233168528353,0.0310687908197522,-0.523469450039675,-0.05,-1.08,9.74
7.647103,180,180,0,0,3.6162,63.1875,5.55516274504592,3.01421289494519,0.850332661905634,-0.0455960446804615,0.0317402185191967,-0.523469450039675,-0.06,-1.08,9.74
7.7451824,180,180,0,0,3.6358,63.1875,5.41989006332079,3.29591761904277,0.850393700787402,-0.0438259171091986,0.0339376182628334,-0.52334737227614,-0.11,-1.07,9.74
7.7640357,180,180,0,0,3.626,63.1875,5.39283552697577,3.35225856386228,0.850393700787402,-0.0437648782274309,0.0340596960263688,-0.523286333394372,-0.11,-1.07,9.74
7.7813239,180,180,0,0,3.626,63.1875,5.39283552697577,3.35225856386228,0.850393700787402,-0.0437038393456632,0.0341207349081365,-0.523286333394372,-0.12,-1.07,9.74
7.8810806,180,180,0,0,3.5378,63.125,5.3906036548463,3.21252213787823,0.850515778550937,-0.0441921503998047,0.0332051516816212,-0.523103216749069,-0.1,-1.07,9.74
7.9000588,180,180,0,0,3.5084,63.125,5.44471272753635,3.0998402482392,0.850576817432705,-0.0446804614539462,0.0324116462186413,-0.523042177867301,-0.08,-1.07,9.74
7.9160575,180,180,0,0,3.4888,63.125,5.44471272753635,3.0998402482392,0.850576817432705,-0.0448635780992492,0.0321064518098028,-0.523042177867301,-0.07,-1.07,9.74
8.0161101,180,180,0,0,3.3516,63.125,5.71748996311608,2.6761672260281,0.850759934078008,-0.0473051333699567,0.0281389244949033,-0.522736983458463,0.01,-1.07,9.74
8.0350575,180,180,0,0,3.3124,63.125,5.7445444994611,2.61982628120858,0.850820972959775,-0.0479765610694012,0.0271012635048526,-0.522675944576695,0.05,-1.07,9.74
8.0509364,180,180,0,0,3.2928,63.0625,5.82570810849618,2.45080344675004,0.850820972959775,-0.0486479887688458,0.0260636025148019,-0.522614905694928,0.06,-1.07,9.74
8.1480036,180,180,0,0,3.038,63.0625,6.17741708098152,1.71837116409634,0.850882011841543,-0.0522492827931392,0.0202649087468718,-0.522431789049625,0.19,-1.07,9.74
8.1670282,180,180,0,0,2.9988,63.0625,6.20447161732654,1.66203021927682,0.850943050723311,-0.052676554965513,0.0196545199291949,-0.522370750167857,0.21,-1.07,9.74
8.1842788,180,180,0,0,2.94,63.0625,6.28563522636162,1.49300738481828,0.850943050723311,-0.0534700604284929,0.0183727034120735,-0.522370750167857,0.24,-1.08,9.74
8.3089874,180,180,0,0,2.6068,63.0625,6.74556234422706,0.535211322886515,0.850820972959775,-0.0585973264969786,0.0105597265458097,-0.522187633522554,0.44,-1.08,9.73
8.3323002,180,180,0,0,2.548,63.0625,6.82672595326214,0.366188488427969,0.850820972959775,-0.0595129097234939,0.00921687114692059,-0.522126594640786,0.47,-1.08,9.73
8.3492897,180,180,0,0,2.4892,63.0625,6.96423050711673,0.224220190314449,0.850759934078008,-0.0604284929500092,0.0078740157480315,-0.522126594640786,0.48,-1.08,9.73
8.450213,180,180,0,0,2.254,63,7.39710308863715,-0.677234926797797,0.850637856314472,-0.0655557590184948,0,-0.52176036135018,0.67,-1.09,9.72
8.4791609,180,180,0,0,2.1756,63,7.50532123401725,-0.902598706075858,0.850637856314472,-0.0668986144173839,-0.00201428309833364,-0.521638283586645,0.71,-1.09,9.71
8.4982584,180,180,0,0,2.156,63,7.58648484305233,-1.0716215405344,0.850576817432705,-0.06726484770799,-0.00274674967954587,-0.521638283586645,0.74,-1.09,9.71
8.6060551,180,180,0,0,1.96,63,7.99230288822771,-1.91673571282713,0.850393700787402,-0.0712934139046573,-0.00988829884636513,-0.521333089177806,0.9,-1.08,9.7
8.6250611,180,180,0,0,1.9502,63,8.07346649726279,-2.08575854728568,0.850332661905634,-0.0719648416041018,-0.0111090764817189,-0.521272050296039,0.92,-1.08,9.7
8.6421344,180,180,0,0,1.9208,63,8.12757556995284,-2.19844043692471,0.850271623023866,-0.0725752304217787,-0.0123298541170726,-0.521272050296039,0.94,-1.08,9.7
8.7420481,180,180,0,0,1.8522,63,8.34177998858359,-2.78890442146489,0.850088506378563,-0.0748336690471831,-0.016907770249649,-0.521149972532503,1.04,-1.07,9.69
8.7611606,180,180,0,0,1.8424,63,8.36883452492861,-2.84524536628441,0.850027467496795,-0.0751999023377892,-0.0176402368308613,-0.521149972532503,1.06,-1.07,9.68
8.7781991,180,180,0,0,1.8424,63,8.39588906127364,-2.90158631110392,0.849966428615028,-0.0755050967466276,-0.0181895867667704,-0.521149972532503,1.07,-1.07,9.68
8.8930592,180,180,0,0,1.862,63,8.44776626183423,-3.15400462672701,0.849844350851492,-0.0762375633278398,-0.019837636574498,-0.521272050296039,1.11,-1.06,9.68
8.9129403,180,180,0,0,1.8718,63,8.4207117254892,-3.09766368190749,0.849783311969725,-0.0762375633278398,-0.0197765976927303,-0.521272050296039,1.1,-1.06,9.68
8.9279432,180,180,0,0,1.8816,63,8.4207117254892,-3.09766368190749,0.849783311969725,-0.0761765244460721,-0.0197155588109626,-0.521333089177806,1.1,-1.06,9.68
9.0260439,180,180,0,0,1.9894,63.0625,8.33954811645412,-2.92864084744895,0.849783311969725,-0.0751388634560215,-0.0180675090032351,-0.521577244704877,1.06,-1.06,9.69
9.0463864,180,180,0,0,2.0188,63.0625,8.28543904376407,-2.81595895780992,0.849783311969725,-0.0745895135201123,-0.0170908868949521,-0.521699322468412,1.04,-1.06,9.69
9.0671636,180,180,0,0,2.058,63.0625,8.25838450741905,-2.7596180129904,0.849783311969725,-0.0743453579930416,-0.0167856924861137,-0.52176036135018,1.04,-1.06,9.69
9.1640804,180,180,0,0,2.2442,63.125,7.98783914396879,-2.19620856479525,0.849844350851492,-0.0714765305499603,-0.0124519318806079,-0.522126594640786,0.93,-1.06,9.7
9.183098,180,180,0,0,2.303,63.125,7.90444366280425,-2.16692215632076,0.849844350851492,-0.0711102972593542,-0.0119636208264665,-0.522187633522554,0.9,-1.06,9.7
9.2042325,180,180,0,0,2.3324,63.125,7.82328005376917,-1.99789932186221,0.84990538973326,-0.0699505585057682,-0.0103766099005066,-0.522309711286089,0.87,-1.05,9.7
9.3361107,180,180,0,0,2.6754,63.1875,7.30701199108421,-1.06715779627548,0.849966428615028,-0.0648232924372825,-0.00274674967954587,-0.522920100103766,0.69,-1.05,9.72
9.3621905,180,180,0,0,2.744,63.1875,7.19879384570411,-0.841794016997416,0.850027467496795,-0.0634804370383935,-0.000976622108282976,-0.523042177867301,0.66,-1.04,9.72
9.3812044,180,180,0,0,2.7734,63.1875,7.17173930935908,-0.7854530721779,0.850027467496795,-0.0630531648660197,-0.00030519440883843,-0.523042177867301,0.65,-1.04,9.72
9.4773297,180,180,0,0,3.0478,63.1875,6.70958031936418,0.0326065637698041,0.850149545260331,-0.0582921320881401,0.00622596594030397,-0.523408411157908,0.49,-1.03,9.73
9.4963707,180,180,0,0,3.0772,63.1875,6.51796669281954,0.287256751522355,0.850210584142098,-0.0568882378074834,0.00817921015686993,-0.523469450039675,0.44,-1.03,9.74
9.5133199,180,180,0,0,3.136,63.1875,6.49091215647451,0.34359769634187,0.850210584142098,-0.0564609656351096,0.00885063785631447,-0.523469450039675,0.43,-1.03,9.74
9.6253257,180,180,0,0,3.3614,63.25,6.0580395749541,1.24505281345412,0.850271623023866,-0.0515778550936947,0.0161142647866691,-0.523713605566746,0.26,-1.02,9.74
9.6451621,180,180,0,0,3.4006,63.25,6.03098503860907,1.30139375827363,0.850271623023866,-0.0504181163401086,0.017884392357932,-0.523774644448514,0.21,-1.02,9.75
9.662344,180,180,0,0,3.4202,63.25,5.86642594840945,1.49970300120667,0.850271623023866,-0.0500518830495025,0.0184337422938412,-0.523774644448514,0.2,-1.02,9.75
9.7642107,180,180,0,0,3.5574,63.25,5.54177151226914,2.17579433904085,0.850271623023866,-0.0464505890252091,0.0237441250076299,-0.523896722212049,0.08,-1.01,9.75
9.7844895,180,180,0,0,3.5672,63.25,5.48766243957909,2.28847622867988,0.850271623023866,-0.0459012390892999,0.0245376304706098,-0.523896722212049,0.06,-1.01,9.75
9.8004647,180,180,0,0,3.5672,63.25,5.46060790323406,2.3448171734994,0.850271623023866,-0.0454129280351584,0.0253311359335897,-0.523896722212049,0.04,-1.01,9.75
9.8992239,180,180,0,0,3.5574,63.25,5.32533522150893,2.62652189759697,0.850332661905634,-0.0439479948727339,0.0280778856131356,-0.523835683330281,-0.02,-1.02,9.75
9.9202953,180,180,0,0,3.5574,63.25,5.29828068516391,2.68286284241649,0.850332661905634,-0.0438869559909662,0.0285661966672771,-0.523774644448514,-0.02,-1.02,9.75
9.9383781,180,180,0,0,3.5476,63.25,5.3275670936384,2.76625832358103,0.850332661905634,-0.0438259171091986,0.0289934688396509,-0.523774644448514,-0.03,-1.02,9.75
10.0350735,180,180,0,0,3.4888,63.1875,5.44024898327743,2.82036739627108,0.850332661905634,-0.0446194225721785,0.0294817798937923,-0.523591527803211,-0.03,-1.04,9.75
10.0575432,180,180,0,0,3.4692,63.1875,5.46730351962245,2.76402645145157,0.850393700787402,-0.0449856558627846,0.029359702130257,-0.523530488921443,-0.02,-1.05,9.74
10.0744801,180,180,0,0,3.4594,63.1875,5.49435805596748,2.70768550663205,0.850393700787402,-0.0454129280351584,0.0291765854849539,-0.523530488921443,-0.02,-1.05,9.74
10.1732474,180,180,0,0,3.332,63.1875,5.79865357215115,2.50714439156955,0.850454739669169,-0.048220716596472,0.0270402246230849,-0.523225294512605,0.04,-1.08,9.74
10.1932935,180,180,0,0,3.3124,63.1875,5.82570810849618,2.45080344675004,0.850454739669169,-0.0489531831776842,0.026429835805408,-0.523164255630837,0.06,-1.08,9.74
10.2103265,180,180,0,0,3.2634,63.1875,5.93615812600575,2.36517609345603,0.850454739669169,-0.0496856497588964,0.0257584081059635,-0.523103216749069,0.08,-1.09,9.74
10.3134815,180,180,0,0,3.038,63.125,6.31938537909504,1.85587571795093,0.850576817432705,-0.0538973326008668,0.0216077641457608,-0.522798022340231,0.2,-1.12,9.73
10.3324575,180,180,0,0,3.0086,63.125,6.45688993294963,1.71390741983741,0.850576817432705,-0.0547518769456144,0.0206921809192456,-0.522736983458463,0.22,-1.12,9.73
10.348452,180,180,0,0,2.9498,63.125,6.51099900563968,1.60122553019838,0.850515778550937,-0.0556674601721296,0.0197155588109626,-0.522675944576695,0.24,-1.13,9.73
10.4471203,180,180,0,0,2.7146,63.0625,6.94833533141902,0.979243265054247,0.850576817432705,-0.060062259659403,0.0145272538607093,-0.522370750167857,0.37,-1.15,9.73
10.4682906,180,180,0,0,2.6558,63.0625,7.08583988527362,0.837274966940727,0.850515778550937,-0.0609168040041506,0.0134895928706586,-0.522309711286089,0.39,-1.15,9.73
10.4883696,180,180,0,0,2.6264,63.0625,7.13994895796367,0.724593077301696,0.850515778550937,-0.0618323872306659,0.0123908929988403,-0.522248672404322,0.42,-1.15,9.72
10.5934306,180,180,0,0,2.3716,63.0625,7.57505341161355,-0.0371256138264928,0.850515778550937,-0.0665934200085454,0.00604284929500092,-0.521821400231948,0.58,-1.17,9.71
10.6135065,180,180,0,0,2.3226,63.0625,7.68550342912311,-0.122752967120498,0.850454739669169,-0.067447964353293,0.00488311054141488,-0.521821400231948,0.6,-1.17,9.71
10.6382318,180,180,0,0,2.2736,63,7.79372157450322,-0.348116746398559,0.850454739669169,-0.0683025086980407,0.00372337178782885,-0.52176036135018,0.63,-1.17,9.71
10.73725,180,180,0,0,2.0874,63,8.14766241911802,-0.940812603068202,0.850332661905634,-0.0719038027223341,-0.00122077763535372,-0.521455166941342,0.76,-1.18,9.7
10.7574743,180,180,0,0,2.0776,63,8.22882602815309,-1.10983543752675,0.850271623023866,-0.0728193859488494,-0.00274674967954587,-0.521394128059574,0.79,-1.18,9.7
10.7748484,180,180,0,0,2.0482,63,8.28293510084315,-1.22251732716578,0.850271623023866,-0.0731245803576878,-0.00329609961545504,-0.521333089177806,0.8,-1.18,9.7
10.8914807,180,180,0,0,1.9306,63,8.5534804642934,-1.78592677536093,0.850027467496795,-0.0765427577366783,-0.00909479338338522,-0.521149972532503,0.93,-1.18,9.69
10.9111528,180,180,0,0,1.9208,63,8.63464407332848,-1.95494960981948,0.850027467496795,-0.0767258743819813,-0.00952206555575902,-0.521149972532503,0.94,-1.18,9.68
10.9283061,180,180,0,0,1.911,63,8.63464407332848,-1.95494960981948,0.850027467496795,-0.0770310687908198,-0.0102545321369713,-0.521149972532503,0.95,-1.17,9.68
11.0281702,180,180,0,0,1.9012,63,8.74063034657912,-2.3200498150816,0.84990538973326,-0.077946652017335,-0.0127571262894464,-0.521149972532503,1,-1.16,9.68
11.0472708,180,180,0,0,1.9012,63,8.68428940175961,-2.34710435142662,0.849844350851492,-0.077946652017335,-0.0130623206982848,-0.521149972532503,1.01,-1.16,9.68
11.0632703,180,180,0,0,1.911,63,8.71134393810463,-2.40344529624614,0.849844350851492,-0.077946652017335,-0.0131843984618202,-0.521149972532503,1.01,-1.16,9.68
11.1652978,180,180,0,0,1.9796,63,8.57160751212058,-2.40121342411667,0.849844350851492,-0.076786913263749,-0.0131233595800525,-0.521333089177806,1,-1.14,9.68
11.1852525,180,180,0,0,1.9992,63,8.54455297577555,-2.34487247929716,0.849844350851492,-0.0764206799731429,-0.0129402429347494,-0.521394128059574,0.99,-1.14,9.68
11.2026925,180,180,0,0,2.009,63,8.51749843943052,-2.28853153447764,0.849844350851492,-0.0762375633278398,-0.0128181651712141,-0.521394128059574,0.98,-1.13,9.69
11.3192421,180,180,0,0,2.1854,63.0625,8.1590938505568,-1.97530852977611,0.849966428615028,-0.0728193859488494,-0.00982725996459745,-0.52176036135018,0.9,-1.11,9.7
11.3374239,180,180,0,0,2.2344,63.0625,8.10498477786675,-1.86262664013708,0.850027467496795,-0.0720869193676372,-0.0091558322651529,-0.521821400231948,0.89,-1.1,9.7
11.3553018,180,180,0,0,2.254,63.0625,7.99453476035718,-1.77699928684308,0.850027467496795,-0.071354452786425,-0.00842336568394067,-0.521943477995483,0.87,-1.1,9.7
11.4552287,180,180,0,0,2.4892,63.125,7.52791202610335,-1.23841250286349,0.850149545260331,-0.0669596532991516,-0.00427272172373802,-0.522309711286089,0.75,-1.07,9.71
11.4762226,180,180,0,0,2.5186,63.125,7.4738029534133,-1.12573061322446,0.850210584142098,-0.066105108954404,-0.00329609961545504,-0.522431789049625,0.73,-1.06,9.72
11.4922983,180,180,0,0,2.5676,63.125,7.36335293590373,-1.04010325993045,0.850210584142098,-0.065311603491424,-0.00238051638893975,-0.522492827931392,0.7,-1.06,9.72
11.5912024,180,180,0,0,2.793,63.125,6.8967302016499,-0.50151647595086,0.850332661905634,-0.0602453763047061,0.00231947750717207,-0.522859061221998,0.57,-1.02,9.73
11.6112652,180,180,0,0,2.8518,63.125,6.81556659261482,-0.332493641492314,0.850332661905634,-0.0593297930781908,0.00335713849722273,-0.522981138985534,0.55,-1.02,9.73
11.6312199,180,180,0,0,2.9106,63.125,6.78851205626979,-0.276152696672799,0.850393700787402,-0.0584142098516755,0.00439479948727339,-0.523042177867301,0.52,-1.01,9.73
11.7301725,180,180,0,0,3.1262,63.1875,6.2114393045064,0.348061440600797,0.850454739669169,-0.0532259049014222,0.00939998779222365,-0.52334737227614,0.39,-0.98,9.74
11.749212,180,180,0,0,3.1752,63.1875,6.13027569547132,0.517084275059343,0.850454739669169,-0.0527986327290484,0.00988829884636513,-0.52334737227614,0.36,-0.98,9.75
11.7654136,180,180,0,0,3.2046,63.1875,6.04688021430678,0.546370683533833,0.850515778550937,-0.0519440883843008,0.0109259598364158,-0.523408411157908,0.35,-0.97,9.75
11.8672282,180,180,0,0,3.3908,63.1875,5.60954388852744,1.16835294867797,0.850576817432705,-0.047427211133492,0.0155649148507599,-0.523591527803211,0.22,-0.95,9.75
11.8861692,180,180,0,0,3.4104,63.1875,5.55543481583738,1.281034838317,0.850576817432705,-0.0471220167246536,0.0160532259049014,-0.523652566684978,0.2,-0.94,9.75
11.9032694,180,180,0,0,3.4398,63.1875,5.41793026198279,1.42300313643052,0.850576817432705,-0.0460843557346029,0.0173350424220228,-0.523652566684978,0.18,-0.94,9.75
12.035313,180,180,0,0,3.5378,63.1875,5.09104395371302,1.95935804828064,0.850637856314472,-0.0424830617103095,0.0214856863822255,-0.523713605566746,0.07,-0.92,9.76
12.0540607,180,180,0,0,3.5476,63.1875,5.06398941736799,2.01569899310016,0.850637856314472,-0.042177867301471,0.021973997436367,-0.523713605566746,0.06,-0.92,9.76
12.0704533,180,180,0,0,3.5476,63.1875,5.06398941736799,2.01569899310016,0.850637856314472,-0.0418726728926326,0.0222791918452054,-0.523713605566746,0.05,-0.92,9.76
12.1902201,180,180,0,0,3.5182,63.1875,4.98282580833291,2.18472182755871,0.85069889519624,-0.0415674784837942,0.0233168528352561,-0.523591527803211,0.03,-0.93,9.76
12.2091649,180,180,0,0,3.5084,63.1875,4.98282580833291,2.18472182755871,0.85069889519624,-0.0416285173655619,0.0232558139534884,-0.523591527803211,0.03,-0.93,9.76
12.2264061,180,180,0,0,3.4986,63.1875,4.98282580833291,2.18472182755871,0.85069889519624,-0.0416895562473295,0.0231947750717207,-0.523530488921443,0.04,-0.93,9.76
12.3270913,180,180,0,0,3.3712,63.1875,5.23078037969707,1.95712617615118,0.850759934078008,-0.044131111518037,0.0217298419092962,-0.52334737227614,0.09,-0.95,9.75
12.3462868,180,180,0,0,3.3516,63.1875,5.31417586086161,1.92783976767669,0.850759934078008,-0.0446804614539462,0.0212415308551547,-0.523286333394372,0.11,-0.96,9.75
12.363363,180,180,0,0,3.3124,63.125,5.34123039720664,1.87149882285718,0.850820972959775,-0.0454129280351584,0.0207532198010132,-0.523225294512605,0.11,-0.97,9.75
12.4642398,180,180,0,0,3.1262,63.125,5.75374405877042,1.44559392851661,0.850820972959775,-0.0492583775865226,0.0175791979490936,-0.522981138985534,0.21,-1,9.75
12.4843509,180,180,0,0,3.0772,63.125,5.86419407627999,1.35996657522261,0.850820972959775,-0.0501129219312702,0.0167856924861137,-0.522920100103766,0.23,-1,9.75
12.5066953,180,180,0,0,3.0184,63.125,5.97464409378955,1.27433922192861,0.850820972959775,-0.0510285051577855,0.0160532259049014,-0.522859061221998,0.25,-1.01,9.75
12.6302362,180,180,0,0,2.7146,63.0625,6.55171684555295,0.650125084655009,0.850759934078008,-0.0565830433986449,0.0110480375999512,-0.522492827931392,0.4,-1.06,9.74
12.6493561,180,180,0,0,2.6852,63.0625,6.63288045458803,0.481102250196463,0.850759934078008,-0.0580479765610694,0.00976622108282976,-0.522370750167857,0.43,-1.06,9.73
12.673377,180,180,0,0,2.6264,63.0625,6.77038500844262,0.339133952082943,0.850759934078008,-0.0590245986693524,0.00885063785631447,-0.522309711286089,0.45,-1.07,9.73
12.7731472,180,180,0,0,2.401,63.0625,7.26406227904148,-0.255793776716164,0.850637856314472,-0.0635414759201611,0.00433376060550571,-0.522004516877251,0.57,-1.1,9.72
12.7966434,180,180,0,0,2.352,63.0625,7.37451229655105,-0.341421130010168,0.850637856314472,-0.0645791369102118,0.00341817737899042,-0.521943477995483,0.6,-1.11,9.72
12.8223472,180,180,0,0,2.303,63,7.48496231406061,-0.427048483304173,0.850576817432705,-0.0659830311908686,0.00207532198010132,-0.521821400231948,0.64,-1.12,9.72
12.9222947,180,180,0,0,2.1462,63,7.89524410349493,-0.992689803628791,0.850393700787402,-0.0696453640969297,-0.00177012757126289,-0.521577244704877,0.75,-1.14,9.71
12.9411599,180,180,0,0,2.1168,63,8.03274865734952,-1.13465810174231,0.850332661905634,-0.0708661417322835,-0.00286882744308124,-0.521516205823109,0.77,-1.15,9.7
12.9571566,180,180,0,0,2.0972,63,8.05980319369455,-1.19099904656183,0.850332661905634,-0.0711713361411219,-0.00329609961545504,-0.521516205823109,0.78,-1.15,9.7
13.0611155,180,180,0,0,1.9992,63,8.33258042927427,-1.61467206877292,0.850149545260331,-0.0740401635842031,-0.00665323811267778,-0.521333089177806,0.87,-1.16,9.69
13.0814466,180,180,0,0,1.9894,63,8.44303044678384,-1.70029942206693,0.850149545260331,-0.0747115912836477,-0.00744674357565769,-0.521333089177806,0.88,-1.16,9.69
13.1035042,180,180,0,0,1.9796,63,8.47008498312886,-1.75664036688644,0.850088506378563,-0.0751388634560215,-0.00799609351156687,-0.521333089177806,0.9,-1.17,9.69
13.2000109,180,180,0,0,1.96,63,8.63464407332848,-1.95494960981948,0.84990538973326,-0.0767258743819813,-0.00939998779222365,-0.521333089177806,0.94,-1.18,9.68
13.2193052,180,180,0,0,1.96,63,8.63464407332848,-1.95494960981948,0.84990538973326,-0.0769089910272844,-0.00946102667399133,-0.521333089177806,0.94,-1.18,9.68
13.2363589,180,180,0,0,1.96,63,8.63464407332848,-1.95494960981948,0.84990538973326,-0.0770310687908198,-0.00952206555575902,-0.521333089177806,0.94,-1.18,9.68
13.3355188,180,180,0,0,2.0188,63.0625,8.66393048180297,-1.87155412865494,0.849783311969725,-0.0770310687908198,-0.00903375450161753,-0.521455166941342,0.93,-1.19,9.68
13.3553323,180,180,0,0,2.0286,63.0625,8.66393048180297,-1.87155412865494,0.849783311969725,-0.0768479521455167,-0.00866752121101141,-0.521516205823109,0.93,-1.19,9.68
13.3723689,180,180,0,0,2.0482,63.0625,8.63687594545794,-1.81521318383542,0.849783311969725,-0.0766648355002136,-0.00836232680217298,-0.521577244704877,0.92,-1.19,9.69
13.4732938,180,180,0,0,2.1658,63.0625,8.4452623189133,-1.56056299608287,0.849844350851492,-0.07465055240188,-0.00598181041323323,-0.521821400231948,0.86,-1.18,9.69
13.4922024,180,180,0,0,2.205,63.0625,8.39115324622325,-1.44788110644384,0.849844350851492,-0.0741622413477385,-0.00537142159555637,-0.521882439113715,0.84,-1.18,9.69
13.5094361,180,180,0,0,2.2148,63.0625,8.30775776505871,-1.41859469796935,0.849844350851492,-0.0738570469389001,-0.00506622718671794,-0.521943477995483,0.84,-1.17,9.69
13.6094241,180,180,0,0,2.4108,63.125,8.00792599313396,-0.938580730938739,0.84990538973326,-0.070560947323445,-0.00140389428065678,-0.522309711286089,0.74,-1.16,9.7
13.6283561,180,180,0,0,2.4402,63.125,7.89747597562439,-0.852953377644734,0.84990538973326,-0.0697674418604651,-0.00061038881767686,-0.522370750167857,0.72,-1.15,9.71
13.652667,180,180,0,0,2.5088,63.125,7.7599714217698,-0.710985079531214,0.849966428615028,-0.0685466642251114,0.000671427699444546,-0.522492827931392,0.69,-1.14,9.71
13.7693299,180,180,0,0,2.744,63.1875,7.32263509599046,-0.0890028143870811,0.850027467496795,-0.0634193981566258,0.00579869376793017,-0.522920100103766,0.55,-1.11,9.72
13.7893578,180,180,0,0,2.793,63.1875,7.21218507848089,-0.00337546109307629,0.850088506378563,-0.0625648538118782,0.00665323811267778,-0.523042177867301,0.54,-1.11,9.72
13.8055107,180,180,0,0,2.842,63.1875,7.15807600579084,0.109306428545954,0.850088506378563,-0.0621375816395044,0.00714154916681926,-0.523042177867301,0.51,-1.1,9.72
13.9043817,180,180,0,0,3.038,63.1875,6.63511232671749,0.62083867618052,0.850149545260331,-0.0573765488616249,0.0113532320087896,-0.523408411157908,0.39,-1.07,9.73
13.9243814,180,180,0,0,3.087,63.1875,6.58100325402744,0.733520565819551,0.850149545260331,-0.0565220045168773,0.0122688152353049,-0.523408411157908,0.37,-1.06,9.74
13.9418093,180,180,0,0,3.1066,63.1875,6.44349870017285,0.875488863933071,0.850210584142098,-0.0556674601721296,0.0131233595800525,-0.523469450039675,0.35,-1.06,9.74
14.0422144,180,180,0,0,3.2928,63.25,6.00393050226404,1.35773470309315,0.850271623023866,-0.0511505829213209,0.0169688091314167,-0.523713605566746,0.24,-1.02,9.74
14.063551,180,180,0,0,3.3026,63.25,5.89348048475448,1.44336205638715,0.850271623023866,-0.0504181163401086,0.0177012757126289,-0.523713605566746,0.22,-1.02,9.75
14.0794459,180,180,0,0,3.3418,63.25,5.86642594840945,1.49970300120667,0.850271623023866,-0.0498077275224318,0.0183116645303058,-0.523774644448514,0.2,-1.01,9.75
14.1833571,180,180,0,0,3.4398,63.25,5.4809668231907,1.86926695072771,0.850393700787402,-0.0463285112616737,0.0209363364463163,-0.523835683330281,0.12,-0.98,9.75
14.2033669,180,180,0,0,3.4496,63.25,5.45391228684567,1.92560789554723,0.850393700787402,-0.0459012390892999,0.0213636086186901,-0.523835683330281,0.11,-0.98,9.75
14.2228379,180,180,0,0,3.4594,63.25,5.37051680568113,1.95489430402172,0.850393700787402,-0.0454129280351584,0.0216688030275285,-0.523835683330281,0.1,-0.98,9.75
14.3502696,180,180,0,0,3.4594,63.25,5.23301225182654,2.09686260213524,0.850515778550937,-0.0437648782274309,0.0225233473722761,-0.523774644448514,0.07,-0.96,9.75
14.3692624,180,180,0,0,3.4594,63.25,5.17667130700702,2.06980806579021,0.850515778550937,-0.0436428004638955,0.0224012696087408,-0.523774644448514,0.07,-0.95,9.75
14.3863848,180,180,0,0,3.4496,63.1875,5.20372584335205,2.0134671209707,0.850515778550937,-0.0435817615821278,0.0222181529634377,-0.523774644448514,0.07,-0.95,9.75
14.4863465,180,180,0,0,3.3614,63.1875,5.28488945238712,1.84444428651215,0.850637856314472,-0.0444973448086431,0.0205701031557102,-0.523591527803211,0.11,-0.95,9.75
14.5053533,180,180,0,0,3.3418,63.1875,5.31194398873215,1.78810334169263,0.850637856314472,-0.0448025392174815,0.0200817921015687,-0.523591527803211,0.12,-0.95,9.75
14.5223875,180,180,0,0,3.3222,63.1875,5.31194398873215,1.78810334169263,0.850637856314472,-0.0449246169810169,0.0197765976927303,-0.523530488921443,0.13,-0.95,9.75
14.6193101,180,180,0,0,3.1556,63.1875,5.50132574314733,1.39371672795603,0.85069889519624,-0.0471220167246536,0.0168467313678813,-0.52334737227614,0.2,-0.95,9.75
14.6383651,180,180,0,0,3.136,63.1875,5.58248935218241,1.22469389349748,0.850759934078008,-0.0478544833058658,0.0156869926142953,-0.523286333394372,0.22,-0.95,9.75
14.6564588,180,180,0,0,3.087,63.1875,5.60954388852744,1.16835294867797,0.850759934078008,-0.0481596777147043,0.0153207593236892,-0.523286333394372,0.23,-0.96,9.75
14.7692218,180,180,0,0,2.8616,63.125,6.01982567796175,0.602711628353348,0.850759934078008,-0.0520661661478362,0.0108038820728804,-0.522981138985534,0.35,-0.97,9.75
14.7885366,180,180,0,0,2.8126,63.125,6.15733023181634,0.460743330239828,0.850759934078008,-0.0531648660196545,0.00952206555575902,-0.522859061221998,0.38,-0.98,9.74
14.8073248,180,180,0,0,2.7636,63.125,6.18438476816137,0.404402385420313,0.850759934078008,-0.0535921381920283,0.0091558322651529,-0.522859061221998,0.39,-0.98,9.74
14.9063115,180,180,0,0,2.5578,63.0625,6.56761202125066,-0.104897990084789,0.85069889519624,-0.0575596655069279,0.00469999389611182,-0.52255386681316,0.51,-1,9.74
14.9265431,180,180,0,0,2.5088,63.0625,6.62172109394071,-0.21757987972382,0.85069889519624,-0.0583531709699078,0.00378441066959653,-0.522492827931392,0.53,-1.01,9.73
14.9503651,180,180,0,0,2.4598,63.0625,6.78628018414033,-0.415889122656855,0.85069889519624,-0.0596349874870292,0.00244155527070744,-0.522370750167857,0.57,-1.01,9.73
15.0483884,180,180,0,0,2.2932,63.0625,7.19656197357465,-0.981530442981472,0.850576817432705,-0.0634193981566258,-0.00213636086186901,-0.522126594640786,0.68,-1.03,9.72
15.0673498,180,180,0,0,2.254,63.0625,7.22361650991967,-1.03787138780099,0.850576817432705,-0.0640908258560703,-0.0030519440883843,-0.522065555759018,0.7,-1.03,9.72
15.0841855,180,180,0,0,2.2344,63.0625,7.27772558260972,-1.15055327744002,0.850515778550937,-0.0643960202649087,-0.00341817737899042,-0.522065555759018,0.71,-1.03,9.72
15.1953116,180,180,0,0,2.0874,63.0625,7.63389829935399,-1.60351270812561,0.850332661905634,-0.068424586461576,-0.00769089910272844,-0.521882439113715,0.82,-1.06,9.71
15.2143177,180,180,0,0,2.0776,63.0625,7.68800737204404,-1.71619459776464,0.850271623023866,-0.0686687419886468,-0.00805713239333455,-0.521882439113715,0.84,-1.06,9.71
15.2315584,180,180,0,0,2.0678,63.0625,7.77140285320858,-1.74548100623913,0.850271623023866,-0.0691570530427883,-0.00866752121101141,-0.521821400231948,0.85,-1.06,9.71
15.3433662,180,180,0,0,2.0188,63.0625,7.99007101609825,-2.05647213881119,0.850088506378563,-0.0712934139046573,-0.0108038820728804,-0.52176036135018,0.91,-1.07,9.7
15.3634281,180,180,0,0,2.0188,63.0625,7.99007101609825,-2.05647213881119,0.850088506378563,-0.0715986083134957,-0.0110480375999512,-0.52176036135018,0.91,-1.08,9.7
15.3792385,180,180,0,0,2.0188,63.0625,8.01712555244328,-2.11281308363071,0.850027467496795,-0.0717817249587988,-0.0111701153634865,-0.521821400231948,0.92,-1.08,9.7
15.4793346,180,180,0,0,2.0482,63.0625,8.07346649726279,-2.08575854728568,0.849966428615028,-0.0722089971311726,-0.0109869987181835,-0.521882439113715,0.92,-1.09,9.7
15.5036755,180,180,0,0,2.0678,63.0625,8.04641196091777,-2.02941760246616,0.84990538973326,-0.0720869193676372,-0.0105597265458097,-0.521943477995483,0.91,-1.09,9.7
15.5214421,180,180,0,0,2.0776,63.0625,8.04641196091777,-2.02941760246616,0.84990538973326,-0.0720258804858695,-0.0104376487822743,-0.521943477995483,0.9,-1.09,9.7
15.6253447,180,180,0,0,2.1854,63.125,7.94042568766713,-1.66431739720405,0.84990538973326,-0.0707440639687481,-0.00781297686626381,-0.522248672404322,0.85,-1.09,9.7
15.6443652,180,180,0,0,2.2148,63.125,7.9133711513221,-1.60797645238453,0.84990538973326,-0.0704388695599097,-0.00714154916681926,-0.522248672404322,0.84,-1.1,9.7
15.6614689,180,180,0,0,2.2344,63.125,7.9133711513221,-1.60797645238453,0.84990538973326,-0.0701336751510712,-0.00647012146737472,-0.522309711286089,0.82,-1.1,9.7
15.7712638,180,180,0,0,2.4304,63.125,7.66988032421687,-1.10090794900889,0.84990538973326,-0.0681193920527376,-0.00286882744308124,-0.522614905694928,0.72,-1.1,9.71
15.7903131,180,180,0,0,2.45,63.125,7.67211219634633,-0.961171523024837,0.84990538973326,-0.0673869254715254,-0.00158701092595984,-0.522736983458463,0.71,-1.1,9.71
15.8072078,180,180,0,0,2.499,63.1875,7.58871671518179,-0.931885114550348,0.84990538973326,-0.0670817310626869,-0.00115973875358603,-0.522736983458463,0.7,-1.1,9.71
15.9064564,180,180,0,0,2.6754,63.1875,7.2911168153865,-0.312134721535679,0.84990538973326,-0.0639687480925349,0.0034792162607581,-0.523103216749069,0.59,-1.1,9.72
15.9265709,180,180,0,0,2.7244,63.1875,7.23700774269645,-0.199452831896648,0.84990538973326,-0.0633583592748581,0.00439479948727339,-0.523164255630837,0.56,-1.1,9.72
15.949863,180,180,0,0,2.7734,63.1875,7.15584413366138,-0.0304299974381022,0.84990538973326,-0.0625038149301105,0.00579869376793017,-0.523286333394372,0.54,-1.1,9.72
16.0555053,180,180,0,0,2.9792,63.25,6.8289578253916,0.505924914412025,0.84990538973326,-0.0590245986693524,0.010498687664042,-0.523591527803211,0.43,-1.09,9.73
16.077588,180,180,0,0,3.0184,63.25,6.77484875270155,0.618606804051056,0.849966428615028,-0.0582921320881401,0.0113532320087896,-0.523591527803211,0.4,-1.08,9.73
16.1045063,180,180,0,0,3.0576,63.25,6.63734419884696,0.760575102164577,0.849966428615028,-0.0572544710980895,0.0127571262894464,-0.523652566684978,0.37,-1.08,9.73
16.2134593,180,180,0,0,3.2242,63.25,6.28340335423216,1.35327095883422,0.850027467496795,-0.0534700604284929,0.0173350424220228,-0.523896722212049,0.26,-1.06,9.74
16.2323658,180,180,0,0,3.2536,63.25,6.14589880037756,1.49523925694774,0.850027467496795,-0.0526155160837453,0.0184337422938412,-0.523957761093817,0.23,-1.06,9.74
16.2483727,180,180,0,0,3.2634,63.25,6.11884426403254,1.55158020176726,0.850027467496795,-0.0523103216749069,0.018861014466215,-0.523957761093817,0.22,-1.06,9.74
16.3472599,180,180,0,0,3.3614,63.25,5.87312156479784,1.91891227915884,0.850027467496795,-0.0496856497588964,0.0216688030275285,-0.524018799975584,0.14,-1.05,9.74
16.3674798,180,180,0,0,3.3712,63.25,5.87312156479784,1.91891227915884,0.850027467496795,-0.0493194164682903,0.02215711408167,-0.524018799975584,0.13,-1.05,9.74
16.388413,180,180,0,0,3.381,63.25,5.81901249210779,2.03159416879787,0.850088506378563,-0.0490142220594519,0.0225233473722761,-0.524018799975584,0.12,-1.04,9.74
16.4873442,180,180,0,0,3.3908,63.25,5.70856247459822,2.11722152209187,0.850149545260331,-0.0479155221876335,0.0236220472440945,-0.523957761093817,0.09,-1.04,9.75
16.5157339,180,180,0,0,3.3908,63.25,5.70856247459822,2.11722152209187,0.850149545260331,-0.0478544833058658,0.0236830861258622,-0.523957761093817,0.09,-1.04,9.75
16.6272815,180,180,0,0,3.3222,63.25,5.76267154728827,2.00453963245284,0.850210584142098,-0.048403833241775,0.0227675028993469,-0.523835683330281,0.11,-1.04,9.75
16.6497331,180,180,0,0,3.3026,63.25,5.76267154728827,2.00453963245284,0.850210584142098,-0.0486479887688458,0.0224012696087408,-0.523774644448514,0.12,-1.04,9.75
16.7893645,180,180,0,0,3.1164,63.1875,6.00616237439351,1.4974711290772,0.850332661905634,-0.0511505829213209,0.0184947811756089,-0.523530488921443,0.21,-1.04,9.74
16.8083492,180,180,0,0,3.0772,63.1875,6.03321691073853,1.44113018425769,0.850393700787402,-0.0516388939754624,0.0177623145943966,-0.523469450039675,0.23,-1.04,9.74
16.8254195,180,180,0,0,3.0576,63.1875,6.08732598342858,1.32844829461866,0.850393700787402,-0.0521272050296039,0.0169688091314167,-0.523408411157908,0.25,-1.04,9.74
16.9227302,180,180,0,0,2.8616,63.1875,6.33081681053382,0.821379791243019,0.850454739669169,-0.0547518769456144,0.0127571262894464,-0.523164255630837,0.34,-1.04,9.74
16.9493738,180,180,0,0,2.8126,63.1875,6.38492588322387,0.708697901603988,0.850454739669169,-0.0553012268815235,0.0119025819446988,-0.523103216749069,0.37,-1.04,9.74
16.9673889,180,180,0,0,2.793,63.125,6.43903495591392,0.596016011964958,0.850454739669169,-0.0559116156992004,0.0109869987181835,-0.523042177867301,0.38,-1.04,9.74
17.0634786,180,180,0,0,2.5872,63.125,6.73886672783867,0.116002044934346,0.850515778550937,-0.058902520905817,0.00647012146737472,-0.522736983458463,0.49,-1.04,9.73
17.0823483,180,180,0,0,2.5676,63.125,6.82003033687375,-0.0530207895242008,0.850515778550937,-0.0595129097234939,0.00555453824085943,-0.522675944576695,0.51,-1.04,9.73
17.0983784,180,180,0,0,2.5382,63.125,6.84708487321877,-0.109361734343716,0.850515778550937,-0.0598181041323323,0.00512726606848563,-0.522675944576695,0.53,-1.05,9.73
17.1956646,180,180,0,0,2.3618,63.0625,7.17397118148855,-0.645716646193844,0.850454739669169,-0.062992125984252,0.00061038881767686,-0.522431789049625,0.63,-1.05,9.72
17.2146668,180,180,0,0,2.3422,63.0625,7.20102571783357,-0.702057591013359,0.850454739669169,-0.0632973203930904,0.000122077763535372,-0.522370750167857,0.65,-1.05,9.72
17.2316223,180,180,0,0,2.3128,63.0625,7.28218932686865,-0.871080425471905,0.850393700787402,-0.0642129036196057,-0.00115973875358603,-0.522309711286089,0.67,-1.05,9.72
