Time (s),Setpoint (deg),Motor Position (deg),Tension 1 (N),Tension 2 (N),Tension 3 (N),Heading (deg),Pitch (deg),Roll (deg),Quaternion W,Quaternion X,Quaternion Y,Quaternion Z,Gravity X,Gravity Y,Gravity Z
0,0,0,0,0,0,0,0,0,0,0,0,0,0,0,0
0.0175923,0,0,0.0196,0,0,66.625,4.76392678854868,5.94180120446219,0.833852163828359,-0.0366233290606116,0.0558505768174327,-0.548068119392053,-0.51,-1.19,9.71
0.0434313,0,0,0.0196,0,0,66.625,4.76392678854868,5.94180120446219,0.833852163828359,-0.0366233290606116,0.0558505768174327,-0.548068119392053,-0.51,-1.19,9.71
0.0623969,0,0,0.0196,0,0,66.625,4.76392678854868,5.94180120446219,0.833852163828359,-0.0366233290606116,0.0558505768174327,-0.548068119392053,-0.51,-1.19,9.71
0.1624846,0,0,0.0294,0,0,66.625,4.76392678854868,5.94180120446219,0.833852163828359,-0.0366233290606116,0.0558505768174327,-0.548068119392053,-0.51,-1.19,9.71
0.1846148,0,0,0.0196,0,0,66.625,4.76392678854868,5.94180120446219,0.833852163828359,-0.0366233290606116,0.0558505768174327,-0.548068119392053,-0.51,-1.19,9.71
0.2043904,0,0,0.0196,0,0,66.625,4.76392678854868,5.94180120446219,0.833852163828359,-0.0366233290606116,0.0558505768174327,-0.548068119392053,-0.51,-1.19,9.71
0.3083292,0,0,0.0294,0,0,66.625,4.76392678854868,5.94180120446219,0.833852163828359,-0.0366233290606116,0.0558505768174327,-0.548068119392053,-0.51,-1.19,9.71
0.3264205,0,0,0.0196,0,0,66.625,4.76392678854868,5.94180120446219,0.833852163828359,-0.0366233290606116,0.0558505768174327,-0.548068119392053,-0.51,-1.19,9.71
0.4214173,0,0,0.0196,0,0,66.625,4.76392678854868,5.94180120446219,0.833852163828359,-0.0366233290606116,0.0558505768174327,-0.548068119392053,-0.51,-1.19,9.71
0.4373656,0,0,0.0196,0,0,66.625,4.76392678854868,5.94180120446219,0.833852163828359,-0.0366233290606116,0.0558505768174327,-0.548068119392053,-0.51,-1.19,9.71
0.5222978,0,0,0.0196,0,0,66.625,4.76392678854868,5.94180120446219,0.833852163828359,-0.0366233290606116,0.0558505768174327,-0.548068119392053,-0.51,-1.19,9.71
0.621421,0,0,0.0196,0,0,66.625,4.76392678854868,5.94180120446219,0.833852163828359,-0.0366233290606116,0.0558505768174327,-0.548068119392053,-0.51,-1.19,9.71
0.6403834,0,0,0.0196,0,0,66.625,4.76392678854868,5.94180120446219,0.833852163828359,-0.0366233290606116,0.0558505768174327,-0.548068119392053,-0.51,-1.19,9.71
0.6574081,0,0,0.0196,0,0,66.625,4.76392678854868,5.94180120446219,0.833852163828359,-0.0366233290606116,0.0558505768174327,-0.548068119392053,-0.51,-1.19,9.71
0.7543456,0,0,0.0196,0,0,66.625,4.76392678854868,5.94180120446219,0.833852163828359,-0.0366233290606116,0.0558505768174327,-0.548068119392053,-0.51,-1.19,9.71
0.7723241,0,0,0.0196,0,0,66.625,4.76392678854868,5.94180120446219,0.833852163828359,-0.0366233290606116,0.0558505768174327,-0.548068119392053,-0.51,-1.19,9.71
0.7874429,0,0,0.0196,0,0,66.625,4.76392678854868,5.94180120446219,0.833852163828359,-0.0366233290606116,0.0558505768174327,-0.548068119392053,-0.51,-1.19,9.71
0.8044174,0,0,0.0196,0,0,66.625,4.76392678854868,5.94180120446219,0.833852163828359,-0.0366233290606116,0.0558505768174327,-0.548068119392053,-0.51,-1.19,9.71
0.9034396,0,0,0.0196,0,0,66.625,4.76392678854868,5.94180120446219,0.833852163828359,-0.0366233290606116,0.0558505768174327,-0.548068119392053,-0.51,-1.19,9.71
0.9213205,0,0,0.0196,0,0,66.625,4.76392678854868,5.94180120446219,0.833852163828359,-0.0366233290606116,0.0558505768174327,-0.548068119392053,-0.51,-1.19,9.71
0.9374552,0,0,0.0196,0,0,66.625,4.76392678854868,5.94180120446219,0.833852163828359,-0.0366233290606116,0.0558505768174327,-0.548068119392053,-0.51,-1.19,9.71
1.0404368,0,0,0.0098,0,0,66.625,4.76392678854868,5.94180120446219,0.833852163828359,-0.0366233290606116,0.0558505768174327,-0.548068119392053,-0.51,-1.19,9.71
1.0583311,0,0,0.0098,0,0,66.625,4.76392678854868,5.94180120446219,0.833852163828359,-0.0366233290606116,0.0558505768174327,-0.548068119392053,-0.51,-1.19,9.71
1.0744364,0,0,0.0098,0,0,66.625,4.76392678854868,5.94180120446219,0.833852163828359,-0.0366233290606116,0.0558505768174327,-0.548068119392053,-0.51,-1.19,9.71
1.0894569,0,0,0.0098,0,0,66.625,4.76392678854868,5.94180120446219,0.833852163828359,-0.0366233290606116,0.0558505768174327,-0.548068119392053,-0.51,-1.19,9.71
1.1874377,0,0,0.0098,0,0,66.625,4.76392678854868,5.94180120446219,0.833852163828359,-0.0366233290606116,0.0558505768174327,-0.548068119392053,-0.51,-1.19,9.71
1.2054359,0,0,0.0098,0,0,66.625,4.76392678854868,5.94180120446219,0.833852163828359,-0.0366233290606116,0.0558505768174327,-0.548068119392053,-0.51,-1.19,9.71
1.2235384,0,0,0.0098,0,0,66.625,4.76392678854868,5.94180120446219,0.833852163828359,-0.0366233290606116,0.0558505768174327,-0.548068119392053,-0.51,-1.19,9.71
1.3303677,0,0,0.0098,0,0,66.625,4.76392678854868,5.94180120446219,0.833852163828359,-0.0366233290606116,0.0558505768174327,-0.548068119392053,-0.51,-1.19,9.71
1.3494095,0,0,0.0098,0,0,66.625,4.76392678854868,5.94180120446219,0.833852163828359,-0.0366233290606116,0.0558505768174327,-0.548068119392053,-0.51,-1.19,9.71
1.3653364,0,0,0.0098,0,0,66.625,4.76392678854868,5.94180120446219,0.833852163828359,-0.0366233290606116,0.0558505768174327,-0.548068119392053,-0.51,-1.19,9.71
1.4644397,0,0,0.0098,0,0,66.625,4.76392678854868,5.94180120446219,0.833852163828359,-0.0366233290606116,0.0558505768174327,-0.548068119392053,-0.51,-1.19,9.71
1.4856681,0,0,0.0098,0,0,66.625,4.76392678854868,5.94180120446219,0.833852163828359,-0.0366233290606116,0.0558505768174327,-0.548068119392053,-0.51,-1.19,9.71
1.502467,0,0,0.0098,0,0,66.625,4.76392678854868,5.94180120446219,0.833852163828359,-0.0366233290606116,0.0558505768174327,-0.548068119392053,-0.51,-1.19,9.71
1.6004645,0,0,0.0196,0,0,66.625,4.76392678854868,5.94180120446219,0.833852163828359,-0.0366233290606116,0.0558505768174327,-0.548068119392053,-0.51,-1.19,9.71
1.6194697,0,0,0.0196,0,0,66.625,4.76392678854868,5.94180120446219,0.833852163828359,-0.0366233290606116,0.0558505768174327,-0.548068119392053,-0.51,-1.19,9.71
1.6365903,0,0,0.0196,0,0,66.625,4.76392678854868,5.94180120446219,0.833852163828359,-0.0366233290606116,0.0558505768174327,-0.548068119392053,-0.51,-1.19,9.71
1.7354722,0,0,0.0196,0,0,66.625,4.76392678854868,5.94180120446219,0.833852163828359,-0.0366233290606116,0.0558505768174327,-0.548068119392053,-0.51,-1.19,9.71
1.7544342,0,0,0.0196,0,0,66.625,4.76392678854868,5.94180120446219,0.833852163828359,-0.0366233290606116,0.0558505768174327,-0.548068119392053,-0.51,-1.19,9.71
1.7694249,0,0,0.0196,0,0,66.625,4.76392678854868,5.94180120446219,0.833852163828359,-0.0366233290606116,0.0558505768174327,-0.548068119392053,-0.51,-1.19,9.71
1.786943,0,0,0.0196,0,0,66.625,4.76392678854868,5.94180120446219,0.833852163828359,-0.0366233290606116,0.0558505768174327,-0.548068119392053,-0.51,-1.19,9.71
1.8834669,0,0,0.0196,0,0,66.625,4.76392678854868,5.94180120446219,0.833852163828359,-0.0366233290606116,0.0558505768174327,-0.548068119392053,-0.51,-1.19,9.71
1.9024668,0,0,0.0196,0,0,66.625,4.76392678854868,5.94180120446219,0.833852163828359,-0.0366233290606116,0.0558505768174327,-0.548068119392053,-0.51,-1.19,9.71
1.9184798,0,0,0.0196,0,0,66.625,4.76392678854868,5.94180120446219,0.833852163828359,-0.0366233290606116,0.0558505768174327,-0.548068119392053,-0.51,-1.19,9.71
2.0155529,0,0,0.0196,0,0,66.625,4.76392678854868,5.94180120446219,0.833852163828359,-0.0366233290606116,0.0558505768174327,-0.548068119392053,-0.51,-1.19,9.71
2.0344298,0,0,0.0196,0,0,66.625,4.76392678854868,5.94180120446219,0.833852163828359,-0.0366233290606116,0.0558505768174327,-0.548068119392053,-0.51,-1.19,9.71
2.0493105,0,0,0.0196,0,0,66.625,4.76392678854868,5.94180120446219,0.833852163828359,-0.0366233290606116,0.0558505768174327,-0.548068119392053,-0.51,-1.19,9.71
2.1484634,0,0,0.0196,0,0,66.625,4.76392678854868,5.94180120446219,0.833852163828359,-0.0366233290606116,0.0558505768174327,-0.548068119392053,-0.51,-1.19,9.71
2.1664871,0,0,0.0196,0,0,66.625,4.76392678854868,5.94180120446219,0.833852163828359,-0.0366233290606116,0.0558505768174327,-0.548068119392053,-0.51,-1.19,9.71
2.1834998,0,0,0.0196,0,0,66.625,4.76392678854868,5.94180120446219,0.833852163828359,-0.0366233290606116,0.0558505768174327,-0.548068119392053,-0.51,-1.19,9.71
2.2804554,0,0,0.0196,0,0,66.625,4.76392678854868,5.94180120446219,0.833852163828359,-0.0366233290606116,0.0558505768174327,-0.548068119392053,-0.51,-1.19,9.71
2.2995191,0,0,0.0196,0,0,66.625,4.76392678854868,5.94180120446219,0.833852163828359,-0.0366233290606116,0.0558505768174327,-0.548068119392053,-0.51,-1.19,9.71
2.3153507,0,0,0.0196,0,0,66.625,4.76392678854868,5.94180120446219,0.833852163828359,-0.0366233290606116,0.0558505768174327,-0.548068119392053,-0.51,-1.19,9.71
2.4154529,0,0,0.0196,0,0,66.625,4.76392678854868,5.94180120446219,0.833852163828359,-0.0366233290606116,0.0558505768174327,-0.548068119392053,-0.51,-1.19,9.71
2.4334769,0,0,0.0196,0,0,66.625,4.76392678854868,5.94180120446219,0.833852163828359,-0.0366233290606116,0.0558505768174327,-0.548068119392053,-0.51,-1.19,9.71
2.4486136,0,0,0.0196,0,0,66.625,4.76392678854868,5.94180120446219,0.833852163828359,-0.0366233290606116,0.0558505768174327,-0.548068119392053,-0.51,-1.19,9.71
2.5513889,0,0,0.0196,0,0,66.625,4.76392678854868,5.94180120446219,0.833852163828359,-0.0366233290606116,0.0558505768174327,-0.548068119392053,-0.51,-1.19,9.71
2.5694589,0,0,0.0196,0,0,66.625,4.76392678854868,5.94180120446219,0.833852163828359,-0.0366233290606116,0.0558505768174327,-0.548068119392053,-0.51,-1.19,9.71
2.5853594,0,0,0.0196,0,0,66.625,4.76392678854868,5.94180120446219,0.833852163828359,-0.0366233290606116,0.0558505768174327,-0.548068119392053,-0.51,-1.19,9.71
2.6004516,0,0,0.0196,0,0,66.625,4.76392678854868,5.94180120446219,0.833852163828359,-0.0366233290606116,0.0558505768174327,-0.548068119392053,-0.51,-1.19,9.71
2.6975327,0,0,0.0196,0,0,66.625,4.76392678854868,5.94180120446219,0.833852163828359,-0.0366233290606116,0.0558505768174327,-0.548068119392053,-0.51,-1.19,9.71
2.716473,0,0,0.0196,0,0,66.625,4.76392678854868,5.94180120446219,0.833852163828359,-0.0366233290606116,0.0558505768174327,-0.548068119392053,-0.51,-1.19,9.71
2.7315235,0,0,0.0196,0,0,66.625,4.76392678854868,5.94180120446219,0.833852163828359,-0.0366233290606116,0.0558505768174327,-0.548068119392053,-0.51,-1.19,9.71
2.8305256,0,0,0.0196,0,0,66.625,4.76392678854868,5.94180120446219,0.833852163828359,-0.0366233290606116,0.0558505768174327,-0.548068119392053,-0.51,-1.19,9.71
2.8484962,0,0,0.0196,0,0,66.625,4.76392678854868,5.94180120446219,0.833852163828359,-0.0366233290606116,0.0558505768174327,-0.548068119392053,-0.51,-1.19,9.71
2.8645179,0,0,0.0196,0,0,66.625,4.76392678854868,5.94180120446219,0.833852163828359,-0.0366233290606116,0.0558505768174327,-0.548068119392053,-0.51,-1.19,9.71
2.8795054,0,0,0.0196,0,0,66.625,4.76392678854868,5.94180120446219,0.833852163828359,-0.0366233290606116,0.0558505768174327,-0.548068119392053,-0.51,-1.19,9.71
2.9765241,0,0,0.0098,0,0,66.625,4.76392678854868,5.94180120446219,0.833852163828359,-0.0366233290606116,0.0558505768174327,-0.548068119392053,-0.51,-1.19,9.71
2.9955294,0,0,0.0196,0,0,66.625,4.76392678854868,5.94180120446219,0.833852163828359,-0.0366233290606116,0.0558505768174327,-0.548068119392053,-0.51,-1.19,9.71
3.0135613,90,0,0.0098,0,0,66.625,4.76392678854868,5.94180120446219,0.833852163828359,-0.0366233290606116,0.0558505768174327,-0.548068119392053,-0.51,-1.19,9.71
3.1264834,90,23.4,0.1862,0,0,66.625,4.76392678854868,5.94180120446219,0.833852163828359,-0.0366233290606116,0.0558505768174327,-0.548068119392053,-0.51,-1.19,9.71
3.1454659,90,31.5,0.2646,0,0,66.625,4.76392678854868,5.94180120446219,0.833852163828359,-0.0366233290606116,0.0558505768174327,-0.548068119392053,-0.51,-1.19,9.71
3.1625718,90,39.6,0.4606,0,0,66.625,4.76392678854868,5.94180120446219,0.833852163828359,-0.0366233290606116,0.0558505768174327,-0.548068119392053,-0.51,-1.19,9.71
3.2654245,90,81,1.4602,0,0,66.625,4.76392678854868,5.94180120446219,0.833852163828359,-0.0365012512970762,0.0557284990538973,-0.548068119392053,-0.51,-1.19,9.71
3.2845808,90,85.5,1.5484,0,0,66.625,4.76392678854868,5.94180120446219,0.833852163828359,-0.0366233290606116,0.0557284990538973,-0.548068119392053,-0.51,-1.19,9.71
3.3004985,90,87.75,1.6758,0,0,66.625,4.76392678854868,5.94180120446219,0.833852163828359,-0.0366233290606116,0.0557284990538973,-0.548068119392053,-0.51,-1.19,9.71
3.4055762,90,90,1.7934,0,0,66.625,4.70878358689649,5.91238220870185,0.833730086064823,-0.0363181346517732,0.0556674601721296,-0.548251236037356,-0.51,-1.19,9.71
3.4245717,90,90,1.7836,0,0,66.625,4.70878358689649,5.91238220870185,0.833730086064823,-0.0360739791247024,0.0556674601721296,-0.548251236037356,-0.52,-1.18,9.72
3.4415383,90,90,1.764,0,0,66.625,4.70878358689649,5.91238220870185,0.833730086064823,-0.0359519013611671,0.0556674601721296,-0.548251236037356,-0.52,-1.18,9.72
3.5414322,90,90,1.666,0,0,66.625,4.42937278876709,5.90499262896489,0.833730086064823,-0.0337545016175304,0.0554843435268266,-0.548495391564427,-0.54,-1.14,9.72
3.5608031,90,90,1.6366,0,0,66.625,4.34481059135457,5.93071683485674,0.833730086064823,-0.0332051516816212,0.0554233046450589,-0.548495391564427,-0.55,-1.13,9.72
3.5785331,90,90,1.6268,0,0,66.6875,4.28966738970238,5.90129783909641,0.833730086064823,-0.0325947628639443,0.0553622657632912,-0.548556430446194,-0.55,-1.12,9.72
3.6754016,90,90,1.4798,0,0,66.6875,3.92569439416046,5.9196324652513,0.833730086064823,-0.0291765854849539,0.0550570713544528,-0.548800585973265,-0.58,-1.06,9.73
3.6935047,90,90,1.47,0,0,66.6875,3.84113219674794,5.94535667114315,0.833730086064823,-0.0284441189037417,0.0549960324726851,-0.548861624855033,-0.59,-1.05,9.73
3.709666,90,90,1.4308,0,0,66.6875,3.78598899509576,5.91593767538281,0.833730086064823,-0.0280778856131356,0.0549349935909174,-0.548861624855033,-0.59,-1.04,9.73
3.8174792,90,90,1.2838,0,0,66.6875,3.28231060048913,5.93057751166922,0.833669047183056,-0.0239882805347006,0.0545077214185436,-0.549105780382103,-0.63,-0.97,9.73
3.8376066,90,90,1.2544,0,0,66.6875,3.22716739883695,5.90115851590889,0.833669047183056,-0.0233168528352561,0.0544466825367759,-0.549166819263871,-0.63,-0.96,9.73
3.8545403,90,90,1.2446,0,0,66.6875,3.14260520142443,5.92688272180074,0.833669047183056,-0.0225843862540438,0.0544466825367759,-0.549166819263871,-0.64,-0.95,9.73
3.9505608,90,90,1.127,0,0,66.75,2.77863220588251,5.94521734795562,0.833669047183056,-0.0193493255203565,0.0540804492461698,-0.549349935909174,-0.67,-0.89,9.74
3.9706373,90,90,1.0976,0,0,66.75,2.72348900423032,5.91579835219529,0.833669047183056,-0.019044131111518,0.0540804492461698,-0.549349935909174,-0.68,-0.88,9.74
3.9926755,90,90,1.078,0,0,66.75,2.63892680681781,5.94152255808714,0.833669047183056,-0.0181895867667704,0.0540194103644021,-0.549410974790942,-0.68,-0.87,9.74
4.0905763,90,90,0.9996,0,0,66.75,2.3595160086884,5.93413297835018,0.833669047183056,-0.0158090703778307,0.0538973326008668,-0.549472013672709,-0.71,-0.83,9.74
4.110617,90,90,0.9898,0,0,66.75,2.3595160086884,5.93413297835018,0.833669047183056,-0.0154428370872246,0.0538973326008668,-0.549533052554477,-0.71,-0.83,9.74
4.1264954,90,90,0.98,0,0,66.75,2.3595160086884,5.93413297835018,0.833669047183056,-0.0154428370872246,0.0538973326008668,-0.549533052554477,-0.71,-0.83,9.74
4.2235062,90,90,0.9506,0,0,66.75,2.2198106096237,5.9304381884817,0.833730086064823,-0.0144051760971739,0.053653177073796,-0.549533052554477,-0.72,-0.81,9.74
4.2415326,90,90,0.9506,0,0,66.75,2.2198106096237,5.9304381884817,0.833730086064823,-0.0141610205701032,0.0537142159555637,-0.549533052554477,-0.72,-0.81,9.74
4.2575737,90,90,0.9506,0,0,66.75,2.16466740797151,5.90101919272136,0.833730086064823,-0.0140999816883355,0.0537142159555637,-0.549472013672709,-0.72,-0.8,9.74
4.2737209,90,90,0.9506,0,0,66.75,2.16466740797151,5.90101919272136,0.833730086064823,-0.0140389428065678,0.0537142159555637,-0.549472013672709,-0.72,-0.8,9.74
4.3714645,90,90,0.98,0,0,66.75,2.19039161386336,5.98558139013388,0.833730086064823,-0.0142830983336385,0.0540194103644021,-0.549410974790942,-0.72,-0.81,9.74
4.3906182,90,90,0.9898,0,0,66.75,2.27495381127588,5.95985718424203,0.833730086064823,-0.01477140938778,0.0540194103644021,-0.549410974790942,-0.72,-0.82,9.74
4.4065075,90,90,0.9898,0,0,66.75,2.27495381127588,5.95985718424203,0.833730086064823,-0.0149545260330831,0.0540194103644021,-0.549410974790942,-0.72,-0.82,9.74
4.5126152,90,90,1.0878,0,0,66.6875,2.55436460940529,5.96724676397899,0.833791124946591,-0.0175181590673259,0.0540804492461698,-0.549288897027406,-0.69,-0.86,9.74
4.5314594,90,90,1.0976,0,0,66.6875,2.58378360516562,5.91210356232681,0.833791124946591,-0.0177623145943966,0.0540804492461698,-0.549227858145639,-0.69,-0.87,9.74
4.5496505,90,90,1.127,0,0,66.6875,2.63892680681781,5.94152255808714,0.833791124946591,-0.0186778978209119,0.0540804492461698,-0.549166819263871,-0.68,-0.88,9.74
4.6545852,90,90,1.2544,0,0,66.6875,3.08746199977225,5.8974637260404,0.833852163828359,-0.021973997436367,0.0542635658914729,-0.548983702618568,-0.65,-0.94,9.73
4.6735372,90,90,1.2642,0,0,66.6875,3.14260520142443,5.92688272180074,0.833852163828359,-0.0227064640175792,0.0543246047732406,-0.548983702618568,-0.64,-0.95,9.73
4.6895744,90,90,1.2936,0,0,66.6875,3.22716739883695,5.90115851590889,0.833852163828359,-0.0230116584264176,0.0543246047732406,-0.5489226637368,-0.64,-0.96,9.73
4.7865858,90,90,1.421,0,0,66.6875,3.59114039437887,5.882823889754,0.833852163828359,-0.0266129524507111,0.0545687603003113,-0.548739547091497,-0.6,-1.02,9.73
4.8066805,90,90,1.4504,0,0,66.6875,3.70142679768324,5.94166188127467,0.833852163828359,-0.0273454190319233,0.0546908380638467,-0.54867850820973,-0.59,-1.04,9.73
4.8226579,90,90,1.4602,0,0,66.6875,3.73084579344357,5.88651867962248,0.833852163828359,-0.0280168467313679,0.0546908380638467,-0.548617469327962,-0.59,-1.04,9.73
4.9207227,90,90,1.5778,0,0,66.625,4.14996199063768,5.89760304922793,0.833852163828359,-0.0310077519379845,0.0549960324726851,-0.548434352682659,-0.56,-1.1,9.72
4.9406439,90,90,1.6072,0,0,66.625,4.20510519228987,5.92702204498826,0.833852163828359,-0.0315571018738937,0.0550570713544528,-0.548434352682659,-0.56,-1.1,9.72
4.9565905,90,90,1.6268,0,0,66.625,4.2345241880502,5.87187884333608,0.833852163828359,-0.0321674906915705,0.0550570713544528,-0.548373313800891,-0.55,-1.11,9.72
5.0556073,90,90,1.715,0,0,66.625,4.5139349861796,5.87926842307304,0.833852163828359,-0.034609045962278,0.0552401879997558,-0.548251236037356,-0.53,-1.16,9.72
5.0746091,90,90,1.7248,0,0,66.625,4.56907818783179,5.90868741883337,0.833852163828359,-0.0349752792528841,0.0553012268815235,-0.548190197155588,-0.52,-1.16,9.72
5.0906259,90,90,1.7346,0,0,66.625,4.56907818783179,5.90868741883337,0.833852163828359,-0.0353415125434902,0.0553012268815235,-0.548190197155588,-0.52,-1.16,9.72
5.1876993,90,90,1.7738,0,0,66.625,4.76392678854868,5.94180120446219,0.833791124946591,-0.036745406824147,0.0556674601721296,-0.54812915827382,-0.51,-1.19,9.71
5.2064948,90,90,1.7836,0,0,66.625,4.84848898596119,5.91607699857034,0.833791124946591,-0.0370506012329854,0.0557284990538973,-0.54812915827382,-0.51,-1.2,9.71
5.2215749,90,90,1.7836,0,0,66.625,4.84848898596119,5.91607699857034,0.833791124946591,-0.0372947567600562,0.055789537935665,-0.54812915827382,-0.51,-1.2,9.71
5.31851,90,90,1.7836,0,0,66.625,4.95877538926556,5.974914990091,0.833730086064823,-0.0383324177501068,0.0559116156992004,-0.54812915827382,-0.5,-1.22,9.71
5.3375958,90,90,1.7836,0,0,66.625,4.9881943850259,5.91977178843882,0.833669047183056,-0.0383934566318745,0.0558505768174327,-0.54812915827382,-0.5,-1.22,9.71
5.3545848,90,90,1.7738,0,0,66.625,4.9881943850259,5.91977178843882,0.833669047183056,-0.0383934566318745,0.055789537935665,-0.548190197155588,-0.49,-1.22,9.71
5.4535059,90,90,1.7248,0,0,66.625,4.84848898596119,5.91607699857034,0.833669047183056,-0.0375999511688946,0.055789537935665,-0.548251236037356,-0.5,-1.21,9.71
5.4736556,90,90,1.7052,0,0,66.625,4.84848898596119,5.91607699857034,0.833669047183056,-0.0372947567600562,0.0557284990538973,-0.548312274919123,-0.51,-1.2,9.71
5.4895831,90,90,1.6954,0,0,66.625,4.76392678854868,5.94180120446219,0.833669047183056,-0.03692852346945,0.0557284990538973,-0.548312274919123,-0.51,-1.2,9.71
5.5866377,90,90,1.5974,0,0,66.625,4.56907818783179,5.90868741883337,0.833669047183056,-0.0345480070805103,0.0555453824085943,-0.548495391564427,-0.53,-1.16,9.72
5.6045989,90,90,1.5876,0,0,66.6875,4.48451599041927,5.93441162472522,0.833669047183056,-0.0342428126716719,0.0555453824085943,-0.548556430446194,-0.54,-1.15,9.72
5.6207034,90,90,1.5582,0,0,66.6875,4.48451599041927,5.93441162472522,0.833669047183056,-0.0339376182628334,0.0555453824085943,-0.548556430446194,-0.54,-1.14,9.72
5.7215976,90,90,1.4504,0,0,66.6875,4.06539979322516,5.92332725511978,0.833669047183056,-0.0303973631203076,0.0552401879997558,-0.548800585973265,-0.57,-1.09,9.72
5.7395706,90,90,1.421,0,0,66.6875,3.98083759581264,5.94905146101163,0.833669047183056,-0.0300311298297015,0.0551791491179882,-0.548800585973265,-0.57,-1.08,9.72
5.7545727,90,90,1.4014,0,0,66.6875,3.92569439416046,5.9196324652513,0.833669047183056,-0.029359702130257,0.0551181102362205,-0.548861624855033,-0.58,-1.06,9.73
5.8516313,90,90,1.2838,0,0,66.6875,3.56172139861854,5.93796709140618,0.833669047183056,-0.026246719160105,0.054812915827382,-0.549044741500336,-0.61,-1.01,9.73
5.8695335,90,90,1.2544,0,0,66.6875,3.50657819696635,5.90854809564585,0.833669047183056,-0.0256363303424281,0.0547518769456144,-0.549105780382103,-0.62,-1,9.73
5.885615,90,90,1.2446,0,0,66.6875,3.42201599955384,5.9342723015377,0.833669047183056,-0.0249649026429836,0.0546908380638467,-0.549105780382103,-0.62,-0.99,9.73
5.9005528,90,90,1.225,0,0,66.6875,3.42201599955384,5.9342723015377,0.833669047183056,-0.0245986693523775,0.054629799182079,-0.549166819263871,-0.63,-0.98,9.73
5.9986078,90,90,1.1172,0,0,66.75,3.00289980235973,5.92318793193226,0.833669047183056,-0.0214856863822255,0.0543856436550082,-0.549288897027406,-0.65,-0.93,9.73
6.017723,90,90,1.0976,0,0,66.75,2.91833760494721,5.94891213782411,0.833669047183056,-0.0208752975645486,0.0543246047732406,-0.549349935909174,-0.66,-0.92,9.74
6.0385987,90,90,1.078,0,0,66.75,2.91833760494721,5.94891213782411,0.833669047183056,-0.0203259476286394,0.0542635658914729,-0.549349935909174,-0.66,-0.91,9.74
6.1354873,90,90,1.0094,0,0,66.75,2.63892680681781,5.94152255808714,0.833669047183056,-0.0180064701214674,0.0540804492461698,-0.549410974790942,-0.69,-0.87,9.74
6.1536062,90,90,0.9996,0,0,66.75,2.58378360516562,5.91210356232681,0.833669047183056,-0.0176402368308613,0.0540194103644021,-0.549410974790942,-0.69,-0.87,9.74
6.168686,90,90,0.9996,0,0,66.75,2.58378360516562,5.91210356232681,0.833669047183056,-0.0174571201855582,0.0540194103644021,-0.549410974790942,-0.69,-0.86,9.74
6.1849182,90,90,0.9898,0,0,66.75,2.55436460940529,5.96724676397899,0.833669047183056,-0.0172740035402551,0.0538973326008668,-0.549472013672709,-0.69,-0.86,9.74
6.2905619,90,90,0.9702,0,0,66.75,2.4992214077531,5.93782776821866,0.833669047183056,-0.0171519257767198,0.0538362937190991,-0.549472013672709,-0.69,-0.86,9.74
6.3097214,90,90,0.9702,0,0,66.75,2.4992214077531,5.93782776821866,0.833669047183056,-0.0171519257767198,0.0538362937190991,-0.549472013672709,-0.69,-0.86,9.74
6.3257265,90,90,0.9702,0,0,66.75,2.4992214077531,5.93782776821866,0.833669047183056,-0.0171519257767198,0.0538362937190991,-0.549472013672709,-0.69,-0.86,9.74
6.4234968,90,90,0.9996,0,0,66.75,2.63892680681781,5.94152255808714,0.833669047183056,-0.0181285478850027,0.0538973326008668,-0.549410974790942,-0.68,-0.87,9.74
6.4435412,90,90,1.0192,0,0,66.75,2.66834580257814,5.88637935643496,0.833730086064823,-0.0184337422938412,0.0538973326008668,-0.549410974790942,-0.68,-0.88,9.74
6.4596411,90,90,1.029,0,0,66.75,2.72348900423032,5.91579835219529,0.833730086064823,-0.0187999755844473,0.0538362937190991,-0.549349935909174,-0.67,-0.88,9.74
6.5576607,90,90,1.1074,0,0,66.75,2.94775660070754,5.89376893617192,0.833730086064823,-0.0211194530916194,0.0538973326008668,-0.549227858145639,-0.65,-0.92,9.74
6.575623,90,90,1.1172,0,0,66.6875,3.03231879812006,5.86804473028007,0.833730086064823,-0.0213636086186901,0.0538973326008668,-0.549227858145639,-0.64,-0.93,9.74
6.5906253,90,90,1.1466,0,0,66.6875,3.08746199977225,5.8974637260404,0.833730086064823,-0.0219129585545993,0.0538973326008668,-0.549166819263871,-0.64,-0.93,9.74
6.6056948,90,90,1.1564,0,0,66.6875,3.17202419718476,5.87173952014855,0.833730086064823,-0.0225233473722761,0.0539583714826344,-0.549166819263871,-0.63,-0.94,9.73
6.7026302,90,90,1.2544,0,0,66.6875,3.45143499531417,5.87912909988552,0.833791124946591,-0.025270097051822,0.0541414881279375,-0.548983702618568,-0.61,-0.99,9.73
6.7217891,90,90,1.2838,0,0,66.6875,3.50657819696635,5.90854809564585,0.833791124946591,-0.0256363303424281,0.0541414881279375,-0.548983702618568,-0.6,-1,9.73
6.7457112,90,90,1.3132,0,0,66.6875,3.59114039437887,5.882823889754,0.833791124946591,-0.0269181468595495,0.0542635658914729,-0.548861624855033,-0.59,-1.02,9.73
6.8465342,90,90,1.4406,0,0,66.6875,4.03967558733331,5.83876505770726,0.833791124946591,-0.0302752853567723,0.0544466825367759,-0.54867850820973,-0.56,-1.08,9.73
6.8656481,90,90,1.4602,0,0,66.6875,4.03967558733331,5.83876505770726,0.833791124946591,-0.0305804797656107,0.0545077214185436,-0.54867850820973,-0.56,-1.08,9.73
6.8817031,90,90,1.4896,0,0,66.6875,4.0948187889855,5.86818405346759,0.833791124946591,-0.0308856741744491,0.0545077214185436,-0.548617469327962,-0.55,-1.09,9.72
6.9796449,90,90,1.5876,0,0,66.625,4.45879178452742,5.84984942731271,0.833791124946591,-0.0341817737899042,0.054812915827382,-0.548434352682659,-0.53,-1.14,9.72
6.9976455,90,90,1.6072,0,0,66.625,4.54335398193994,5.82412522142085,0.833791124946591,-0.0347311237258133,0.0548739547091497,-0.548373313800891,-0.52,-1.15,9.72
7.0126467,90,90,1.617,0,0,66.625,4.59849718359212,5.85354421718119,0.833791124946591,-0.0349752792528841,0.0548739547091497,-0.548373313800891,-0.52,-1.16,9.72
7.0276495,90,90,1.6268,0,0,66.625,4.59849718359212,5.85354421718119,0.833791124946591,-0.0352194347799548,0.0549349935909174,-0.548373313800891,-0.51,-1.16,9.72
7.1236793,90,90,1.6954,0,0,66.625,4.82276478006934,5.83151480115782,0.833730086064823,-0.0372337178782885,0.0551181102362205,-0.548251236037356,-0.5,-1.2,9.71
7.1426498,90,90,1.715,0,0,66.625,4.87790798172153,5.86093379691815,0.833730086064823,-0.0375389122871269,0.0551791491179882,-0.548190197155588,-0.49,-1.2,9.71
7.1586471,90,90,1.715,0,0,66.625,4.87790798172153,5.86093379691815,0.833730086064823,-0.0377830678141976,0.0551791491179882,-0.548190197155588,-0.49,-1.21,9.71
7.2545375,90,90,1.7444,0,0,66.625,4.93305118337371,5.89035279267849,0.833730086064823,-0.0382713788683391,0.0554233046450589,-0.548190197155588,-0.49,-1.22,9.71
7.2726224,90,90,1.7542,0,0,66.625,4.93305118337371,5.89035279267849,0.833730086064823,-0.0382713788683391,0.0554233046450589,-0.548190197155588,-0.49,-1.22,9.71
7.2896999,90,90,1.7542,0,0,66.625,4.93305118337371,5.89035279267849,0.833730086064823,-0.0382713788683391,0.0554233046450589,-0.548190197155588,-0.49,-1.22,9.71
7.3946508,90,90,1.7346,0,0,66.625,4.87790798172153,5.86093379691815,0.833730086064823,-0.0379661844595007,0.0551791491179882,-0.548190197155588,-0.49,-1.21,9.71
7.4126476,90,90,1.7248,0,0,66.625,4.87790798172153,5.86093379691815,0.833730086064823,-0.0377830678141976,0.0551791491179882,-0.548190197155588,-0.49,-1.21,9.71
7.4275323,90,90,1.7248,0,0,66.625,4.87790798172153,5.86093379691815,0.833730086064823,-0.0374778734053592,0.0551181102362205,-0.548190197155588,-0.49,-1.2,9.71
7.4426847,90,90,1.715,0,0,66.625,4.82276478006934,5.83151480115782,0.833730086064823,-0.0373557956418238,0.0551181102362205,-0.548251236037356,-0.49,-1.2,9.71
7.5457002,90,90,1.6464,0,0,66.625,4.59849718359212,5.85354421718119,0.833730086064823,-0.0352194347799548,0.0549349935909174,-0.548373313800891,-0.51,-1.16,9.72
7.5645736,90,90,1.6268,0,0,66.625,4.59849718359212,5.85354421718119,0.833791124946591,-0.0347311237258133,0.0549349935909174,-0.548373313800891,-0.52,-1.15,9.72
7.5805511,90,90,1.617,0,0,66.625,4.5139349861796,5.87926842307304,0.833791124946591,-0.0344869681987426,0.0548739547091497,-0.548434352682659,-0.52,-1.15,9.72
7.6816929,90,90,1.519,0,0,66.625,4.2345241880502,5.87187884333608,0.833791124946591,-0.0319843740462675,0.054629799182079,-0.548556430446194,-0.55,-1.1,9.72
7.6997485,90,90,1.4896,0,0,66.6875,4.0948187889855,5.86818405346759,0.833791124946591,-0.0310687908197522,0.0545077214185436,-0.548617469327962,-0.55,-1.09,9.72
7.7187178,90,90,1.4798,0,0,66.6875,4.0948187889855,5.86818405346759,0.833791124946591,-0.0307635964109138,0.0545077214185436,-0.54867850820973,-0.56,-1.08,9.73
7.8175962,90,90,1.3524,0,0,66.6875,3.76026478920391,5.8313754779703,0.833791124946591,-0.0276506134407618,0.0541414881279375,-0.548861624855033,-0.58,-1.03,9.73
7.8456785,90,90,1.3328,0,0,66.6875,3.56541618848702,5.79826169234148,0.833791124946591,-0.0263687969236404,0.0539583714826344,-0.5489226637368,-0.59,-1.01,9.73
7.8617157,90,90,1.3034,0,0,66.6875,3.53599719272669,5.85340489399367,0.833791124946591,-0.0260636025148019,0.0539583714826344,-0.5489226637368,-0.6,-1,9.73
7.9577132,90,90,1.1956,0,0,66.6875,3.2014431929451,5.81659631849637,0.833791124946591,-0.023133736189953,0.053653177073796,-0.549105780382103,-0.62,-0.95,9.73
7.977794,90,90,1.176,0,0,66.6875,3.2014431929451,5.81659631849637,0.833791124946591,-0.0228285417811146,0.0535921381920283,-0.549105780382103,-0.63,-0.95,9.74
7.9977102,90,90,1.1662,0,0,66.6875,3.06173779388039,5.81290152862789,0.833791124946591,-0.0220350363181347,0.0534700604284929,-0.549166819263871,-0.63,-0.93,9.74
8.0947095,90,90,1.0682,0,0,66.75,2.83747019740317,5.83493094465125,0.833791124946591,-0.0199597143380333,0.0531648660196545,-0.549288897027406,-0.65,-0.89,9.74
8.1147534,90,90,1.0682,0,0,66.75,2.83747019740317,5.83493094465125,0.833791124946591,-0.0197765976927303,0.0531648660196545,-0.549288897027406,-0.65,-0.89,9.74
8.130698,90,90,1.0486,0,0,66.75,2.78232699575099,5.80551194889092,0.833791124946591,-0.0194714032838918,0.0531038271378868,-0.549349935909174,-0.65,-0.88,9.74
8.2286333,90,90,1.0094,0,0,66.75,2.67204059244662,5.74667395737026,0.833791124946591,-0.0184947811756089,0.052676554965513,-0.549410974790942,-0.66,-0.87,9.74
8.2467364,90,90,0.9996,0,0,66.75,2.64262159668629,5.80181715902244,0.833791124946591,-0.0183116645303058,0.052676554965513,-0.549410974790942,-0.66,-0.86,9.74
8.2647061,90,90,0.9996,0,0,66.75,2.64262159668629,5.80181715902244,0.833791124946591,-0.0181285478850027,0.0527375938472807,-0.549349935909174,-0.66,-0.86,9.74
8.3617418,90,90,0.9996,0,0,66.75,2.55805939927377,5.82754136491429,0.833791124946591,-0.0174571201855582,0.0528596716108161,-0.549349935909174,-0.67,-0.85,9.74
8.3809985,90,90,0.9996,0,0,66.75,2.55805939927377,5.82754136491429,0.833791124946591,-0.0174571201855582,0.0529207104925838,-0.549349935909174,-0.67,-0.85,9.74
8.3977355,90,90,1.0094,0,0,66.75,2.55805939927377,5.82754136491429,0.833791124946591,-0.0175181590673259,0.0529207104925838,-0.549349935909174,-0.67,-0.85,9.74
8.4955982,90,90,1.0486,0,0,66.6875,2.64262159668629,5.80181715902244,0.833852163828359,-0.0184947811756089,0.0529817493743515,-0.549227858145639,-0.66,-0.87,9.74
8.5147713,90,90,1.0682,0,0,66.6875,2.69776479833847,5.83123615478277,0.833852163828359,-0.0187999755844473,0.0529817493743515,-0.549227858145639,-0.66,-0.87,9.74
8.5306517,90,90,1.078,0,0,66.6875,2.69776479833847,5.83123615478277,0.833852163828359,-0.0191662088750534,0.0529817493743515,-0.549166819263871,-0.66,-0.88,9.74
8.627701,90,90,1.1564,0,0,66.6875,2.92203239481569,5.8092067387594,0.833913202710126,-0.0208752975645486,0.0530427882561191,-0.549105780382103,-0.64,-0.91,9.74
8.6457354,90,90,1.176,0,0,66.6875,3.00659459222821,5.78348253286755,0.833913202710126,-0.0216688030275285,0.0530427882561191,-0.549044741500336,-0.63,-0.92,9.74
8.6617831,90,90,1.1858,0,0,66.6875,3.06173779388039,5.81290152862789,0.833913202710126,-0.0219129585545993,0.0530427882561191,-0.548983702618568,-0.63,-0.92,9.74
8.6767754,90,90,1.2054,0,0,66.6875,3.09115678964073,5.7577583269757,0.833913202710126,-0.02215711408167,0.0531038271378868,-0.548983702618568,-0.62,-0.93,9.74
8.775751,90,90,1.3132,0,0,66.6875,3.42571078942232,5.794566902473,0.833913202710126,-0.0254532136971251,0.0532869437831899,-0.548800585973265,-0.59,-0.98,9.73
8.795743,90,90,1.3426,0,0,66.6875,3.51027298683483,5.76884269658115,0.833913202710126,-0.0260636025148019,0.0532869437831899,-0.548739547091497,-0.59,-0.99,9.73
8.8116952,90,90,1.3524,0,0,66.6875,3.56541618848702,5.79826169234148,0.833913202710126,-0.0263687969236404,0.0533479826649576,-0.548739547091497,-0.58,-1,9.73
8.9077265,90,90,1.4602,0,0,66.625,3.92938918402894,5.77992706618659,0.833913202710126,-0.0294207410120247,0.0535921381920283,-0.548556430446194,-0.56,-1.05,9.73
8.9256959,90,90,1.4798,0,0,66.625,4.01395138144146,5.75420286029474,0.833913202710126,-0.0300311298297015,0.053653177073796,-0.548556430446194,-0.55,-1.06,9.73
8.9426621,90,90,1.4994,0,0,66.625,4.01395138144146,5.75420286029474,0.833913202710126,-0.0303363242385399,0.0537142159555637,-0.548495391564427,-0.55,-1.07,9.73
9.0396059,90,90,1.5974,0,0,66.625,4.34850538122305,5.79101143579204,0.833913202710126,-0.0331441127998535,0.0540194103644021,-0.548373313800891,-0.52,-1.12,9.72
9.0577186,90,90,1.6072,0,0,66.625,4.43306757863557,5.76528722990019,0.833913202710126,-0.0336934627357627,0.0540804492461698,-0.548312274919123,-0.52,-1.13,9.72
9.0737614,90,90,1.617,0,0,66.625,4.48821078028775,5.79470622566052,0.833913202710126,-0.0341817737899042,0.0541414881279375,-0.548312274919123,-0.51,-1.14,9.72
9.1716575,90,90,1.6856,0,0,66.625,4.71247837676497,5.77267680963715,0.833852163828359,-0.0363181346517732,0.0545687603003113,-0.548190197155588,-0.5,-1.18,9.72
9.1896348,90,90,1.6856,0,0,66.625,4.76762157841716,5.80209580539749,0.833852163828359,-0.0366843679423793,0.0546908380638467,-0.548190197155588,-0.49,-1.18,9.72
9.2047219,90,90,1.6954,0,0,66.625,4.76762157841716,5.80209580539749,0.833852163828359,-0.0368064457059147,0.0547518769456144,-0.548190197155588,-0.49,-1.19,9.72
9.2207693,90,90,1.7052,0,0,66.625,4.82276478006934,5.83151480115782,0.833791124946591,-0.0371116401147531,0.0548739547091497,-0.548190197155588,-0.49,-1.19,9.72
9.3197497,90,90,1.7248,0,0,66.625,4.87790798172153,5.86093379691815,0.833791124946591,-0.0375389122871269,0.0550570713544528,-0.548190197155588,-0.49,-1.2,9.71
9.3377443,90,90,1.7248,0,0,66.625,4.87790798172153,5.86093379691815,0.833791124946591,-0.0375389122871269,0.0550570713544528,-0.548190197155588,-0.49,-1.2,9.71
9.3537619,90,90,1.715,0,0,66.625,4.87790798172153,5.86093379691815,0.833791124946591,-0.0375389122871269,0.0550570713544528,-0.548190197155588,-0.49,-1.2,9.71
9.4507347,90,90,1.6954,0,0,66.625,4.76762157841716,5.80209580539749,0.833791124946591,-0.0368674845876824,0.054812915827382,-0.548190197155588,-0.49,-1.19,9.72
9.4687988,90,90,1.6856,0,0,66.625,4.76762157841716,5.80209580539749,0.833791124946591,-0.036745406824147,0.054812915827382,-0.548190197155588,-0.5,-1.19,9.72
9.4846355,90,90,1.6758,0,0,66.625,4.73820258265682,5.85723900704967,0.833791124946591,-0.0364402124153086,0.054812915827382,-0.548251236037356,-0.5,-1.18,9.72
9.4997742,90,90,1.6758,0,0,66.625,4.73820258265682,5.85723900704967,0.833791124946591,-0.0361350180064701,0.054812915827382,-0.548251236037356,-0.5,-1.18,9.72
9.5987672,90,90,1.6072,0,0,66.625,4.45879178452742,5.84984942731271,0.833791124946591,-0.0341207349081365,0.054629799182079,-0.548373313800891,-0.52,-1.14,9.72
9.6177868,90,90,1.5876,0,0,66.625,4.45879178452742,5.84984942731271,0.833791124946591,-0.0338765793810657,0.054629799182079,-0.548373313800891,-0.52,-1.14,9.72
9.6336098,90,90,1.5778,0,0,66.625,4.40364858287523,5.82043043155237,0.833791124946591,-0.0333882683269243,0.0545687603003113,-0.548434352682659,-0.53,-1.13,9.72
9.7307987,90,90,1.4798,0,0,66.625,4.03967558733331,5.83876505770726,0.833791124946591,-0.0307025575291461,0.0543246047732406,-0.548617469327962,-0.55,-1.08,9.73
9.7497044,90,90,1.47,0,0,66.6875,4.03967558733331,5.83876505770726,0.833791124946591,-0.0300921687114692,0.0543246047732406,-0.548617469327962,-0.56,-1.07,9.73
9.7647874,90,90,1.4406,0,0,66.6875,4.03967558733331,5.83876505770726,0.833791124946591,-0.0300921687114692,0.0543246047732406,-0.548617469327962,-0.56,-1.07,9.73
9.86175,90,90,1.3426,0,0,66.6875,3.67570259179139,5.85709968386215,0.833791124946591,-0.0271623023866203,0.0540194103644021,-0.548800585973265,-0.59,-1.02,9.73
9.8796276,90,90,1.3132,0,0,66.6875,3.53599719272669,5.85340489399367,0.833791124946591,-0.0263077580418727,0.0539583714826344,-0.548861624855033,-0.59,-1.01,9.73
9.8979501,90,90,1.3034,0,0,66.6875,3.53599719272669,5.85340489399367,0.833791124946591,-0.0260636025148019,0.0538973326008668,-0.5489226637368,-0.6,-1,9.73
10.0057495,90,90,1.1956,0,0,66.6875,3.2014431929451,5.81659631849637,0.833791124946591,-0.0230726973081853,0.0535310993102606,-0.549044741500336,-0.62,-0.95,9.73
10.0248146,90,90,1.176,0,0,66.6875,3.2014431929451,5.81659631849637,0.833791124946591,-0.0228895806628823,0.0535310993102606,-0.549105780382103,-0.62,-0.95,9.74
10.0406731,90,90,1.1662,0,0,66.6875,3.11688099553258,5.84232052438822,0.833791124946591,-0.02215711408167,0.0534090215467253,-0.549105780382103,-0.63,-0.93,9.74
10.1387523,90,90,1.078,0,0,66.6875,2.86688919316351,5.77978774299907,0.833791124946591,-0.0203259476286394,0.0531038271378868,-0.549227858145639,-0.64,-0.9,9.74
10.1579218,90,90,1.078,0,0,66.6875,2.86688919316351,5.77978774299907,0.833791124946591,-0.0201428309833364,0.0531038271378868,-0.549227858145639,-0.65,-0.9,9.74
10.179006,90,90,1.0584,0,0,66.6875,2.78232699575099,5.80551194889092,0.833791124946591,-0.0197765976927303,0.0529817493743515,-0.549288897027406,-0.65,-0.89,9.74
10.2896453,90,90,1.0192,0,0,66.75,2.72718379409881,5.77609295313059,0.833852163828359,-0.0192272477568211,0.0525544772019777,-0.549288897027406,-0.65,-0.88,9.74
10.307746,90,90,1.0192,0,0,66.75,2.72718379409881,5.77609295313059,0.833852163828359,-0.0192272477568211,0.0525544772019777,-0.549288897027406,-0.65,-0.88,9.74
10.3227775,90,90,1.0192,0,0,66.75,2.72718379409881,5.77609295313059,0.833852163828359,-0.0192272477568211,0.0525544772019777,-0.549288897027406,-0.65,-0.88,9.74
10.3377831,90,90,1.0192,0,0,66.75,2.72718379409881,5.77609295313059,0.833852163828359,-0.0192272477568211,0.0525544772019777,-0.549288897027406,-0.65,-0.88,9.74
10.4387265,90,90,1.029,0,0,66.75,2.75660278985914,5.7209497514784,0.833852163828359,-0.0194714032838918,0.05249343832021,-0.549288897027406,-0.64,-0.88,9.74
10.4579803,90,90,1.0388,0,0,66.6875,2.81174599151132,5.75036874723874,0.833852163828359,-0.0195934810474272,0.05249343832021,-0.549288897027406,-0.64,-0.88,9.74
10.4826698,90,90,1.0486,0,0,66.6875,2.81174599151132,5.75036874723874,0.833852163828359,-0.0199597143380333,0.05249343832021,-0.549288897027406,-0.64,-0.89,9.74
10.5807679,90,90,1.1172,0,0,66.6875,2.98087038633636,5.69892033545503,0.833852163828359,-0.0214246475004578,0.05249343832021,-0.549166819263871,-0.62,-0.91,9.74
10.5988964,90,90,1.1172,0,0,66.6875,3.03601358798854,5.72833933121537,0.833852163828359,-0.0218519196728316,0.05249343832021,-0.549166819263871,-0.62,-0.92,9.74
10.614768,90,90,1.1368,0,0,66.6875,3.12057578540106,5.70261512532352,0.833852163828359,-0.0222791918452054,0.05249343832021,-0.549105780382103,-0.61,-0.93,9.74
10.7217023,90,90,1.2348,0,0,66.6875,3.39998658353047,5.71000470506048,0.833852163828359,-0.025086980406519,0.0525544772019777,-0.548983702618568,-0.59,-0.97,9.74
10.7407208,90,90,1.2446,0,0,66.6875,3.48454878094298,5.68428049916863,0.833913202710126,-0.0256363303424281,0.0526155160837453,-0.5489226637368,-0.58,-0.98,9.73
10.7568464,90,90,1.274,0,0,66.6875,3.48454878094298,5.68428049916863,0.833913202710126,-0.0258804858694989,0.0526155160837453,-0.5489226637368,-0.57,-0.99,9.73
10.8557556,90,90,1.372,0,0,66.6875,3.84852177648491,5.66594587301374,0.833913202710126,-0.0287493133125801,0.0527986327290484,-0.548739547091497,-0.55,-1.03,9.73
10.873796,90,90,1.3916,0,0,66.6875,3.90366497813709,5.69536486877408,0.833913202710126,-0.0292986632484893,0.0527986327290484,-0.548739547091497,-0.54,-1.04,9.73
10.8887716,90,90,1.4014,0,0,66.6875,3.98822717554961,5.66964066288222,0.833913202710126,-0.0299090520661661,0.0528596716108161,-0.54867850820973,-0.54,-1.05,9.73
10.9038135,90,90,1.421,0,0,66.625,3.98822717554961,5.66964066288222,0.833913202710126,-0.0301532075932369,0.0529207104925838,-0.54867850820973,-0.54,-1.06,9.73
10.9997507,90,90,1.519,0,0,66.625,4.26763797367901,5.67703024261919,0.833913202710126,-0.0328389183910151,0.0531038271378868,-0.548495391564427,-0.51,-1.1,9.73
11.0188018,90,90,1.5288,0,0,66.625,4.35220017109153,5.65130603672734,0.833913202710126,-0.0332661905633889,0.0531648660196545,-0.548495391564427,-0.51,-1.11,9.72
11.0338986,90,90,1.5386,0,0,66.625,4.40734337274372,5.68072503248767,0.833913202710126,-0.0335103460904596,0.0531648660196545,-0.548434352682659,-0.5,-1.12,9.72
11.0497385,90,90,1.5582,0,0,66.625,4.40734337274372,5.68072503248767,0.833852163828359,-0.0339986571446011,0.0532259049014222,-0.548434352682659,-0.5,-1.12,9.72
11.1478302,90,90,1.6268,0,0,66.625,4.63161096922094,5.6586956164643,0.833852163828359,-0.0358908624793994,0.0533479826649576,-0.548312274919123,-0.48,-1.16,9.72
11.1667147,90,90,1.6366,0,0,66.625,4.68675417087312,5.68811461222463,0.833852163828359,-0.0360129402429347,0.0534090215467253,-0.548312274919123,-0.48,-1.16,9.72
11.1818903,90,90,1.6464,0,0,66.625,4.68675417087312,5.68811461222463,0.833852163828359,-0.0362570957700055,0.0534700604284929,-0.548312274919123,-0.48,-1.16,9.72
11.196889,90,90,1.6562,0,0,66.625,4.68675417087312,5.68811461222463,0.833852163828359,-0.0365012512970762,0.0535310993102606,-0.548251236037356,-0.48,-1.17,9.72
11.2937971,90,90,1.6856,0,0,66.625,4.82645956993782,5.69180940209312,0.833852163828359,-0.0370506012329854,0.0537752548373314,-0.548251236037356,-0.48,-1.18,9.72
11.3119469,90,90,1.6856,0,0,66.625,4.82645956993782,5.69180940209312,0.833852163828359,-0.0370506012329854,0.0537752548373314,-0.548251236037356,-0.48,-1.18,9.72
11.329953,90,90,1.6954,0,0,66.625,4.82645956993782,5.69180940209312,0.833852163828359,-0.0370506012329854,0.0537752548373314,-0.548251236037356,-0.48,-1.18,9.72
11.4418138,90,90,1.6856,0,0,66.625,4.77131636828564,5.66239040633278,0.833852163828359,-0.03692852346945,0.053653177073796,-0.548251236037356,-0.48,-1.18,9.72
11.4608031,90,90,1.6758,0,0,66.625,4.77131636828564,5.66239040633278,0.833852163828359,-0.0368674845876824,0.053653177073796,-0.548251236037356,-0.48,-1.17,9.72
11.4768215,90,90,1.666,0,0,66.625,4.74189737252531,5.71753360798497,0.833852163828359,-0.0365012512970762,0.053653177073796,-0.548251236037356,-0.48,-1.17,9.72
11.576794,90,90,1.617,0,0,66.625,4.54704877180842,5.68441982235615,0.833852163828359,-0.0350363181346518,0.0535921381920283,-0.548373313800891,-0.49,-1.14,9.72
11.5968877,90,90,1.6072,0,0,66.625,4.54704877180842,5.68441982235615,0.833852163828359,-0.034609045962278,0.0535310993102606,-0.548373313800891,-0.5,-1.14,9.72
11.6157817,90,90,1.5974,0,0,66.625,4.4624865743959,5.710144028248,0.833852163828359,-0.0344259293169749,0.0535310993102606,-0.548373313800891,-0.5,-1.13,9.72
11.7128021,90,90,1.5092,0,0,66.625,4.23821897791868,5.73217344427137,0.833852163828359,-0.0321064518098028,0.0533479826649576,-0.548556430446194,-0.52,-1.09,9.73
11.7308739,90,90,1.4994,0,0,66.625,4.1830757762665,5.70275444851104,0.833852163828359,-0.0319233351644998,0.0532869437831899,-0.548556430446194,-0.53,-1.09,9.73
11.7500348,90,90,1.4798,0,0,66.625,4.09851357885398,5.72847865440289,0.833852163828359,-0.0311298297015199,0.0532259049014222,-0.548617469327962,-0.53,-1.08,9.73
11.8528249,90,90,1.372,0,0,66.6875,3.81910278072457,5.72108907466593,0.833852163828359,-0.0285051577855094,0.0529207104925838,-0.548800585973265,-0.55,-1.03,9.73
11.8708704,90,90,1.3622,0,0,66.6875,3.76395957907239,5.69167007890559,0.833852163828359,-0.0281999633766709,0.0529207104925838,-0.548800585973265,-0.56,-1.03,9.73
11.8888988,90,90,1.3426,0,0,66.6875,3.67939738165987,5.71739428479744,0.833852163828359,-0.027406457913691,0.0528596716108161,-0.548861624855033,-0.56,-1.01,9.73
11.9868595,90,90,1.2446,0,0,66.6875,3.39998658353047,5.71000470506048,0.833852163828359,-0.0248428248794482,0.05249343832021,-0.548983702618568,-0.59,-0.97,9.74
12.0058208,90,90,1.225,0,0,66.6875,3.34484338187828,5.68058570930015,0.833852163828359,-0.0245986693523775,0.05249343832021,-0.548983702618568,-0.59,-0.96,9.74
12.0207639,90,90,1.2152,0,0,66.6875,3.2897001802261,5.65116671353981,0.833852163828359,-0.024110358298236,0.0524323994384423,-0.549044741500336,-0.59,-0.95,9.74
12.1188234,90,90,1.1368,0,0,66.6875,3.06543258374888,5.67319612956318,0.833852163828359,-0.0220350363181347,0.0521882439113715,-0.549166819263871,-0.61,-0.92,9.74
12.1368193,90,90,1.127,0,0,66.6875,3.06543258374888,5.67319612956318,0.833852163828359,-0.0218519196728316,0.0521272050296039,-0.549166819263871,-0.61,-0.91,9.74
12.1527187,90,90,1.1172,0,0,66.6875,3.01028938209669,5.64377713380285,0.833852163828359,-0.0215467252639932,0.0520661661478362,-0.549166819263871,-0.61,-0.91,9.74
12.2518531,90,90,1.0584,0,0,66.6875,2.87058398303199,5.64008234393437,0.833852163828359,-0.0203869865104071,0.0517609717389977,-0.549227858145639,-0.62,-0.89,9.74
12.2699637,90,90,1.0584,0,0,66.6875,2.87058398303199,5.64008234393437,0.833913202710126,-0.0202649087468718,0.0516999328572301,-0.549227858145639,-0.62,-0.88,9.74
12.2858416,90,90,1.0486,0,0,66.6875,2.87058398303199,5.64008234393437,0.833913202710126,-0.0202038698651041,0.0516388939754624,-0.549227858145639,-0.62,-0.88,9.74
12.3008891,90,90,1.0486,0,0,66.6875,2.87058398303199,5.64008234393437,0.833913202710126,-0.0201428309833364,0.0515778550936947,-0.549288897027406,-0.62,-0.88,9.74
12.3978472,90,90,1.0486,0,0,66.6875,2.87058398303199,5.64008234393437,0.833913202710126,-0.0201428309833364,0.0515778550936947,-0.549288897027406,-0.62,-0.88,9.74
12.4168668,90,90,1.0486,0,0,66.6875,2.87058398303199,5.64008234393437,0.833913202710126,-0.0201428309833364,0.0515778550936947,-0.549288897027406,-0.62,-0.88,9.74
12.4359761,90,90,1.0486,0,0,66.6875,2.87058398303199,5.64008234393437,0.833913202710126,-0.0202038698651041,0.0516388939754624,-0.549227858145639,-0.62,-0.88,9.74
12.5338233,90,90,1.0878,0,0,66.6875,2.95514618044451,5.61435813804252,0.833913202710126,-0.0213025697369224,0.0515778550936947,-0.549227858145639,-0.61,-0.9,9.74
12.5529082,90,90,1.0976,0,0,66.6875,3.01028938209669,5.64377713380285,0.833913202710126,-0.0214246475004578,0.0515778550936947,-0.549166819263871,-0.61,-0.9,9.74
12.5718441,90,90,1.1074,0,0,66.6875,3.03970837785703,5.58863393215067,0.833913202710126,-0.0217908807910639,0.0515778550936947,-0.549166819263871,-0.6,-0.91,9.74
12.6678234,90,90,1.176,0,0,66.6875,3.23455697857391,5.62174771777948,0.833913202710126,-0.0237441250076299,0.0516388939754624,-0.549044741500336,-0.58,-0.94,9.74
12.6868508,90,90,1.1858,0,0,66.6875,3.31911917598643,5.59602351188763,0.833913202710126,-0.0241713971800037,0.0516999328572301,-0.549044741500336,-0.58,-0.95,9.74
12.7018539,90,90,1.1956,0,0,66.6875,3.31911917598643,5.59602351188763,0.833913202710126,-0.0244155527070744,0.0516999328572301,-0.549044741500336,-0.58,-0.95,9.74
12.716772,90,90,1.2152,0,0,66.6875,3.37426237763861,5.62544250764796,0.833913202710126,-0.0249038637612159,0.0516999328572301,-0.548983702618568,-0.57,-0.96,9.74
12.8159001,90,90,1.3034,0,0,66.6875,3.68309217152835,5.57768888573274,0.833913202710126,-0.027406457913691,0.0518830495025331,-0.548861624855033,-0.55,-1,9.73
12.8348631,90,90,1.323,0,0,66.6875,3.73823537318054,5.60710788149308,0.833913202710126,-0.0279558078496002,0.0518830495025331,-0.548800585973265,-0.54,-1.01,9.73
12.8490867,90,90,1.3328,0,0,66.6875,3.73823537318054,5.60710788149308,0.833913202710126,-0.0282610022584386,0.0519440883843008,-0.548800585973265,-0.54,-1.02,9.73
12.8648762,90,90,1.3524,0,0,66.6875,3.82279757059306,5.58138367560122,0.833913202710126,-0.0287493133125801,0.0519440883843008,-0.548739547091497,-0.53,-1.02,9.73
12.9618595,90,90,1.4504,0,0,66.625,4.10220836872246,5.58877325533819,0.833913202710126,-0.0311298297015199,0.0521272050296039,-0.548617469327962,-0.51,-1.06,9.73
12.9820426,90,90,1.4602,0,0,66.625,4.18677056613498,5.56304904944634,0.833913202710126,-0.0316181407556614,0.0521272050296039,-0.548617469327962,-0.5,-1.08,9.73
13.0028585,90,90,1.4798,0,0,66.625,4.18677056613498,5.56304904944634,0.833913202710126,-0.0321064518098028,0.0521272050296039,-0.548556430446194,-0.5,-1.08,9.73
13.0997637,90,90,1.568,0,0,66.625,4.46618136426438,5.5704386291833,0.833913202710126,-0.0343038515534395,0.0523103216749069,-0.548434352682659,-0.48,-1.12,9.72
13.1178759,90,90,1.568,0,0,66.625,4.46618136426438,5.5704386291833,0.833913202710126,-0.0344869681987426,0.0523103216749069,-0.548434352682659,-0.48,-1.12,9.72
13.1328595,90,90,1.5778,0,0,66.625,4.5507435616769,5.54471442329145,0.833913202710126,-0.0350363181346518,0.0523713605566746,-0.548373313800891,-0.47,-1.13,9.72
13.1488983,90,90,1.5974,0,0,66.625,4.5507435616769,5.54471442329145,0.833913202710126,-0.0352194347799548,0.0523713605566746,-0.548373313800891,-0.47,-1.13,9.72
13.2447627,90,90,1.6464,0,0,66.625,4.6904489607416,5.54840921315993,0.833913202710126,-0.0364402124153086,0.0525544772019777,-0.548312274919123,-0.46,-1.16,9.72
13.2629202,90,90,1.6464,0,0,66.625,4.74559216239379,5.57782820892027,0.833913202710126,-0.0366233290606116,0.0526155160837453,-0.548312274919123,-0.46,-1.16,9.72
13.2788967,90,90,1.6562,0,0,66.625,4.74559216239379,5.57782820892027,0.833913202710126,-0.0366233290606116,0.052676554965513,-0.548312274919123,-0.46,-1.16,9.72
13.3768459,90,90,1.666,0,0,66.625,4.74559216239379,5.57782820892027,0.833913202710126,-0.036745406824147,0.0527375938472807,-0.548251236037356,-0.46,-1.16,9.72
13.3950045,90,90,1.666,0,0,66.625,4.74559216239379,5.57782820892027,0.833913202710126,-0.036745406824147,0.0527375938472807,-0.548251236037356,-0.46,-1.16,9.72
13.4108348,90,90,1.666,0,0,66.625,4.74559216239379,5.57782820892027,0.833913202710126,-0.036745406824147,0.0527375938472807,-0.548251236037356,-0.46,-1.16,9.72
13.508897,90,90,1.6464,0,0,66.625,4.6904489607416,5.54840921315993,0.833913202710126,-0.0363791735335409,0.0525544772019777,-0.548312274919123,-0.46,-1.15,9.72
13.5289748,90,90,1.6366,0,0,66.625,4.6904489607416,5.54840921315993,0.833913202710126,-0.0360129402429347,0.05249343832021,-0.548312274919123,-0.47,-1.15,9.72
13.5469019,90,90,1.6268,0,0,66.625,4.60588676332909,5.57413341905178,0.833913202710126,-0.0358298235976317,0.0524323994384423,-0.548312274919123,-0.47,-1.14,9.72
13.6438976,90,90,1.5778,0,0,66.625,4.46618136426438,5.5704386291833,0.833913202710126,-0.0341207349081365,0.0523103216749069,-0.548434352682659,-0.48,-1.12,9.73
13.6617809,90,90,1.5582,0,0,66.625,4.4110381626122,5.54101963342297,0.833913202710126,-0.0339376182628334,0.0523103216749069,-0.548434352682659,-0.49,-1.11,9.73
13.6789803,90,90,1.5484,0,0,66.625,4.38161916685186,5.59616283507515,0.833913202710126,-0.0335103460904596,0.0522492827931392,-0.548495391564427,-0.49,-1.11,9.73
13.7817846,90,90,1.4602,0,0,66.625,4.10220836872246,5.58877325533819,0.833913202710126,-0.0310077519379845,0.0519440883843008,-0.548617469327962,-0.51,-1.06,9.73
13.8018209,90,90,1.4406,0,0,66.625,4.04706516707028,5.55935425957786,0.833974241591894,-0.030519440883843,0.0518830495025331,-0.54867850820973,-0.52,-1.05,9.73
13.8188283,90,90,1.4308,0,0,66.625,3.99192196541809,5.52993526381752,0.833974241591894,-0.0302752853567723,0.0518830495025331,-0.54867850820973,-0.52,-1.05,9.73
13.9179087,90,90,1.3328,0,0,66.6875,3.71251116728869,5.52254568408056,0.833974241591894,-0.0278337300860648,0.0515778550936947,-0.548800585973265,-0.54,-1.01,9.73
13.9368981,90,90,1.323,0,0,66.6875,3.62794896987617,5.54826988997241,0.833974241591894,-0.0272843801501556,0.051516816211927,-0.548861624855033,-0.54,-1,9.73
13.9529901,90,90,1.3034,0,0,66.6875,3.62794896987617,5.54826988997241,0.833974241591894,-0.0267960690960142,0.051516816211927,-0.548861624855033,-0.55,-0.99,9.74
14.0509215,90,90,1.2152,0,0,66.6875,3.34853817174676,5.54088031023545,0.833974241591894,-0.0245986693523775,0.0512116218030886,-0.548983702618568,-0.57,-0.95,9.74
14.069898,90,90,1.2054,0,0,66.6875,3.34853817174676,5.54088031023545,0.833974241591894,-0.0244155527070744,0.0512116218030886,-0.549044741500336,-0.57,-0.94,9.74
14.0859013,90,90,1.1956,0,0,66.6875,3.26397597433425,5.5666045161273,0.833974241591894,-0.0239882805347006,0.0511505829213209,-0.549044741500336,-0.57,-0.94,9.74
14.1829971,90,90,1.127,0,0,66.6875,3.06912737361736,5.53349073049848,0.833974241591894,-0.0224012696087408,0.0507843496307148,-0.549166819263871,-0.58,-0.91,9.74
14.2017906,90,90,1.1172,0,0,66.6875,3.06912737361736,5.53349073049848,0.833974241591894,-0.02215711408167,0.0507843496307148,-0.549166819263871,-0.59,-0.9,9.74
14.2190733,90,90,1.1074,0,0,66.6875,3.01398417196517,5.50407173473815,0.833974241591894,-0.0220350363181347,0.0507233107489471,-0.549166819263871,-0.59,-0.9,9.74
14.3158327,90,90,1.078,0,0,66.6875,2.95884097031299,5.47465273897781,0.833974241591894,-0.0213025697369224,0.050357077458341,-0.549166819263871,-0.59,-0.89,9.74
14.3348188,90,90,1.0682,0,0,66.6875,2.95884097031299,5.47465273897781,0.833974241591894,-0.0211194530916194,0.050357077458341,-0.549166819263871,-0.59,-0.88,9.74
14.3498106,90,90,1.0682,0,0,66.6875,2.95884097031299,5.47465273897781,0.833974241591894,-0.020997375328084,0.0504181163401086,-0.549166819263871,-0.59,-0.88,9.74
14.3649797,90,90,1.0682,0,0,66.6875,2.92942197455266,5.52979594063,0.833974241591894,-0.0209363364463163,0.0504181163401086,-0.549166819263871,-0.59,-0.88,9.74
14.4619105,90,90,1.0682,0,0,66.6875,2.87427877290047,5.50037694486967,0.833974241591894,-0.0205090642739425,0.0506622718671794,-0.549166819263871,-0.6,-0.88,9.74
14.4809803,90,90,1.078,0,0,66.6875,2.87427877290047,5.50037694486967,0.834035280473662,-0.0205701031557102,0.0506622718671794,-0.549166819263871,-0.6,-0.88,9.74
14.4981425,90,90,1.078,0,0,66.6875,2.87427877290047,5.50037694486967,0.834035280473662,-0.0205701031557102,0.0507233107489471,-0.549166819263871,-0.6,-0.88,9.74
14.5979474,90,90,1.127,0,0,66.6875,2.98456517620484,5.55921493639033,0.834035280473662,-0.0214246475004578,0.0509674662760178,-0.549044741500336,-0.6,-0.89,9.74
14.6170433,90,90,1.1368,0,0,66.6875,2.98456517620484,5.55921493639033,0.834035280473662,-0.0217298419092962,0.0509674662760178,-0.549044741500336,-0.59,-0.9,9.74
14.6328595,90,90,1.1466,0,0,66.6875,3.06912737361736,5.53349073049848,0.834035280473662,-0.0220350363181347,0.0510285051577855,-0.548983702618568,-0.59,-0.9,9.74
14.7299238,90,90,1.2152,0,0,66.6875,3.26397597433425,5.5666045161273,0.834035280473662,-0.0239272416529329,0.0511505829213209,-0.548861624855033,-0.57,-0.94,9.74
14.7488757,90,90,1.2348,0,0,66.6875,3.26397597433425,5.5666045161273,0.834035280473662,-0.024110358298236,0.0512116218030886,-0.548861624855033,-0.57,-0.94,9.74
14.7671528,90,90,1.2446,0,0,66.6875,3.34853817174676,5.54088031023545,0.834035280473662,-0.0245986693523775,0.0512116218030886,-0.548861624855033,-0.57,-0.95,9.74
14.8639398,90,90,1.3328,0,0,66.625,3.57280576822398,5.51885089421208,0.834096319355429,-0.0269791857413172,0.0513947384483916,-0.54867850820973,-0.55,-0.99,9.74
14.881946,90,90,1.3426,0,0,66.625,3.62794896987617,5.54826988997241,0.834096319355429,-0.0274674967954587,0.0514557773301593,-0.54867850820973,-0.54,-1,9.73
14.8969491,90,90,1.3622,0,0,66.625,3.71251116728869,5.52254568408056,0.834096319355429,-0.0277116523225295,0.051516816211927,-0.54867850820973,-0.54,-1,9.73
14.9141761,90,90,1.372,0,0,66.625,3.71251116728869,5.52254568408056,0.834096319355429,-0.0281999633766709,0.0515778550936947,-0.548617469327962,-0.53,-1.01,9.73
15.0239441,90,90,1.4602,0,0,66.625,4.04706516707028,5.55935425957786,0.834035280473662,-0.0308856741744491,0.0518830495025331,-0.548495391564427,-0.51,-1.06,9.73
15.0430183,90,90,1.4798,0,0,66.625,4.13162736448279,5.533630053686,0.834035280473662,-0.0313129463468229,0.0519440883843008,-0.548434352682659,-0.51,-1.07,9.73
15.0589431,90,90,1.4896,0,0,66.625,4.13162736448279,5.533630053686,0.834035280473662,-0.0315571018738937,0.0520051272660685,-0.548434352682659,-0.51,-1.07,9.73
15.1569472,90,90,1.568,0,0,66.625,4.38161916685186,5.59616283507515,0.834035280473662,-0.0335713849722273,0.0523713605566746,-0.548312274919123,-0.49,-1.11,9.73
15.1749683,90,90,1.5778,0,0,66.625,4.38161916685186,5.59616283507515,0.834035280473662,-0.0339376182628334,0.0524323994384423,-0.548312274919123,-0.49,-1.11,9.73
15.190965,90,90,1.5876,0,0,66.625,4.46618136426438,5.5704386291833,0.834035280473662,-0.0343038515534395,0.05249343832021,-0.548251236037356,-0.49,-1.12,9.72
15.3038666,90,90,1.6268,0,0,66.625,4.63161096922094,5.6586956164643,0.833974241591894,-0.0357077458340963,0.0531038271378868,-0.548190197155588,-0.48,-1.15,9.72
15.3228642,90,90,1.6366,0,0,66.625,4.63161096922094,5.6586956164643,0.833974241591894,-0.0358298235976317,0.0531648660196545,-0.548190197155588,-0.48,-1.15,9.72
15.3440094,90,90,1.6366,0,0,66.625,4.63161096922094,5.6586956164643,0.833974241591894,-0.0358908624793994,0.0531648660196545,-0.548190197155588,-0.48,-1.15,9.72
15.4459997,90,90,1.6464,0,0,66.625,4.68675417087312,5.68811461222463,0.833913202710126,-0.0361960568882378,0.0533479826649576,-0.548190197155588,-0.48,-1.16,9.72
15.4651341,90,90,1.6366,0,0,66.625,4.68675417087312,5.68811461222463,0.833913202710126,-0.0361960568882378,0.0533479826649576,-0.548190197155588,-0.48,-1.16,9.72
15.4820031,90,90,1.6366,0,0,66.625,4.68675417087312,5.68811461222463,0.833913202710126,-0.0361350180064701,0.0532869437831899,-0.548190197155588,-0.48,-1.16,9.72
15.5809784,90,90,1.6072,0,0,66.625,4.57646776756875,5.62927662070397,0.833974241591894,-0.0351583958981871,0.0531648660196545,-0.548251236037356,-0.49,-1.14,9.72
15.5999983,90,90,1.5974,0,0,66.625,4.54704877180842,5.68441982235615,0.833974241591894,-0.0349142403711164,0.0531648660196545,-0.548251236037356,-0.49,-1.14,9.72
15.6159094,90,90,1.5876,0,0,66.625,4.54704877180842,5.68441982235615,0.833974241591894,-0.0347311237258133,0.0531038271378868,-0.548312274919123,-0.49,-1.13,9.72
15.7129963,90,90,1.5288,0,0,66.625,4.35220017109153,5.65130603672734,0.833974241591894,-0.0331441127998535,0.0529817493743515,-0.548373313800891,-0.51,-1.1,9.73
15.7319394,90,90,1.519,0,0,66.625,4.26763797367901,5.67703024261919,0.833974241591894,-0.0325947628639443,0.0529207104925838,-0.548434352682659,-0.51,-1.1,9.73
15.748941,90,90,1.4994,0,0,66.625,4.26763797367901,5.67703024261919,0.833974241591894,-0.0323506073368736,0.0529207104925838,-0.548434352682659,-0.51,-1.09,9.73
15.8470822,90,90,1.421,0,0,66.625,3.98822717554961,5.66964066288222,0.833974241591894,-0.0301532075932369,0.052676554965513,-0.548556430446194,-0.53,-1.05,9.73
15.865936,90,90,1.4014,0,0,66.625,3.98822717554961,5.66964066288222,0.833974241591894,-0.0294207410120247,0.0526155160837453,-0.548617469327962,-0.54,-1.04,9.73
15.8819768,90,90,1.3916,0,0,66.625,3.84852177648491,5.66594587301374,0.833974241591894,-0.0292376243667216,0.0525544772019777,-0.548617469327962,-0.54,-1.04,9.73
15.9779906,90,90,1.3132,0,0,66.6875,3.65367317576802,5.63283208738493,0.833974241591894,-0.0269181468595495,0.0523713605566746,-0.548739547091497,-0.56,-1,9.73
15.9981055,90,90,1.2936,0,0,66.6875,3.5691109783555,5.65855629327678,0.833974241591894,-0.0266739913324788,0.0523103216749069,-0.548800585973265,-0.56,-0.99,9.73
