Time (s),Setpoint (deg),Motor Position (deg),Tension 1 (N),Tension 2 (N),Tension 3 (N),Heading (deg),Pitch (deg),Roll (deg),Quaternion W,Quaternion X,Quaternion Y,Quaternion Z,Gravity X,Gravity Y,Gravity Z
0,0,0,0,0,0,0,0,0,0,0,0,0,0,0,0
0.0230629,0,-0.45,0.0294,0,0,65.6875,2.24599174522607,4.91077156161599,0.83910150766038,-0.0161753036684368,0.0444363059268754,-0.542025270097052,-0.55,-0.73,9.76
0.0604313,0,0,0.0294,0,0,65.6875,2.24599174522607,4.91077156161599,0.83910150766038,-0.0161753036684368,0.0444363059268754,-0.542025270097052,-0.55,-0.73,9.76
0.1625099,0,0,0.0294,0,0,65.6875,2.24599174522607,4.91077156161599,0.83910150766038,-0.0161753036684368,0.0444363059268754,-0.542025270097052,-0.55,-0.73,9.76
0.1824712,0,0,0.0294,0,0,65.6875,2.24599174522607,4.91077156161599,0.83910150766038,-0.0161753036684368,0.0444363059268754,-0.542025270097052,-0.55,-0.73,9.76
0.2063814,0,0,0.0392,0,0,65.6875,2.24599174522607,4.91077156161599,0.83910150766038,-0.0161753036684368,0.0444363059268754,-0.542025270097052,-0.55,-0.73,9.76
0.3173239,0,0,0.0294,0,0,65.6875,2.24599174522607,4.91077156161599,0.83910150766038,-0.0161753036684368,0.0444363059268754,-0.542025270097052,-0.55,-0.73,9.76
0.3386065,0,0,0.0294,0,0,65.6875,2.24599174522607,4.91077156161599,0.83910150766038,-0.0161753036684368,0.0444363059268754,-0.542025270097052,-0.55,-0.73,9.76
0.356303,0,0,0.0294,0,0,65.6875,2.24599174522607,4.91077156161599,0.83910150766038,-0.0161753036684368,0.0444363059268754,-0.542025270097052,-0.55,-0.73,9.76
0.3722976,0,0,0.0294,0,0,65.6875,2.24599174522607,4.91077156161599,0.83910150766038,-0.0161753036684368,0.0444363059268754,-0.542025270097052,-0.55,-0.73,9.76
0.3882882,0,0,0.0294,0,0,65.6875,2.24599174522607,4.91077156161599,0.83910150766038,-0.0161753036684368,0.0444363059268754,-0.542025270097052,-0.55,-0.73,9.76
0.4043352,0,0,0.0294,0,0,65.6875,2.24599174522607,4.91077156161599,0.83910150766038,-0.0161753036684368,0.0444363059268754,-0.542025270097052,-0.55,-0.73,9.76
0.4203677,0,0,0.0294,0,0,65.6875,2.24599174522607,4.91077156161599,0.83910150766038,-0.0161753036684368,0.0444363059268754,-0.542025270097052,-0.55,-0.73,9.76
0.4362905,0,0,0.0294,0,0,65.6875,2.24599174522607,4.91077156161599,0.83910150766038,-0.0161753036684368,0.0444363059268754,-0.542025270097052,-0.55,-0.73,9.76
0.4522848,0,0,0.0294,0,0,65.6875,2.24599174522607,4.91077156161599,0.83910150766038,-0.0161753036684368,0.0444363059268754,-0.542025270097052,-0.55,-0.73,9.76
0.4672884,0,0,0.0294,0,0,65.6875,2.24599174522607,4.91077156161599,0.83910150766038,-0.0161753036684368,0.0444363059268754,-0.542025270097052,-0.55,-0.73,9.76
0.4823006,0,0,0.0294,0,0,65.6875,2.24599174522607,4.91077156161599,0.83910150766038,-0.0161753036684368,0.0444363059268754,-0.542025270097052,-0.55,-0.73,9.76
0.4973416,0,0,0.0294,0,0,65.6875,2.24599174522607,4.91077156161599,0.83910150766038,-0.0161753036684368,0.0444363059268754,-0.542025270097052,-0.55,-0.73,9.76
0.513293,0,0,0.0294,0,0,65.6875,2.24599174522607,4.91077156161599,0.83910150766038,-0.0161753036684368,0.0444363059268754,-0.542025270097052,-0.55,-0.73,9.76
0.5282908,0,0,0.0294,0,0,65.6875,2.24599174522607,4.91077156161599,0.83910150766038,-0.0161753036684368,0.0444363059268754,-0.542025270097052,-0.55,-0.73,9.76
0.6293509,0,0,0.0294,0,0,65.6875,2.24599174522607,4.91077156161599,0.83910150766038,-0.0161753036684368,0.0444363059268754,-0.542025270097052,-0.55,-0.73,9.76
0.6484127,0,0,0.0294,0,0,65.6875,2.24599174522607,4.91077156161599,0.83910150766038,-0.0161753036684368,0.0444363059268754,-0.542025270097052,-0.55,-0.73,9.76
0.6655276,0,0,0.0294,0,0,65.6875,2.24599174522607,4.91077156161599,0.83910150766038,-0.0161753036684368,0.0444363059268754,-0.542025270097052,-0.55,-0.73,9.76
0.7835176,0,0,0.0294,0,0,65.6875,2.24599174522607,4.91077156161599,0.83910150766038,-0.0161753036684368,0.0444363059268754,-0.542025270097052,-0.55,-0.73,9.76
0.8024115,0,0,0.0294,0,0,65.6875,2.24599174522607,4.91077156161599,0.83910150766038,-0.0161753036684368,0.0444363059268754,-0.542025270097052,-0.55,-0.73,9.76
0.8186217,0,0,0.0294,0,0,65.6875,2.24599174522607,4.91077156161599,0.83910150766038,-0.0161753036684368,0.0444363059268754,-0.542025270097052,-0.55,-0.73,9.76
0.9143958,0,0,0.0294,0,0,65.6875,2.24599174522607,4.91077156161599,0.83910150766038,-0.0161753036684368,0.0444363059268754,-0.542025270097052,-0.55,-0.73,9.76
0.9344692,0,0,0.0294,0,0,65.6875,2.24599174522607,4.91077156161599,0.83910150766038,-0.0161753036684368,0.0444363059268754,-0.542025270097052,-0.55,-0.73,9.76
0.9502774,0,0,0.0294,0,0,65.6875,2.24599174522607,4.91077156161599,0.83910150766038,-0.0161753036684368,0.0444363059268754,-0.542025270097052,-0.55,-0.73,9.76
1.0472523,0,0,0.0294,0,0,65.6875,2.24599174522607,4.91077156161599,0.83910150766038,-0.0161753036684368,0.0444363059268754,-0.542025270097052,-0.55,-0.73,9.76
1.065253,0,0,0.0294,0,0,65.6875,2.24599174522607,4.91077156161599,0.83910150766038,-0.0161753036684368,0.0444363059268754,-0.542025270097052,-0.55,-0.73,9.76
1.0802466,0,0,0.0294,0,0,65.6875,2.24599174522607,4.91077156161599,0.83910150766038,-0.0161753036684368,0.0444363059268754,-0.542025270097052,-0.55,-0.73,9.76
1.0953078,0,0,0.0294,0,0,65.6875,2.24599174522607,4.91077156161599,0.83910150766038,-0.0161753036684368,0.0444363059268754,-0.542025270097052,-0.55,-0.73,9.76
1.1964105,0,0,0.0294,0,0,65.6875,2.24599174522607,4.91077156161599,0.83910150766038,-0.0161753036684368,0.0444363059268754,-0.542025270097052,-0.55,-0.73,9.76
1.214424,0,0,0.0294,0,0,65.6875,2.24599174522607,4.91077156161599,0.83910150766038,-0.0161753036684368,0.0444363059268754,-0.542025270097052,-0.55,-0.73,9.76
1.2297722,0,0,0.0294,0,0,65.6875,2.24599174522607,4.91077156161599,0.83910150766038,-0.0161753036684368,0.0444363059268754,-0.542025270097052,-0.55,-0.73,9.76
1.244409,0,0,0.0294,0,0,65.6875,2.24599174522607,4.91077156161599,0.83910150766038,-0.0161753036684368,0.0444363059268754,-0.542025270097052,-0.55,-0.73,9.76
1.3412865,0,0,0.0294,0,0,65.6875,2.24599174522607,4.91077156161599,0.83910150766038,-0.0161753036684368,0.0444363059268754,-0.542025270097052,-0.55,-0.73,9.76
1.3593416,0,0,0.0294,0,0,65.6875,2.24599174522607,4.91077156161599,0.83910150766038,-0.0161753036684368,0.0444363059268754,-0.542025270097052,-0.55,-0.73,9.76
1.3742681,0,0,0.0294,0,0,65.6875,2.24599174522607,4.91077156161599,0.83910150766038,-0.0161753036684368,0.0444363059268754,-0.542025270097052,-0.55,-0.73,9.76
1.3893117,0,0,0.0294,0,0,65.6875,2.24599174522607,4.91077156161599,0.83910150766038,-0.0161753036684368,0.0444363059268754,-0.542025270097052,-0.55,-0.73,9.76
1.4864339,0,0,0.0294,0,0,65.6875,2.24599174522607,4.91077156161599,0.83910150766038,-0.0161753036684368,0.0444363059268754,-0.542025270097052,-0.55,-0.73,9.76
1.5053983,0,0,0.0294,0,0,65.6875,2.24599174522607,4.91077156161599,0.83910150766038,-0.0161753036684368,0.0444363059268754,-0.542025270097052,-0.55,-0.73,9.76
1.5215488,0,0,0.0294,0,0,65.6875,2.24599174522607,4.91077156161599,0.83910150766038,-0.0161753036684368,0.0444363059268754,-0.542025270097052,-0.55,-0.73,9.76
1.6163052,0,0,0.0294,0,0,65.6875,2.24599174522607,4.91077156161599,0.83910150766038,-0.0161753036684368,0.0444363059268754,-0.542025270097052,-0.55,-0.73,9.76
1.6345249,0,0,0.0294,0,0,65.6875,2.24599174522607,4.91077156161599,0.83910150766038,-0.0161753036684368,0.0444363059268754,-0.542025270097052,-0.55,-0.73,9.76
1.6494037,0,0,0.0294,0,0,65.6875,2.24599174522607,4.91077156161599,0.83910150766038,-0.0161753036684368,0.0444363059268754,-0.542025270097052,-0.55,-0.73,9.76
1.6644346,0,0,0.0294,0,0,65.6875,2.24599174522607,4.91077156161599,0.83910150766038,-0.0161753036684368,0.0444363059268754,-0.542025270097052,-0.55,-0.73,9.76
1.7612651,0,0,0.0294,0,0,65.6875,2.24599174522607,4.91077156161599,0.83910150766038,-0.0161753036684368,0.0444363059268754,-0.542025270097052,-0.55,-0.73,9.76
1.7792606,0,0,0.0294,0,0,65.6875,2.24599174522607,4.91077156161599,0.83910150766038,-0.0161753036684368,0.0444363059268754,-0.542025270097052,-0.55,-0.73,9.76
1.7943555,0,0,0.0294,0,0,65.6875,2.24599174522607,4.91077156161599,0.83910150766038,-0.0161753036684368,0.0444363059268754,-0.542025270097052,-0.55,-0.73,9.76
1.8094259,0,0,0.0294,0,0,65.6875,2.24599174522607,4.91077156161599,0.83910150766038,-0.0161753036684368,0.0444363059268754,-0.542025270097052,-0.55,-0.73,9.76
1.910538,0,0,0.0294,0,0,65.6875,2.24599174522607,4.91077156161599,0.83910150766038,-0.0161753036684368,0.0444363059268754,-0.542025270097052,-0.55,-0.73,9.76
1.9284447,0,0,0.0294,0,0,65.6875,2.24599174522607,4.91077156161599,0.83910150766038,-0.0161753036684368,0.0444363059268754,-0.542025270097052,-0.55,-0.73,9.76
1.943732,0,0,0.0294,0,0,65.6875,2.24599174522607,4.91077156161599,0.83910150766038,-0.0161753036684368,0.0444363059268754,-0.542025270097052,-0.55,-0.73,9.76
1.959364,0,0,0.0294,0,0,65.6875,2.24599174522607,4.91077156161599,0.83910150766038,-0.0161753036684368,0.0444363059268754,-0.542025270097052,-0.55,-0.73,9.76
2.0615375,0,0,0.0294,0,0,65.6875,2.24599174522607,4.91077156161599,0.83910150766038,-0.0161753036684368,0.0444363059268754,-0.542025270097052,-0.55,-0.73,9.76
2.0794461,0,0,0.0294,0,0,65.6875,2.24599174522607,4.91077156161599,0.83910150766038,-0.0161753036684368,0.0444363059268754,-0.542025270097052,-0.55,-0.73,9.76
2.0954616,0,0,0.0294,0,0,65.6875,2.24599174522607,4.91077156161599,0.83910150766038,-0.0161753036684368,0.0444363059268754,-0.542025270097052,-0.55,-0.73,9.76
2.192492,0,0,0.0294,0,0,65.6875,2.24599174522607,4.91077156161599,0.83910150766038,-0.0161753036684368,0.0444363059268754,-0.542025270097052,-0.55,-0.73,9.76
2.2105429,0,0,0.0294,0,0,65.6875,2.24599174522607,4.91077156161599,0.83910150766038,-0.0161753036684368,0.0444363059268754,-0.542025270097052,-0.55,-0.73,9.76
2.2254891,0,0,0.0294,0,0,65.6875,2.24599174522607,4.91077156161599,0.83910150766038,-0.0161753036684368,0.0444363059268754,-0.542025270097052,-0.55,-0.73,9.76
2.2404286,0,0,0.0294,0,0,65.6875,2.24599174522607,4.91077156161599,0.83910150766038,-0.0161753036684368,0.0444363059268754,-0.542025270097052,-0.55,-0.73,9.76
2.3374408,0,0,0.0294,0,0,65.6875,2.24599174522607,4.91077156161599,0.83910150766038,-0.0161753036684368,0.0444363059268754,-0.542025270097052,-0.55,-0.73,9.76
2.3553916,0,0,0.0294,0,0,65.6875,2.24599174522607,4.91077156161599,0.83910150766038,-0.0161753036684368,0.0444363059268754,-0.542025270097052,-0.55,-0.73,9.76
2.3703098,0,0,0.0294,0,0,65.6875,2.24599174522607,4.91077156161599,0.83910150766038,-0.0161753036684368,0.0444363059268754,-0.542025270097052,-0.55,-0.73,9.76
2.3854075,0,0,0.0294,0,0,65.6875,2.24599174522607,4.91077156161599,0.83910150766038,-0.0161753036684368,0.0444363059268754,-0.542025270097052,-0.55,-0.73,9.76
2.4874638,0,0,0.0294,0,0,65.6875,2.24599174522607,4.91077156161599,0.83910150766038,-0.0161753036684368,0.0444363059268754,-0.542025270097052,-0.55,-0.73,9.76
2.5063994,0,0,0.0294,0,0,65.6875,2.24599174522607,4.91077156161599,0.83910150766038,-0.0161753036684368,0.0444363059268754,-0.542025270097052,-0.55,-0.73,9.76
2.5224051,0,0,0.0294,0,0,65.6875,2.24599174522607,4.91077156161599,0.83910150766038,-0.0161753036684368,0.0444363059268754,-0.542025270097052,-0.55,-0.73,9.76
2.6205334,0,0,0.0294,0,0,65.6875,2.24599174522607,4.91077156161599,0.83910150766038,-0.0161753036684368,0.0444363059268754,-0.542025270097052,-0.55,-0.73,9.76
2.6384225,0,0,0.0294,0,0,65.6875,2.24599174522607,4.91077156161599,0.83910150766038,-0.0161753036684368,0.0444363059268754,-0.542025270097052,-0.55,-0.73,9.76
2.653422,0,0,0.0294,0,0,65.6875,2.24599174522607,4.91077156161599,0.83910150766038,-0.0161753036684368,0.0444363059268754,-0.542025270097052,-0.55,-0.73,9.76
2.6695627,0,0,0.0294,0,0,65.6875,2.24599174522607,4.91077156161599,0.83910150766038,-0.0161753036684368,0.0444363059268754,-0.542025270097052,-0.55,-0.73,9.76
2.7715375,0,0,0.0294,0,0,65.6875,2.24599174522607,4.91077156161599,0.83910150766038,-0.0161753036684368,0.0444363059268754,-0.542025270097052,-0.55,-0.73,9.76
2.7895343,0,0,0.0294,0,0,65.6875,2.24599174522607,4.91077156161599,0.83910150766038,-0.0161753036684368,0.0444363059268754,-0.542025270097052,-0.55,-0.73,9.76
2.8045006,0,0,0.0294,0,0,65.6875,2.24599174522607,4.91077156161599,0.83910150766038,-0.0161753036684368,0.0444363059268754,-0.542025270097052,-0.55,-0.73,9.76
2.819556,0,0,0.0294,0,0,65.6875,2.24599174522607,4.91077156161599,0.83910150766038,-0.0161753036684368,0.0444363059268754,-0.542025270097052,-0.55,-0.73,9.76
2.9274488,0,0,0.0294,0,0,65.6875,2.24599174522607,4.91077156161599,0.83910150766038,-0.0161753036684368,0.0444363059268754,-0.542025270097052,-0.55,-0.73,9.76
2.9464016,0,0,0.0294,0,0,65.6875,2.24599174522607,4.91077156161599,0.83910150766038,-0.0161753036684368,0.0444363059268754,-0.542025270097052,-0.55,-0.73,9.76
2.9618273,0,0,0.0294,0,0,65.6875,2.24599174522607,4.91077156161599,0.83910150766038,-0.0161753036684368,0.0444363059268754,-0.542025270097052,-0.55,-0.73,9.76
3.0623901,180,0,0.0294,0,0,65.6875,2.24599174522607,4.91077156161599,0.83910150766038,-0.0161753036684368,0.0444363059268754,-0.542025270097052,-0.55,-0.73,9.76
3.0803834,180,0.9,0.0294,0,0,65.6875,2.24599174522607,4.91077156161599,0.83910150766038,-0.0161753036684368,0.0444363059268754,-0.542025270097052,-0.55,-0.73,9.76
3.0953842,180,2.7,0.0294,0,0,65.6875,2.24599174522607,4.91077156161599,0.83910150766038,-0.0161753036684368,0.0444363059268754,-0.542025270097052,-0.55,-0.73,9.76
3.1103818,180,4.95,0.0294,0,0,65.6875,2.24599174522607,4.91077156161599,0.83910150766038,-0.0161753036684368,0.0444363059268754,-0.542025270097052,-0.55,-0.73,9.76
3.2185231,180,42.3,0.6272,0,0,65.6875,2.24599174522607,4.91077156161599,0.83910150766038,-0.0161753036684368,0.0444363059268754,-0.542025270097052,-0.55,-0.73,9.76
3.2384155,180,53.1,0.8428,0,0,65.6875,2.24599174522607,4.91077156161599,0.83910150766038,-0.0161142647866691,0.0444973448086431,-0.542025270097052,-0.56,-0.73,9.76
3.2556189,180,63.9,0.9604,0,0,65.6875,2.24599174522607,4.91077156161599,0.83910150766038,-0.0162363425502045,0.0444973448086431,-0.542025270097052,-0.55,-0.74,9.76
3.3565123,180,132.3,2.3324,0,0,65.6875,2.33070510338071,4.88554960788191,0.83910150766038,-0.0171519257767198,0.0445583836904108,-0.542025270097052,-0.55,-0.75,9.76
3.3765087,180,142.65,2.646,0,0,65.6875,2.38567275932507,4.91529531009219,0.839040468778612,-0.0175791979490936,0.0447415003357138,-0.542025270097052,-0.54,-0.76,9.76
3.3955274,180,151.65,2.793,0,0,65.6875,2.38567275932507,4.91529531009219,0.839040468778612,-0.0176402368308613,0.0447415003357138,-0.542086308978819,-0.54,-0.76,9.76
3.4955084,180,178.2,3.6456,0,0,65.75,2.52535377342406,4.9198190585684,0.838857352133309,-0.0183727034120735,0.0449856558627846,-0.54233046450589,-0.54,-0.78,9.76
3.5134646,180,179.55,3.6848,0,0,65.75,2.44064041526943,4.94504101230248,0.838796313251541,-0.0181285478850027,0.0449246169810169,-0.542391503387658,-0.54,-0.77,9.76
3.5294974,180,180,3.724,0,0,65.75,2.44064041526943,4.94504101230248,0.838796313251541,-0.0179454312396997,0.0449246169810169,-0.542452542269426,-0.54,-0.77,9.76
3.6344219,180,180,3.4986,0,0,65.8125,2.02159737297244,4.93146976687386,0.838613196606238,-0.0144662149789416,0.0446804614539462,-0.542818775560032,-0.58,-0.7,9.76
3.6534556,180,180,3.4594,0,0,65.8125,1.9368840148178,4.95669172060794,0.838613196606238,-0.0133675151071232,0.0446194225721785,-0.542879814441799,-0.59,-0.69,9.76
3.6705479,180,180,3.3908,0,0,65.8125,1.88191635887344,4.92694601839766,0.838613196606238,-0.0126960874076787,0.0445583836904108,-0.542879814441799,-0.6,-0.66,9.76
3.7683978,180,180,3.0772,0,0,65.875,0.959116916124822,4.92502548127451,0.838491118842703,-0.00506622718671794,0.0437648782274309,-0.543246047732406,-0.66,-0.54,9.76
3.787525,180,180,2.989,0,0,65.875,0.679754887926829,4.9159779843221,0.838491118842703,-0.00244155527070744,0.0434596838185924,-0.543307086614173,-0.68,-0.5,9.76
3.8025438,180,180,2.9498,0,0,65.875,0.540073873827833,4.9114542358459,0.838430079960935,-0.00152597204419215,0.0433986449368248,-0.543368125495941,-0.69,-0.48,9.76
3.8175551,180,180,2.9008,0,0,65.875,0.345425203784479,4.87718478515941,0.838430079960935,0.00030519440883843,0.0432155282915217,-0.543368125495941,-0.7,-0.47,9.76
3.9153848,180,180,2.499,0,0,65.875,-0.632341894908496,4.84551854582598,0.8383080021974,0.00988829884636513,0.0421168284197034,-0.543612281023012,-0.78,-0.3,9.77
3.9333784,180,180,2.45,0,0,65.875,-0.856736267162131,4.86621675108385,0.8383080021974,0.0108649209546481,0.041994750656168,-0.543612281023012,-0.8,-0.26,9.76
3.9483678,180,180,2.352,0,0,65.875,-1.13609829536012,4.85716925413145,0.838246963315632,0.0128181651712141,0.0418116340108649,-0.543612281023012,-0.82,-0.23,9.76
3.9634091,180,180,2.3128,0,0,65.875,-1.19106595130448,4.82742355192116,0.838246963315632,0.013794787279497,0.0416895562473295,-0.543673319904779,-0.83,-0.21,9.76
4.0605872,180,180,1.9502,0,0,65.9375,-2.39322742225109,4.81645551784561,0.837941768906794,0.0240493194164683,0.0405908563755112,-0.543795397668315,-0.92,-0.03,9.76
4.0785259,180,180,1.862,0,0,65.9375,-2.61762179450473,4.83715372310348,0.837941768906794,0.0261246413965696,0.0403467008484405,-0.543734358786547,-0.94,0,9.76
4.0967295,180,180,1.8228,0,0,65.9375,-2.67258945044909,4.8074080208932,0.837941768906794,0.0271012635048526,0.0402856619666728,-0.543734358786547,-0.95,0.03,9.75
4.2063776,180,180,1.47,0,0,65.9375,-4.01443193549469,4.79191623834144,0.837575535616187,0.0387596899224806,0.0389428065677837,-0.543734358786547,-1.05,0.22,9.74
4.2264402,180,180,1.4504,0,0,65.9375,-4.23882630774833,4.81261444359931,0.83751449673442,0.0404077397302081,0.0387596899224806,-0.543673319904779,-1.06,0.25,9.74
4.2414132,180,180,1.3916,0,0,65.9375,-4.29379396369268,4.78286874138903,0.837453457852652,0.0412012451931881,0.0386986510407129,-0.543673319904779,-1.08,0.27,9.74
4.3384166,180,180,1.2446,0,0,65.9375,-5.13188004828666,4.7557262505318,0.837209302325581,0.0482817554782396,0.0378441066959653,-0.543490203259476,-1.14,0.39,9.73
4.3574097,180,180,1.225,0,0,65.9375,-5.18684770423102,4.72598054832152,0.837209302325581,0.0487700665323811,0.0377830678141976,-0.543490203259476,-1.14,0.4,9.73
4.373475,180,180,1.2152,0,0,65.9375,-5.32652871833002,4.72145679984532,0.837148263443814,0.0501129219312702,0.0375999511688946,-0.543429164377709,-1.15,0.42,9.72
4.4705686,180,180,1.2152,0,0,65.9375,-5.60589074652801,4.71240930289291,0.837148263443814,0.0524323994384423,0.0372947567600562,-0.543246047732406,-1.17,0.46,9.72
4.4896043,180,180,1.2348,0,0,65.9375,-5.60589074652801,4.71240930289291,0.837148263443814,0.05249343832021,0.0372337178782885,-0.543246047732406,-1.17,0.46,9.72
4.504679,180,180,1.2446,0,0,65.9375,-5.60589074652801,4.71240930289291,0.837209302325581,0.0524323994384423,0.0372947567600562,-0.543246047732406,-1.17,0.46,9.72
4.6084686,180,180,1.4112,0,0,65.875,-5.32652871833002,4.72145679984532,0.837453457852652,0.0498077275224318,0.0374168345235915,-0.54312396996887,-1.14,0.41,9.73
4.6274065,180,180,1.47,0,0,65.875,-5.18684770423102,4.72598054832152,0.83751449673442,0.0488311054141488,0.0375389122871269,-0.543062931087102,-1.13,0.4,9.73
4.6423885,180,180,1.4994,0,0,65.875,-5.18684770423102,4.72598054832152,0.83751449673442,0.0483427943600073,0.0375999511688946,-0.543062931087102,-1.13,0.39,9.73
4.6574564,180,180,1.5288,0,0,65.875,-5.04716669013202,4.73050429679773,0.837575535616187,0.047244094488189,0.03772202893243,-0.543062931087102,-1.12,0.37,9.73
4.764505,180,180,1.8816,0,0,65.875,-4.20908060553805,4.75764678765495,0.838002807788561,0.0401635842031374,0.0383934566318745,-0.542940853323567,-1.05,0.25,9.74
4.7825256,180,180,1.9306,0,0,65.8125,-3.98468623328441,4.73694858239708,0.838063846670329,0.0385155343954099,0.0385155343954099,-0.542940853323567,-1.03,0.2,9.74
4.7975263,180,180,1.9698,0,0,65.8125,-3.84500521918541,4.74147233087328,0.838185924433864,0.0368674845876824,0.0386986510407129,-0.542940853323567,-1.02,0.19,9.75
4.8985846,180,180,2.3618,0,0,65.8125,-2.7825247623378,4.74791661647264,0.83855215772447,0.0276506134407618,0.0396142342672282,-0.542818775560032,-0.94,0.03,9.76
4.9176767,180,180,2.45,0,0,65.8125,-2.55813039008417,4.72721841121476,0.838613196606238,0.0256973692241958,0.0397973509125313,-0.542757736678264,-0.92,0,9.76
4.9324998,180,180,2.499,0,0,65.8125,-2.50316273413981,4.75696411342505,0.838674235488006,0.0236830861258622,0.0399804675578343,-0.542696697796496,-0.91,-0.03,9.76
5.0395771,180,180,2.8812,0,0,65.75,-1.1613202490942,4.77245589597681,0.838979429896844,0.0130623206982848,0.0411402063114204,-0.542574620032961,-0.81,-0.22,9.77
5.057503,180,180,2.9694,0,0,65.75,-0.881958220896208,4.78150339292922,0.839040468778612,0.0108649209546481,0.0413843618384911,-0.542513581151193,-0.79,-0.26,9.77
5.074837,180,180,2.9988,0,0,65.75,-0.602596192698215,4.79055088988162,0.839040468778612,0.00866752121101141,0.0415064396020265,-0.542513581151193,-0.77,-0.29,9.77
5.1894007,180,180,3.3516,0,0,65.6875,0.739246292347391,4.80604267243339,0.839162546542147,-0.0030519440883843,0.0427882561191479,-0.54233046450589,-0.66,-0.52,9.77
5.2075233,180,180,3.4104,0,0,65.6875,0.933894962390746,4.84031212311987,0.839162546542147,-0.00506622718671794,0.042971372764451,-0.542269425624123,-0.65,-0.54,9.76
5.2244154,180,180,3.4398,0,0,65.6875,1.15828933464438,4.819613917862,0.839162546542147,-0.00701947140328389,0.0430934505279863,-0.542269425624123,-0.63,-0.57,9.76
5.3395149,180,180,3.6554,0,0,65.6875,2.27573744743635,4.85580390567163,0.839040468778612,-0.0172740035402551,0.0441921503998047,-0.542147347860587,-0.54,-0.75,9.76
5.3575451,180,180,3.675,0,0,65.6875,2.36045080559099,4.83058195193756,0.839040468778612,-0.0172740035402551,0.0441921503998047,-0.542147347860587,-0.53,-0.77,9.76
5.373524,180,180,3.6946,0,0,65.6875,2.55509947563435,4.86485140262404,0.838979429896844,-0.0191662088750534,0.0443752670451077,-0.542147347860587,-0.52,-0.78,9.76
5.3907307,180,180,3.7142,0,0,65.6875,2.63981283378898,4.83962944888996,0.838979429896844,-0.0203259476286394,0.0444973448086431,-0.542086308978819,-0.51,-0.8,9.75
5.4907506,180,180,3.7534,0,0,65.6875,3.11382353203033,4.88294639652886,0.838796313251541,-0.0244155527070744,0.0450466947445523,-0.542147347860587,-0.48,-0.87,9.75
5.5118107,180,180,3.7534,0,0,65.75,3.19853689018497,4.85772444279478,0.838796313251541,-0.0247817859976805,0.0451687725080877,-0.542147347860587,-0.47,-0.88,9.75
5.5376212,180,180,3.7338,0,0,65.75,3.25350454612933,4.88747014500506,0.838735274369774,-0.0250259415247513,0.045290850271623,-0.542147347860587,-0.47,-0.89,9.75
5.6595535,180,180,3.626,0,0,65.75,3.16879118797469,4.91269209873914,0.838613196606238,-0.0239272416529329,0.045290850271623,-0.542391503387658,-0.49,-0.87,9.75
5.6775155,180,180,3.5868,0,0,65.75,3.08407782982005,4.93791405247322,0.838613196606238,-0.0229506195446499,0.0453518891533907,-0.542452542269426,-0.5,-0.86,9.75
5.6946791,180,180,3.5672,0,0,65.75,3.02911017387569,4.90816835026293,0.838613196606238,-0.0225843862540438,0.045290850271623,-0.542513581151193,-0.5,-0.85,9.75
5.7945585,180,180,3.3222,0,0,65.8125,2.44064041526943,4.94504101230248,0.83855215772447,-0.0171519257767198,0.0449246169810169,-0.542818775560032,-0.55,-0.76,9.76
5.8124315,180,180,3.2928,0,0,65.8125,2.30095940117043,4.94051726382627,0.83855215772447,-0.0165415369590429,0.0448635780992492,-0.542818775560032,-0.56,-0.74,9.76
5.8274307,180,180,3.234,0,0,65.8125,2.16127838707143,4.93599351535007,0.83855215772447,-0.0144662149789416,0.0446804614539462,-0.542940853323567,-0.58,-0.71,9.76
5.8424956,180,180,3.1948,0,0,65.8125,2.02159737297244,4.93146976687386,0.83855215772447,-0.0144662149789416,0.0446804614539462,-0.542940853323567,-0.58,-0.7,9.76
5.9454609,180,180,2.8616,0,0,65.875,1.01408457206918,4.95477118348479,0.838430079960935,-0.0056766160043948,0.0440090337545016,-0.543307086614173,-0.66,-0.56,9.76
5.9634699,180,180,2.8224,0,0,65.875,0.959116916124822,4.92502548127451,0.838430079960935,-0.0048220716596472,0.0439479948727339,-0.543307086614173,-0.67,-0.54,9.76
5.9805688,180,180,2.744,0,0,65.875,0.650009185716548,4.97094564026646,0.838369041079167,-0.00225843862540438,0.0437038393456632,-0.543429164377709,-0.69,-0.5,9.76
6.07858,180,180,2.401,0,0,65.875,-0.327757912976427,4.93927940093303,0.8383080021974,0.00622596594030397,0.0429103338826833,-0.543612281023012,-0.78,-0.33,9.76
6.097679,180,180,2.3226,0,0,65.875,-0.522406583019781,4.90500995024654,0.838246963315632,0.00817921015686993,0.0427272172373802,-0.543673319904779,-0.78,-0.32,9.76
6.1146401,180,180,2.2834,0,0,65.875,-0.662087597118777,4.90048620177034,0.838246963315632,0.00909479338338522,0.0426051394738448,-0.543673319904779,-0.79,-0.3,9.76
6.2116059,180,180,1.911,0,0,65.9375,-1.86424906806539,4.88951816769478,0.837941768906794,0.0203259476286394,0.0415064396020265,-0.543856436550082,-0.88,-0.12,9.76
6.2306486,180,180,1.8718,0,0,65.9375,-2.05889773810874,4.8552487170083,0.837941768906794,0.0213025697369224,0.0413843618384911,-0.543856436550082,-0.91,-0.07,9.76
6.2486554,180,180,1.8032,0,0,65.9375,-2.28329211036238,4.87594692226617,0.837880730025026,0.0233168528352561,0.0412622840749557,-0.54391747543185,-0.92,-0.05,9.76
6.3625557,180,180,1.4994,0,0,65.9375,-3.57016693946363,4.89020084192469,0.837575535616187,0.034792162607581,0.0399804675578343,-0.543856436550082,-1.02,0.14,9.75
6.3805704,180,180,1.4798,0,0,65.9375,-3.76481560950698,4.8559313912382,0.83751449673442,0.0364402124153086,0.0397973509125313,-0.543795397668315,-1.04,0.17,9.74
6.3966,180,180,1.4308,0,0,65.9375,-3.84952896766162,4.88115334497228,0.83751449673442,0.0372947567600562,0.0397363120307636,-0.543795397668315,-1.05,0.18,9.74
6.4125207,180,180,1.4112,0,0,65.9375,-4.04417763770497,4.84688389428579,0.837453457852652,0.038881767686016,0.0396142342672282,-0.543795397668315,-1.06,0.21,9.74
6.5074875,180,180,1.3034,0,0,65.9375,-4.6876150522556,4.85401085411505,0.837331380089117,0.0443752670451077,0.0390038454495514,-0.543612281023012,-1.11,0.32,9.73
6.5266532,180,180,1.2936,0,0,65.9375,-4.82729606635459,4.84948710563885,0.837331380089117,0.045290850271623,0.038881767686016,-0.543551242141244,-1.12,0.32,9.73
6.5458079,180,180,1.2838,0,0,65.9375,-4.88226372229895,4.81974140342857,0.837270341207349,0.0460843557346029,0.0388207288042483,-0.543551242141244,-1.12,0.34,9.73
6.6536001,180,180,1.3328,0,0,65.9375,-5.07691239234231,4.78547195274208,0.837331380089117,0.0477324055423305,0.0385155343954099,-0.543368125495941,-1.14,0.37,9.73
6.6725185,180,180,1.3426,0,0,65.9375,-5.02194473639795,4.81521765495236,0.837331380089117,0.0475492888970274,0.0385765732771776,-0.543307086614173,-1.13,0.37,9.73
6.6919081,180,180,1.372,0,0,65.9375,-5.02194473639795,4.81521765495236,0.837392418970884,0.047244094488189,0.0385155343954099,-0.543307086614173,-1.13,0.36,9.73
6.8145781,180,180,1.617,0,0,65.875,-4.46322068000196,4.83331264885718,0.837697613379723,0.0426661783556125,0.0388207288042483,-0.54312396996887,-1.09,0.28,9.74
6.8325717,180,180,1.6758,0,0,65.875,-4.37850732184732,4.8080906951231,0.837819691143258,0.0414454007202588,0.0389428065677837,-0.54312396996887,-1.08,0.26,9.74
6.8496372,180,180,1.7052,0,0,65.875,-4.23882630774833,4.81261444359931,0.837880730025026,0.0402246230849051,0.0390038454495514,-0.54312396996887,-1.06,0.24,9.74
6.9507077,180,180,2.0384,0,0,65.8125,-3.37099452094407,4.78478927851218,0.838246963315632,0.0328389183910151,0.0396752731489959,-0.542940853323567,-1,0.11,9.75
6.9706323,180,180,2.1168,0,0,65.8125,-3.17634585090071,4.81905872919866,0.8383080021974,0.0311908685832876,0.0397973509125313,-0.542940853323567,-0.98,0.08,9.75
6.9866478,180,180,2.156,0,0,65.8125,-3.09163249274607,4.79383677546459,0.838430079960935,0.0294817798937923,0.0399194286760667,-0.542879814441799,-0.97,0.06,9.75
7.0834681,180,180,2.4794,0,0,65.8125,-2.1138653940531,4.82550301479802,0.838735274369774,0.0216077641457608,0.0405908563755112,-0.542757736678264,-0.89,-0.07,9.76
7.1026408,180,180,2.5578,0,0,65.75,-1.88947102179946,4.80480480954014,0.838796313251541,0.0197765976927303,0.0407739730208143,-0.542696697796496,-0.88,-0.1,9.76
7.1217464,180,180,2.646,0,0,65.75,-1.66507664954583,4.78410660428227,0.838857352133309,0.0178233534761643,0.0408960507843496,-0.542635658914729,-0.86,-0.14,9.76
7.2215408,180,180,2.9498,0,0,65.75,-0.547628536753858,4.8202965920919,0.839040468778612,0.00805713239333455,0.0416895562473295,-0.542513581151193,-0.77,-0.31,9.77
7.243878,180,180,3.0184,0,0,65.75,-0.323234164500223,4.79959838683403,0.83910150766038,0.00616492705853629,0.0418116340108649,-0.542452542269426,-0.75,-0.34,9.77
7.2727671,180,180,3.1164,0,0,65.75,-0.0141264340919487,4.75367822784208,0.83910150766038,0.00335713849722273,0.0419337117744003,-0.542391503387658,-0.72,-0.39,9.77
7.3818082,180,180,3.381,0,0,65.6875,1.15828933464438,4.819613917862,0.839162546542147,-0.00683635475798083,0.0427882561191479,-0.542269425624123,-0.63,-0.56,9.76
7.3996609,180,180,3.4006,0,0,65.6875,1.24300269279902,4.79439196412792,0.839162546542147,-0.00762986022096075,0.0428492950009156,-0.542269425624123,-0.61,-0.59,9.76
7.4166986,180,180,3.4496,0,0,65.6875,1.52236472099701,4.80343946108033,0.839162546542147,-0.0100714154916682,0.0430934505279863,-0.542208386742355,-0.6,-0.62,9.76
7.5226345,180,180,3.5966,0,0,65.6875,2.30548314964663,4.80083624972727,0.839040468778612,-0.0168467313678813,0.0437648782274309,-0.542147347860587,-0.54,-0.74,9.76
7.5496533,180,180,3.6162,0,0,65.6875,2.44516416374563,4.80535999820348,0.839040468778612,-0.0178233534761643,0.0438869559909662,-0.542147347860587,-0.53,-0.76,9.76
7.5680037,180,180,3.626,0,0,65.6875,2.58484517784463,4.80988374667968,0.838979429896844,-0.0192272477568211,0.0440700726362693,-0.542147347860587,-0.52,-0.78,9.76
7.6727413,180,180,3.6358,0,0,65.75,2.86420720604262,4.81893124363209,0.838857352133309,-0.0218519196728316,0.04431422816334,-0.542208386742355,-0.49,-0.83,9.75
7.6940353,180,180,3.626,0,0,65.75,2.91917486198698,4.84867694584237,0.838857352133309,-0.0219129585545993,0.0443752670451077,-0.542208386742355,-0.49,-0.83,9.75
7.7188073,180,180,3.6162,0,0,65.75,2.91917486198698,4.84867694584237,0.838796313251541,-0.02215711408167,0.0443752670451077,-0.542269425624123,-0.49,-0.83,9.75
7.820572,180,180,3.479,0,0,65.75,2.72452619194362,4.81440749515589,0.838735274369774,-0.0202038698651041,0.044131111518037,-0.542452542269426,-0.51,-0.8,9.76
7.8406844,180,180,3.4692,0,0,65.75,2.63981283378898,4.83962944888996,0.838735274369774,-0.0195324421656595,0.044131111518037,-0.542513581151193,-0.51,-0.79,9.76
7.857612,180,180,3.4202,0,0,65.75,2.58484517784463,4.80988374667968,0.838735274369774,-0.0191662088750534,0.0440700726362693,-0.542513581151193,-0.52,-0.78,9.76
7.960574,180,180,3.185,0,0,65.8125,1.88644010734964,4.78726500429866,0.838674235488006,-0.0132454373435879,0.0435817615821278,-0.542818775560032,-0.57,-0.68,9.76
7.9807088,180,180,3.1556,0,0,65.8125,1.74675909325065,4.78274125582246,0.838674235488006,-0.0119636208264665,0.0434596838185924,-0.542879814441799,-0.58,-0.65,9.76
7.9967386,180,180,3.087,0,0,65.8125,1.66204573509601,4.80796320955653,0.838613196606238,-0.0105597265458097,0.0433376060550571,-0.543001892205335,-0.6,-0.63,9.76
8.1076965,180,180,2.7734,0,0,65.875,0.739246292347391,4.80604267243339,0.838491118842703,-0.00225843862540438,0.0427882561191479,-0.543307086614173,-0.67,-0.49,9.77
8.128575,180,180,2.695,0,0,65.875,0.459884264149399,4.79699517548098,0.838491118842703,-0.000671427699444546,0.0426661783556125,-0.543368125495941,-0.69,-0.46,9.77
8.1436553,180,180,2.6558,0,0,65.875,0.37517090599476,4.82221712921505,0.838491118842703,0.000183116645303058,0.0425441005920772,-0.543429164377709,-0.7,-0.43,9.77
8.2537054,180,180,2.2736,0,0,65.875,-0.742277206797211,4.78602714140542,0.838246963315632,0.00982725996459745,0.0416895562473295,-0.543673319904779,-0.79,-0.26,9.77
8.2746387,180,180,2.2344,0,0,65.9375,-0.966671579050847,4.80672534666329,0.838185924433864,0.012635048525911,0.0414454007202588,-0.543734358786547,-0.81,-0.23,9.76
8.2906508,180,180,2.156,0,0,65.9375,-1.19106595130448,4.82742355192116,0.838185924433864,0.013611670634194,0.0413233229567234,-0.543734358786547,-0.82,-0.21,9.76
8.4286169,180,180,1.7444,0,0,65.9375,-2.53290843635009,4.8119317693694,0.837880730025026,0.026429835805408,0.0402856619666728,-0.543856436550082,-0.94,0,9.76
8.4486387,180,180,1.715,0,0,65.9375,-2.81227046454808,4.80288427241699,0.837819691143258,0.0281999633766709,0.0401025453213697,-0.543856436550082,-0.95,0.03,9.75
8.4656736,180,180,1.6562,0,0,65.9375,-3.03666483680172,4.82358247767487,0.837758652261491,0.0298480131843985,0.0399194286760667,-0.543856436550082,-0.97,0.06,9.75
8.577591,180,180,1.4602,0,0,65.9375,-3.95946427955033,4.82166194055172,0.837575535616187,0.0380272233412684,0.0392480009766221,-0.543734358786547,-1.04,0.2,9.74
8.5965937,180,180,1.4308,0,0,65.9375,-4.01443193549469,4.79191623834144,0.83751449673442,0.0391869620948544,0.0391259232130867,-0.543734358786547,-1.06,0.22,9.74
8.6137304,180,180,1.421,0,0,65.9375,-4.15411294959369,4.78739248986523,0.83751449673442,0.0402246230849051,0.039064884331319,-0.543673319904779,-1.07,0.24,9.74
8.7407641,180,180,1.372,0,0,65.9375,-4.6876150522556,4.85401085411505,0.837453457852652,0.04431422816334,0.038881767686016,-0.543490203259476,-1.11,0.31,9.73
8.7616878,180,180,1.3818,0,0,65.9375,-4.6876150522556,4.85401085411505,0.837453457852652,0.0444973448086431,0.0389428065677837,-0.543429164377709,-1.11,0.31,9.73
8.7778299,180,180,1.3916,0,0,65.9375,-4.6876150522556,4.85401085411505,0.837453457852652,0.0446194225721785,0.0389428065677837,-0.543429164377709,-1.11,0.31,9.73
8.8966791,180,180,1.5582,0,0,65.875,-4.49296638221224,4.88828030480154,0.837636574497955,0.0428492950009156,0.0391869620948544,-0.543246047732406,-1.09,0.28,9.74
8.9166576,180,180,1.5778,0,0,65.875,-4.4082530240576,4.86305835106746,0.837697613379723,0.0417505951290972,0.0393700787401575,-0.543185008850638,-1.09,0.26,9.74
8.9336412,180,180,1.6268,0,0,65.875,-4.32353966590297,4.83783639733339,0.837758652261491,0.0413233229567234,0.0393700787401575,-0.543185008850638,-1.08,0.25,9.74
9.0587966,180,180,1.9698,0,0,65.875,-3.51519928351927,4.91994654413497,0.838124885552097,0.0343648904352072,0.0401025453213697,-0.543062931087102,-1.02,0.13,9.75
9.0787879,180,180,1.9992,0,0,65.8125,-3.29080491126563,4.8992483388771,0.838246963315632,0.0322285295733382,0.0402856619666728,-0.543001892205335,-1,0.1,9.75
9.0946299,180,180,2.0776,0,0,65.8125,-3.20609155311099,4.87402638514302,0.838246963315632,0.031496062992126,0.0403467008484405,-0.543001892205335,-0.99,0.08,9.75
9.2056441,180,180,2.4108,0,0,65.8125,-2.28329211036238,4.87594692226617,0.838613196606238,0.0230116584264176,0.0411402063114204,-0.542818775560032,-0.92,-0.05,9.76
9.224655,180,180,2.4892,0,0,65.8125,-2.00393008216438,4.88499441921858,0.838735274369774,0.0204480253921748,0.0413233229567234,-0.542757736678264,-0.89,-0.1,9.76
9.2426687,180,180,2.5186,0,0,65.75,-1.86424906806539,4.88951816769478,0.838735274369774,0.0195934810474272,0.0413843618384911,-0.542696697796496,-0.88,-0.11,9.76
9.3896861,180,180,2.9792,0,0,65.75,-0.437693224865142,4.87978799651247,0.839040468778612,0.00640908258560703,0.0425441005920772,-0.542452542269426,-0.76,-0.34,9.77
9.4097385,180,180,3.0478,0,0,65.75,-0.158331196667149,4.88883549346488,0.839040468778612,0.00476103277787951,0.0426661783556125,-0.542452542269426,-0.74,-0.38,9.77
9.4267319,180,180,3.0772,0,0,65.75,0.0110955196421285,4.83839158599672,0.83910150766038,0.0030519440883843,0.0427882561191479,-0.542391503387658,-0.73,-0.4,9.77
9.5417139,180,180,3.332,0,0,65.6875,1.04383027427946,4.89980352754043,0.83910150766038,-0.00598181041323323,0.0435817615821278,-0.542269425624123,-0.64,-0.57,9.76
9.5616793,180,180,3.3712,0,0,65.6875,1.21325699058874,4.84935962007228,0.83910150766038,-0.00811817127510224,0.0437648782274309,-0.542269425624123,-0.63,-0.59,9.76
9.5776545,180,180,3.3908,0,0,65.6875,1.40790566063209,4.88362907075876,0.83910150766038,-0.00878959897454679,0.0438259171091986,-0.542269425624123,-0.62,-0.61,9.76
9.6897046,180,180,3.528,0,0,65.6875,2.10631073112708,4.90624781313979,0.839040468778612,-0.0149545260330831,0.04431422816334,-0.542208386742355,-0.56,-0.72,9.76
9.7107462,180,180,3.5378,0,0,65.6875,2.19102408928171,4.88102585940571,0.838979429896844,-0.0162363425502045,0.0444363059268754,-0.542208386742355,-0.55,-0.73,9.76
9.7276406,180,180,3.5476,0,0,65.6875,2.27573744743635,4.85580390567163,0.838979429896844,-0.0166636147225783,0.0444973448086431,-0.542208386742355,-0.55,-0.75,9.76
9.8606524,180,180,3.528,0,0,65.75,2.55509947563435,4.86485140262404,0.838857352133309,-0.0187999755844473,0.0444973448086431,-0.54233046450589,-0.53,-0.78,9.76
9.88065,180,180,3.5084,0,0,65.75,2.55509947563435,4.86485140262404,0.838857352133309,-0.0187389367026796,0.0444973448086431,-0.54233046450589,-0.53,-0.77,9.76
9.8977663,180,180,3.4888,0,0,65.75,2.55509947563435,4.86485140262404,0.838857352133309,-0.0186168589391442,0.0444973448086431,-0.54233046450589,-0.53,-0.77,9.76
10.0167659,180,180,3.3124,0,0,65.75,2.13605643333736,4.85128015719543,0.838735274369774,-0.0150766037966184,0.0440700726362693,-0.542635658914729,-0.56,-0.71,9.76
10.035727,180,180,3.2928,0,0,65.75,2.05134307518272,4.8765021109295,0.838735274369774,-0.0141610205701032,0.0439479948727339,-0.542635658914729,-0.57,-0.7,9.76
10.0517116,180,180,3.2438,0,0,65.75,1.941407763294,4.81701070650894,0.838735274369774,-0.0136727095159617,0.0438869559909662,-0.542696697796496,-0.58,-0.68,9.76
10.1517841,180,180,3.0184,0,0,65.8125,1.29797034874338,4.8241376663382,0.838674235488006,-0.0078740157480315,0.0432765671732894,-0.542940853323567,-0.63,-0.57,9.76
10.1729737,180,180,2.9596,0,0,65.8125,1.07357597648974,4.84483587159608,0.838674235488006,-0.00585973264969786,0.0430934505279863,-0.543062931087102,-0.64,-0.55,9.76
10.1917953,180,180,2.891,0,0,65.8125,0.933894962390746,4.84031212311987,0.838613196606238,-0.00518830495025331,0.0430324116462186,-0.543062931087102,-0.65,-0.54,9.76
10.2896727,180,180,2.6264,0,0,65.875,0.150776533741125,4.84291533447293,0.838491118842703,0.00213636086186901,0.0423609839467741,-0.543368125495941,-0.71,-0.41,9.77
10.312177,180,180,2.548,0,0,65.875,0.0408412218524092,4.78342393005236,0.838430079960935,0.00451687725080877,0.0420557895379357,-0.543429164377709,-0.73,-0.37,9.77
10.3288809,180,180,2.4794,0,0,65.875,-0.238520806345584,4.77437643309996,0.838430079960935,0.00531038271378868,0.0419337117744003,-0.543490203259476,-0.74,-0.35,9.77
10.4257056,180,180,2.1854,0,0,65.875,-1.1613202490942,4.77245589597681,0.838246963315632,0.0134285539888909,0.0412012451931881,-0.543673319904779,-0.81,-0.21,9.76
10.4447333,180,180,2.1168,0,0,65.9375,-1.38571462134784,4.79315410123468,0.838185924433864,0.0151376426783861,0.041018128547885,-0.543673319904779,-0.83,-0.18,9.76
10.462624,180,180,2.0874,0,0,65.9375,-1.44068227729219,4.7634083990244,0.838185924433864,0.015931148141366,0.0408960507843496,-0.543734358786547,-0.84,-0.15,9.76
10.5587158,180,180,1.8326,0,0,65.9375,-2.44819507819545,4.78670981563533,0.838002807788561,0.024293474943539,0.0401635842031374,-0.543795397668315,-0.91,-0.02,9.76
10.5767776,180,180,1.7738,0,0,65.9375,-2.58787609229445,4.78218606715912,0.837941768906794,0.0259415247512666,0.0399804675578343,-0.543795397668315,-0.93,0,9.76
10.5917811,180,180,1.7444,0,0,65.9375,-2.67258945044909,4.8074080208932,0.837880730025026,0.0275285356772264,0.039858389794299,-0.543795397668315,-0.94,0.02,9.76
10.6098132,180,180,1.6954,0,0,65.9375,-2.81227046454808,4.80288427241699,0.837880730025026,0.0282610022584386,0.0397973509125313,-0.543795397668315,-0.95,0.04,9.75
10.7048257,180,180,1.5386,0,0,65.9375,-3.65035654914206,4.77574178155977,0.837697613379723,0.0351583958981871,0.0391869620948544,-0.543734358786547,-1.01,0.15,9.75
10.7270198,180,180,1.5092,0,0,65.9375,-3.7350699072967,4.80096373529385,0.837697613379723,0.0362570957700055,0.039064884331319,-0.543673319904779,-1.02,0.17,9.75
10.7492102,180,180,1.4896,0,0,65.9375,-3.8747509213957,4.79643998681764,0.837636574497955,0.0372947567600562,0.0390038454495514,-0.543673319904779,-1.04,0.2,9.74
10.8457754,180,180,1.4504,0,0,65.9375,-4.29379396369268,4.78286874138903,0.837575535616187,0.041018128547885,0.0386986510407129,-0.543490203259476,-1.07,0.26,9.74
10.8648032,180,180,1.4504,0,0,65.9375,-4.34876161963704,4.75312303917875,0.837575535616187,0.0414454007202588,0.0386986510407129,-0.543490203259476,-1.07,0.26,9.74
10.8849627,180,180,1.4504,0,0,65.9375,-4.37850732184732,4.8080906951231,0.837575535616187,0.0416895562473295,0.0387596899224806,-0.543429164377709,-1.08,0.27,9.74
10.9919325,180,180,1.5386,0,0,65.875,-4.29379396369268,4.78286874138903,0.837697613379723,0.0411402063114204,0.038881767686016,-0.543307086614173,-1.07,0.26,9.74
11.0127671,180,180,1.568,0,0,65.875,-4.23882630774833,4.81261444359931,0.837758652261491,0.0406518952572789,0.0389428065677837,-0.543246047732406,-1.07,0.25,9.74
11.0307743,180,180,1.6072,0,0,65.875,-4.18385865180397,4.84236014580959,0.837758652261491,0.0401025453213697,0.039064884331319,-0.543246047732406,-1.06,0.24,9.74
11.1288086,180,180,1.8032,0,0,65.875,-3.7350699072967,4.80096373529385,0.838063846670329,0.0356467069523286,0.0396142342672282,-0.54312396996887,-1.03,0.16,9.75
11.1478986,180,180,1.862,0,0,65.875,-3.62513459540798,4.86045513971441,0.838124885552097,0.0344869681987426,0.0397363120307636,-0.543062931087102,-1.02,0.14,9.75
11.1627159,180,180,1.8914,0,0,65.875,-3.48545358130899,4.86497888819061,0.838124885552097,0.0339376182628334,0.0397973509125313,-0.543062931087102,-1.01,0.13,9.75
11.2610076,180,180,2.1462,0,0,65.8125,-2.70233515265937,4.86237567683756,0.838430079960935,0.0272843801501556,0.0405298174937435,-0.542940853323567,-0.95,0.01,9.75
11.2818989,180,180,2.2148,0,0,65.8125,-2.61762179450473,4.83715372310348,0.838491118842703,0.0258804858694989,0.0407129341390466,-0.542879814441799,-0.94,0,9.76
11.2978315,180,180,2.2834,0,0,65.8125,-2.42297312446137,4.87142317378996,0.83855215772447,0.0244155527070744,0.0408350119025819,-0.542879814441799,-0.93,-0.03,9.76
11.395834,180,180,2.5676,0,0,65.75,-1.72456805396639,4.89404191617099,0.838796313251541,0.0183727034120735,0.0414454007202588,-0.542696697796496,-0.86,-0.16,9.76
11.4159075,180,180,2.6362,0,0,65.75,-1.50017368171276,4.87334371091311,0.838857352133309,0.0160532259049014,0.0416895562473295,-0.542635658914729,-0.84,-0.19,9.76
11.4318292,180,180,2.6656,0,0,65.75,-1.36049266761376,4.87786745938932,0.838857352133309,0.0144051760971739,0.0418726728926326,-0.542635658914729,-0.84,-0.2,9.76
11.5268692,180,180,2.9302,0,0,65.75,-0.437693224865142,4.87978799651247,0.839040468778612,0.00720258804858695,0.0425441005920772,-0.542452542269426,-0.76,-0.34,9.77
11.5458382,180,180,2.989,0,0,65.75,-0.352979866710503,4.85456604277839,0.839040468778612,0.00488311054141488,0.0427272172373802,-0.542452542269426,-0.75,-0.37,9.77
11.5639099,180,180,3.0086,0,0,65.75,-0.0736178385125106,4.8636135397308,0.83910150766038,0.00408960507843496,0.0427272172373802,-0.542452542269426,-0.74,-0.38,9.77
11.6588458,180,180,3.234,0,0,65.6875,0.764468246081468,4.89075603058802,0.83910150766038,-0.00335713849722273,0.0435207227003601,-0.542269425624123,-0.68,-0.51,9.76
11.6788354,180,180,3.2634,0,0,65.6875,0.819435902025826,4.92050173279831,0.83910150766038,-0.00402856619666728,0.0435817615821278,-0.542269425624123,-0.67,-0.53,9.76
11.6968674,180,180,3.2928,0,0,65.6875,0.988862618335103,4.87005782533015,0.83910150766038,-0.00537142159555637,0.0437038393456632,-0.542269425624123,-0.66,-0.55,9.76
11.7937851,180,180,3.4104,0,0,65.6875,1.68726768883009,4.89267656771117,0.839040468778612,-0.0111701153634865,0.0442531892815724,-0.542208386742355,-0.6,-0.65,9.76
11.8137234,180,180,3.43,0,0,65.6875,1.74223534477444,4.92242226992145,0.839040468778612,-0.0120856985900018,0.04431422816334,-0.542208386742355,-0.59,-0.67,9.76
11.833003,180,180,3.4398,0,0,65.6875,1.82694870292908,4.89720031618738,0.839040468778612,-0.0128792040529817,0.0443752670451077,-0.542208386742355,-0.59,-0.68,9.76
11.9467705,180,180,3.4692,0,0,65.75,2.16127838707143,4.93599351535007,0.838918391015077,-0.015748031496063,0.0447415003357138,-0.542269425624123,-0.56,-0.73,9.76
11.9657026,180,180,3.4594,0,0,65.75,2.21624604301579,4.96573921756035,0.838918391015077,-0.0158701092595984,0.0447415003357138,-0.542269425624123,-0.56,-0.73,9.76
11.9849672,180,180,3.4594,0,0,65.75,2.24599174522607,4.91077156161599,0.838918391015077,-0.0159921870231337,0.0446804614539462,-0.54233046450589,-0.56,-0.73,9.76
12.082701,180,180,3.3614,0,0,65.75,2.10631073112708,4.90624781313979,0.838857352133309,-0.01477140938778,0.0444973448086431,-0.542452542269426,-0.57,-0.71,9.76
12.1006934,180,180,3.3516,0,0,65.75,2.02159737297244,4.93146976687386,0.838857352133309,-0.0142830983336385,0.0444363059268754,-0.542513581151193,-0.57,-0.7,9.76
12.1176992,180,180,3.3124,0,0,65.75,1.96662971702808,4.90172406466358,0.838796313251541,-0.0136727095159617,0.0443752670451077,-0.542513581151193,-0.58,-0.69,9.76
12.2137045,180,180,3.1458,0,0,65.75,1.54758667473109,4.88815281923497,0.838796313251541,-0.00988829884636513,0.0439479948727339,-0.542757736678264,-0.61,-0.63,9.76
12.2318722,180,180,3.0968,0,0,65.8125,1.40790566063209,4.88362907075876,0.838735274369774,-0.00885063785631447,0.0438259171091986,-0.542818775560032,-0.62,-0.61,9.76
12.2498938,180,180,3.0674,0,0,65.8125,1.2682246465331,4.87910532228256,0.838735274369774,-0.00781297686626381,0.0437038393456632,-0.542818775560032,-0.63,-0.59,9.76
12.3458513,180,180,2.842,0,0,65.8125,0.569819576038114,4.85648657990154,0.838613196606238,-0.00158701092595984,0.043154489409754,-0.54312396996887,-0.69,-0.48,9.77
12.3638937,180,180,2.7832,0,0,65.8125,0.485106217883475,4.88170853363562,0.838613196606238,-0.00030519440883843,0.0430324116462186,-0.54312396996887,-0.7,-0.46,9.77
12.3798801,180,180,2.7538,0,0,65.8125,0.345425203784479,4.87718478515941,0.838613196606238,0.000366233290606116,0.042971372764451,-0.543185008850638,-0.71,-0.45,9.77
12.3979944,180,180,2.6852,0,0,65.8125,0.205744189685482,4.87266103668321,0.83855215772447,0.00170908868949521,0.0428492950009156,-0.543246047732406,-0.72,-0.42,9.77
12.4958553,180,180,2.4206,0,0,65.875,-0.632341894908496,4.84551854582598,0.838430079960935,0.00891167673808216,0.0419337117744003,-0.543490203259476,-0.78,-0.29,9.77
12.517081,180,180,2.352,0,0,65.875,-0.772022909007493,4.84099479734978,0.838369041079167,0.0104376487822743,0.0418116340108649,-0.543490203259476,-0.79,-0.27,9.77
12.5328335,180,180,2.2834,0,0,65.875,-0.911703923106489,4.83647104887357,0.838369041079167,0.0111701153634865,0.0417505951290972,-0.543551242141244,-0.8,-0.26,9.77
12.629859,180,180,2.0286,0,0,65.875,-1.66507664954583,4.78410660428227,0.838185924433864,0.0187999755844473,0.0407739730208143,-0.543673319904779,-0.87,-0.12,9.76
12.6508485,180,180,1.9698,0,0,65.9375,-1.88947102179946,4.80480480954014,0.838124885552097,0.0195324421656595,0.0407129341390466,-0.543673319904779,-0.87,-0.11,9.76
12.6657838,180,180,1.9404,0,0,65.9375,-2.16883304999746,4.79575731258773,0.838063846670329,0.0217908807910639,0.0405298174937435,-0.543673319904779,-0.89,-0.07,9.76
12.763737,180,180,1.7346,0,0,65.9375,-2.81227046454808,4.80288427241699,0.837941768906794,0.0288713910761155,0.0396752731489959,-0.543734358786547,-0.95,0.05,9.75
12.7818469,180,180,1.6954,0,0,65.9375,-2.95195147864708,4.79836052394079,0.837880730025026,0.0294817798937923,0.0396142342672282,-0.543734358786547,-0.96,0.06,9.75
12.8009857,180,180,1.6758,0,0,65.9375,-3.03666483680172,4.82358247767487,0.837880730025026,0.0301532075932369,0.0395531953854605,-0.543673319904779,-0.97,0.07,9.75
12.9118552,180,180,1.5484,0,0,65.9375,-3.79003756324106,4.77121803308356,0.837697613379723,0.036745406824147,0.0388207288042483,-0.543612281023012,-1.03,0.19,9.75
12.929848,180,180,1.5288,0,0,65.9375,-3.79003756324106,4.77121803308356,0.837697613379723,0.036745406824147,0.0388207288042483,-0.543612281023012,-1.03,0.19,9.75
12.9459489,180,180,1.5288,0,0,65.9375,-3.89997287512977,4.711726628663,0.837697613379723,0.03772202893243,0.0386986510407129,-0.543551242141244,-1.03,0.2,9.74
13.0428521,180,180,1.5288,0,0,65.9375,-4.06939959143905,4.76217053613116,0.837697613379723,0.0393090398583898,0.0386986510407129,-0.543429164377709,-1.05,0.23,9.74
13.0606985,180,180,1.5386,0,0,65.9375,-4.06939959143905,4.76217053613116,0.837697613379723,0.0393700787401575,0.0386986510407129,-0.543429164377709,-1.05,0.23,9.74
13.0778865,180,180,1.5484,0,0,65.9375,-4.06939959143905,4.76217053613116,0.837758652261491,0.0393090398583898,0.0386986510407129,-0.543368125495941,-1.05,0.23,9.74
13.1748156,180,180,1.666,0,0,65.875,-3.92971857734005,4.76669428460736,0.837880730025026,0.0373557956418238,0.038881767686016,-0.543246047732406,-1.03,0.19,9.74
13.1950265,180,180,1.6954,0,0,65.875,-3.84500521918541,4.74147233087328,0.837941768906794,0.0366843679423793,0.0389428065677837,-0.543246047732406,-1.03,0.18,9.75
13.2108728,180,180,1.7444,0,0,65.875,-3.79003756324106,4.77121803308356,0.837941768906794,0.0363181346517732,0.0390038454495514,-0.543246047732406,-1.02,0.18,9.75
13.3068807,180,180,1.9404,0,0,65.875,-3.23131350684507,4.78931302698838,0.838185924433864,0.031496062992126,0.0394921565036929,-0.54312396996887,-0.98,0.09,9.75
13.3258776,180,180,1.9698,0,0,65.875,-3.09163249274607,4.79383677546459,0.838246963315632,0.0303363242385399,0.0396142342672282,-0.543062931087102,-0.97,0.07,9.75
13.3418385,180,180,2.0286,0,0,65.8125,-3.00691913459144,4.76861482173051,0.8383080021974,0.0297869743026308,0.0396142342672282,-0.543062931087102,-0.96,0.06,9.75
13.4418523,180,180,2.2834,0,0,65.8125,-2.30851406409645,4.79123356411153,0.83855215772447,0.0233778917170237,0.0402856619666728,-0.542940853323567,-0.9,-0.05,9.76
13.4600942,180,180,2.352,0,0,65.8125,-2.16883304999746,4.79575731258773,0.838613196606238,0.021973997436367,0.0404687786119758,-0.542879814441799,-0.89,-0.06,9.76
13.4759401,180,180,2.3814,0,0,65.8125,-2.02915203589846,4.80028106106394,0.838674235488006,0.0206311420374779,0.0405908563755112,-0.542879814441799,-0.88,-0.09,9.76
13.579963,180,180,2.6754,0,0,65.75,-1.19106595130448,4.82742355192116,0.838857352133309,0.0134285539888909,0.0413843618384911,-0.542696697796496,-0.82,-0.21,9.76
13.5989616,180,180,2.7342,0,0,65.75,-1.0216392349952,4.77697964445301,0.838918391015077,0.0119636208264665,0.0415064396020265,-0.542635658914729,-0.81,-0.24,9.77
13.6159324,180,180,2.7636,0,0,65.75,-0.82699056495185,4.8112490951395,0.838979429896844,0.010498687664042,0.0416895562473295,-0.542635658914729,-0.79,-0.27,9.77
13.7109304,180,180,3.0086,0,0,65.75,-0.128585494456868,4.83386783752052,0.839040468778612,0.00341817737899042,0.0422999450650064,-0.542452542269426,-0.73,-0.39,9.77
13.7309922,180,180,3.038,0,0,65.75,0.0958088777967667,4.81316963226265,0.83910150766038,0.00268571079777818,0.0423609839467741,-0.542452542269426,-0.71,-0.41,9.77
13.7469277,180,180,3.087,0,0,65.75,0.235489891895763,4.81769338073885,0.83910150766038,0.00128181651712141,0.0424830617103095,-0.542452542269426,-0.71,-0.43,9.77
13.8439098,180,180,3.2438,0,0,65.75,0.878927306446388,4.81056642090959,0.83910150766038,-0.00494414942318257,0.043154489409754,-0.54233046450589,-0.65,-0.54,9.76
13.8628506,180,180,3.2732,0,0,65.75,1.07357597648974,4.84483587159608,0.83910150766038,-0.00604284929500092,0.0432155282915217,-0.54233046450589,-0.64,-0.55,9.76
13.8811054,180,180,3.2928,0,0,65.75,1.1285436324341,4.87458157380636,0.83910150766038,-0.00659219923091009,0.0432765671732894,-0.54233046450589,-0.63,-0.57,9.76
13.977866,180,180,3.3712,0,0,65.75,1.63230003288573,4.86293086550089,0.839040468778612,-0.0109259598364158,0.0437648782274309,-0.54233046450589,-0.6,-0.64,9.76
13.9968939,180,180,3.381,0,0,65.75,1.68726768883009,4.89267656771117,0.839040468778612,-0.0115363486540927,0.0438869559909662,-0.54233046450589,-0.6,-0.65,9.76
14.011894,180,180,3.3908,0,0,65.75,1.77198104698472,4.8674546139771,0.838979429896844,-0.0120246597082341,0.0440090337545016,-0.54233046450589,-0.59,-0.66,9.76
14.1078867,180,180,3.381,0,0,65.75,1.91166206108372,4.8719783624533,0.838918391015077,-0.0134895928706586,0.0440700726362693,-0.542391503387658,-0.58,-0.69,9.76
14.1299451,180,180,3.381,0,0,65.75,1.91166206108372,4.8719783624533,0.838918391015077,-0.0134895928706586,0.0440700726362693,-0.542391503387658,-0.58,-0.69,9.76
14.1459914,180,180,3.3614,0,0,65.75,1.91166206108372,4.8719783624533,0.838918391015077,-0.0134285539888909,0.044131111518037,-0.542452542269426,-0.58,-0.69,9.76
14.2472329,180,180,3.2732,0,0,65.75,1.68726768883009,4.89267656771117,0.838857352133309,-0.011658426417628,0.0440090337545016,-0.542574620032961,-0.59,-0.66,9.76
14.265994,180,180,3.2438,0,0,65.75,1.63230003288573,4.86293086550089,0.838857352133309,-0.0111090764817189,0.0439479948727339,-0.542635658914729,-0.6,-0.65,9.76
14.2829322,180,180,3.2242,0,0,65.75,1.63230003288573,4.86293086550089,0.838796313251541,-0.0107428431911127,0.0439479948727339,-0.542635658914729,-0.6,-0.64,9.76
14.3778056,180,180,3.0282,0,0,65.8125,1.1285436324341,4.87458157380636,0.838735274369774,-0.00647012146737472,0.0435817615821278,-0.542818775560032,-0.64,-0.57,9.76
14.3968471,180,180,3.0086,0,0,65.8125,1.04383027427946,4.89980352754043,0.838735274369774,-0.00598181041323323,0.0435207227003601,-0.542879814441799,-0.65,-0.56,9.76
14.4153345,180,180,2.9596,0,0,65.8125,0.904149260180465,4.89527977906423,0.838735274369774,-0.00439479948727339,0.0434596838185924,-0.542940853323567,-0.66,-0.53,9.76
14.5269819,180,180,2.7048,0,0,65.8125,0.121030831530844,4.89788299041728,0.83855215772447,0.0021973997436367,0.0429103338826833,-0.543185008850638,-0.72,-0.42,9.77
14.5448743,180,180,2.646,0,0,65.8125,0.066063175586486,4.868137288207,0.83855215772447,0.00280778856131356,0.0428492950009156,-0.543246047732406,-0.73,-0.41,9.77
14.5597936,180,180,2.6166,0,0,65.875,-0.0736178385125106,4.8636135397308,0.83855215772447,0.00415064396020265,0.0427272172373802,-0.543246047732406,-0.75,-0.37,9.77
14.580355,180,180,2.548,0,0,65.875,-0.213298852611507,4.85908979125459,0.838491118842703,0.00549349935909174,0.0425441005920772,-0.543307086614173,-0.75,-0.36,9.77
14.6819737,180,180,2.2736,0,0,65.875,-1.05138493720549,4.83194730039737,0.838369041079167,0.0122688152353049,0.0419337117744003,-0.543490203259476,-0.81,-0.24,9.76
14.6999007,180,180,2.2344,0,0,65.875,-1.19106595130448,4.82742355192116,0.8383080021974,0.0136727095159617,0.0417505951290972,-0.543551242141244,-0.83,-0.2,9.76
14.7158402,180,180,2.1756,0,0,65.875,-1.36049266761376,4.87786745938932,0.838246963315632,0.0150766037966184,0.0416285173655619,-0.543551242141244,-0.84,-0.19,9.76
14.8188023,180,180,1.96,0,0,65.9375,-2.1138653940531,4.82550301479802,0.838063846670329,0.021973997436367,0.0408960507843496,-0.543673319904779,-0.9,-0.07,9.76
14.8369172,180,180,1.9012,0,0,65.9375,-2.33825976630673,4.84620122005589,0.838063846670329,0.0233168528352561,0.0407739730208143,-0.543673319904779,-0.91,-0.05,9.76
14.8529447,180,180,1.8816,0,0,65.9375,-2.39322742225109,4.81645551784561,0.838002807788561,0.0246597082341452,0.0405908563755112,-0.543673319904779,-0.93,-0.02,9.76
14.9479281,180,180,1.7052,0,0,65.9375,-3.03666483680172,4.82358247767487,0.837880730025026,0.0300921687114692,0.0401025453213697,-0.543673319904779,-0.97,0.06,9.75
14.9668656,180,180,1.6856,0,0,65.9375,-3.12137819495636,4.84880443140894,0.837819691143258,0.0311298297015199,0.040041506439602,-0.543673319904779,-0.98,0.08,9.75
14.984938,180,180,1.6562,0,0,65.9375,-3.26105920905535,4.84428068293274,0.837819691143258,0.0321064518098028,0.0399194286760667,-0.543612281023012,-0.99,0.1,9.75
15.0949454,180,180,1.5876,0,0,65.9375,-3.7350699072967,4.80096373529385,0.837758652261491,0.0360129402429347,0.0393700787401575,-0.543551242141244,-1.03,0.17,9.75
15.112929,180,180,1.5876,0,0,65.9375,-3.7350699072967,4.80096373529385,0.837758652261491,0.0364402124153086,0.0393700787401575,-0.543551242141244,-1.03,0.17,9.75
15.1289419,180,180,1.5876,0,0,65.9375,-3.81978326545134,4.82618568902792,0.837758652261491,0.0366233290606116,0.0393090398583898,-0.543490203259476,-1.03,0.18,9.75
15.1459808,180,180,1.5876,0,0,65.9375,-3.81978326545134,4.82618568902792,0.837758652261491,0.03692852346945,0.0393090398583898,-0.543490203259476,-1.03,0.18,9.74
15.242006,180,180,1.6464,0,0,65.875,-3.81978326545134,4.82618568902792,0.837819691143258,0.0369895623512177,0.0393700787401575,-0.543368125495941,-1.04,0.18,9.74
15.2609513,180,180,1.6562,0,0,65.875,-3.81978326545134,4.82618568902792,0.837880730025026,0.0366843679423793,0.0393700787401575,-0.543368125495941,-1.03,0.18,9.74
15.276949,180,180,1.6856,0,0,65.875,-3.76481560950698,4.8559313912382,0.837880730025026,0.0365012512970762,0.0393700787401575,-0.543368125495941,-1.03,0.17,9.75
15.3740759,180,180,1.8326,0,0,65.875,-3.40074022315435,4.83975693445653,0.838063846670329,0.0333882683269243,0.0396142342672282,-0.543246047732406,-1,0.12,9.75
15.3938736,180,180,1.8718,0,0,65.875,-3.31602686499971,4.81453498072246,0.838124885552097,0.0325337239821766,0.0397363120307636,-0.543185008850638,-0.99,0.11,9.75
15.4109533,180,180,1.9012,0,0,65.875,-3.17634585090071,4.81905872919866,0.838124885552097,0.0316181407556614,0.0397973509125313,-0.543185008850638,-0.99,0.09,9.75
15.5090802,180,180,2.1364,0,0,65.8125,-2.67258945044909,4.8074080208932,0.838369041079167,0.0261856802783373,0.0402246230849051,-0.543062931087102,-0.93,0,9.76
15.5298901,180,180,2.1658,0,0,65.8125,-2.58787609229445,4.78218606715912,0.838430079960935,0.0255752914606604,0.0402856619666728,-0.543062931087102,-0.93,0,9.76
15.5489519,180,180,2.2246,0,0,65.8125,-2.36348172004081,4.76148786190125,0.838491118842703,0.0237441250076299,0.0404687786119758,-0.543001892205335,-0.91,-0.04,9.76
15.6449765,180,180,2.4696,0,0,65.8125,-1.66507664954583,4.78410660428227,0.838674235488006,0.0180064701214674,0.0408960507843496,-0.542879814441799,-0.85,-0.15,9.76
15.6639973,180,180,2.5284,0,0,65.8125,-1.52539563544683,4.78863035275847,0.838735274369774,0.0166636147225783,0.041018128547885,-0.542818775560032,-0.85,-0.16,9.76
15.6833489,180,180,2.5872,0,0,65.8125,-1.47042797950247,4.81837605496876,0.838796313251541,0.0153817982054569,0.0411402063114204,-0.542818775560032,-0.84,-0.18,9.76
15.7939496,180,180,2.842,0,0,65.75,-0.547628536753858,4.8202965920919,0.838979429896844,0.00799609351156687,0.0417505951290972,-0.542635658914729,-0.77,-0.31,9.77
15.811844,180,180,2.891,0,0,65.75,-0.407947522654861,4.82482034056811,0.838979429896844,0.00671427699444546,0.0418116340108649,-0.542635658914729,-0.75,-0.33,9.77
15.8269692,180,180,2.9204,0,0,65.75,-0.323234164500223,4.79959838683403,0.838979429896844,0.0061038881767686,0.0418726728926326,-0.542574620032961,-0.75,-0.34,9.77
15.9259853,180,180,3.0968,0,0,65.75,0.404916608205041,4.7672494732707,0.839040468778612,-0.000183116645303058,0.0423609839467741,-0.542513581151193,-0.69,-0.45,9.77
15.9439723,180,180,3.136,0,0,65.75,0.514851920093756,4.82674087769126,0.839040468778612,-0.00134285539888909,0.0424830617103095,-0.542452542269426,-0.68,-0.47,9.77
15.961001,180,180,3.1458,0,0,65.75,0.654532934192752,4.83126462616746,0.83910150766038,-0.00244155527070744,0.0425441005920772,-0.542452542269426,-0.67,-0.49,9.77
16.0609001,180,180,3.2732,0,0,65.75,1.24300269279902,4.79439196412792,0.839040468778612,-0.00726362693035464,0.042971372764451,-0.542391503387658,-0.63,-0.57,9.76
16.0810657,180,180,3.2928,0,0,65.75,1.29797034874338,4.8241376663382,0.839040468778612,-0.00799609351156687,0.0430324116462186,-0.542391503387658,-0.62,-0.58,9.76
16.098966,180,180,3.3026,0,0,65.75,1.38268370689802,4.79891571260413,0.839040468778612,-0.00866752121101141,0.0430934505279863,-0.542391503387658,-0.61,-0.6,9.76
