Time (s),Setpoint (deg),Motor Position (deg),Tension 1 (N),Tension 2 (N),Tension 3 (N),Heading (deg),Pitch (deg),Roll (deg),Quaternion W,Quaternion X,Quaternion Y,Quaternion Z,Gravity X,Gravity Y,Gravity Z
0,0,0,0,0,0,0,0,0,0,0,0,0,0,0,0
0.0229742,0,-0.45,0.0196,0,0,66.25,4.48451599041927,5.93441162472522,0.835500213636086,-0.034609045962278,0.0553622657632912,-0.545687603003113,-0.53,-1.15,9.72
0.0574355,0,0,0.0196,0,0,66.25,4.48451599041927,5.93441162472522,0.835500213636086,-0.034609045962278,0.0553622657632912,-0.545687603003113,-0.53,-1.15,9.72
0.1603065,0,0,0.0392,0,0,66.25,4.48451599041927,5.93441162472522,0.835500213636086,-0.034609045962278,0.0553622657632912,-0.545687603003113,-0.53,-1.15,9.72
0.1812821,0,0,0.0392,0,0,66.25,4.48451599041927,5.93441162472522,0.835500213636086,-0.034609045962278,0.0553622657632912,-0.545687603003113,-0.53,-1.15,9.72
0.2006755,0,0,0.0294,0,0,66.25,4.48451599041927,5.93441162472522,0.835500213636086,-0.034609045962278,0.0553622657632912,-0.545687603003113,-0.53,-1.15,9.72
0.3054019,0,0,0.0294,0,0,66.25,4.48451599041927,5.93441162472522,0.835500213636086,-0.034609045962278,0.0553622657632912,-0.545687603003113,-0.53,-1.15,9.72
0.3264629,0,0,0.0294,0,0,66.25,4.48451599041927,5.93441162472522,0.835500213636086,-0.034609045962278,0.0553622657632912,-0.545687603003113,-0.53,-1.15,9.72
0.3423013,0,0,0.0294,0,0,66.25,4.48451599041927,5.93441162472522,0.835500213636086,-0.034609045962278,0.0553622657632912,-0.545687603003113,-0.53,-1.15,9.72
0.3572823,0,0,0.0294,0,0,66.25,4.48451599041927,5.93441162472522,0.835500213636086,-0.034609045962278,0.0553622657632912,-0.545687603003113,-0.53,-1.15,9.72
0.3732499,0,0,0.0294,0,0,66.25,4.48451599041927,5.93441162472522,0.835500213636086,-0.034609045962278,0.0553622657632912,-0.545687603003113,-0.53,-1.15,9.72
0.3892519,0,0,0.0294,0,0,66.25,4.48451599041927,5.93441162472522,0.835500213636086,-0.034609045962278,0.0553622657632912,-0.545687603003113,-0.53,-1.15,9.72
0.4052429,0,0,0.0294,0,0,66.25,4.48451599041927,5.93441162472522,0.835500213636086,-0.034609045962278,0.0553622657632912,-0.545687603003113,-0.53,-1.15,9.72
0.439969,0,0,0.0294,0,0,66.25,4.48451599041927,5.93441162472522,0.835500213636086,-0.034609045962278,0.0553622657632912,-0.545687603003113,-0.53,-1.15,9.72
0.4542697,0,0,0.0294,0,0,66.25,4.48451599041927,5.93441162472522,0.835500213636086,-0.034609045962278,0.0553622657632912,-0.545687603003113,-0.53,-1.15,9.72
0.4691961,0,0,0.0294,0,0,66.25,4.48451599041927,5.93441162472522,0.835500213636086,-0.034609045962278,0.0553622657632912,-0.545687603003113,-0.53,-1.15,9.72
0.4852947,0,0,0.0294,0,0,66.25,4.48451599041927,5.93441162472522,0.835500213636086,-0.034609045962278,0.0553622657632912,-0.545687603003113,-0.53,-1.15,9.72
0.5002139,0,0,0.0294,0,0,66.25,4.48451599041927,5.93441162472522,0.835500213636086,-0.034609045962278,0.0553622657632912,-0.545687603003113,-0.53,-1.15,9.72
0.5152325,0,0,0.0294,0,0,66.25,4.48451599041927,5.93441162472522,0.835500213636086,-0.034609045962278,0.0553622657632912,-0.545687603003113,-0.53,-1.15,9.72
0.5302836,0,0,0.0294,0,0,66.25,4.48451599041927,5.93441162472522,0.835500213636086,-0.034609045962278,0.0553622657632912,-0.545687603003113,-0.53,-1.15,9.72
0.5462534,0,0,0.0294,0,0,66.25,4.48451599041927,5.93441162472522,0.835500213636086,-0.034609045962278,0.0553622657632912,-0.545687603003113,-0.53,-1.15,9.72
0.6503251,0,0,0.0294,0,0,66.25,4.48451599041927,5.93441162472522,0.835500213636086,-0.034609045962278,0.0553622657632912,-0.545687603003113,-0.53,-1.15,9.72
0.669542,0,0,0.0294,0,0,66.25,4.48451599041927,5.93441162472522,0.835500213636086,-0.034609045962278,0.0553622657632912,-0.545687603003113,-0.53,-1.15,9.72
0.6866302,0,0,0.0294,0,0,66.25,4.48451599041927,5.93441162472522,0.835500213636086,-0.034609045962278,0.0553622657632912,-0.545687603003113,-0.53,-1.15,9.72
0.7842574,0,0,0.0196,0,0,66.25,4.48451599041927,5.93441162472522,0.835500213636086,-0.034609045962278,0.0553622657632912,-0.545687603003113,-0.53,-1.15,9.72
0.80237,0,0,0.0196,0,0,66.25,4.48451599041927,5.93441162472522,0.835500213636086,-0.034609045962278,0.0553622657632912,-0.545687603003113,-0.53,-1.15,9.72
0.819282,0,0,0.0196,0,0,66.25,4.48451599041927,5.93441162472522,0.835500213636086,-0.034609045962278,0.0553622657632912,-0.545687603003113,-0.53,-1.15,9.72
0.9172629,0,0,0.0196,0,0,66.25,4.48451599041927,5.93441162472522,0.835500213636086,-0.034609045962278,0.0553622657632912,-0.545687603003113,-0.53,-1.15,9.72
0.9372281,0,0,0.0196,0,0,66.25,4.48451599041927,5.93441162472522,0.835500213636086,-0.034609045962278,0.0553622657632912,-0.545687603003113,-0.53,-1.15,9.72
0.9533745,0,0,0.0196,0,0,66.25,4.48451599041927,5.93441162472522,0.835500213636086,-0.034609045962278,0.0553622657632912,-0.545687603003113,-0.53,-1.15,9.72
1.0543035,0,0,0.0196,0,0,66.25,4.48451599041927,5.93441162472522,0.835500213636086,-0.034609045962278,0.0553622657632912,-0.545687603003113,-0.53,-1.15,9.72
1.0722575,0,0,0.0196,0,0,66.25,4.48451599041927,5.93441162472522,0.835500213636086,-0.034609045962278,0.0553622657632912,-0.545687603003113,-0.53,-1.15,9.72
1.0882303,0,0,0.0196,0,0,66.25,4.48451599041927,5.93441162472522,0.835500213636086,-0.034609045962278,0.0553622657632912,-0.545687603003113,-0.53,-1.15,9.72
1.1912292,0,0,0.0196,0,0,66.25,4.48451599041927,5.93441162472522,0.835500213636086,-0.034609045962278,0.0553622657632912,-0.545687603003113,-0.53,-1.15,9.72
1.2093374,0,0,0.0196,0,0,66.25,4.48451599041927,5.93441162472522,0.835500213636086,-0.034609045962278,0.0553622657632912,-0.545687603003113,-0.53,-1.15,9.72
1.2241883,0,0,0.0196,0,0,66.25,4.48451599041927,5.93441162472522,0.835500213636086,-0.034609045962278,0.0553622657632912,-0.545687603003113,-0.53,-1.15,9.72
1.2437085,0,0,0.0196,0,0,66.25,4.48451599041927,5.93441162472522,0.835500213636086,-0.034609045962278,0.0553622657632912,-0.545687603003113,-0.53,-1.15,9.72
1.3522478,0,0,0.0196,0,0,66.25,4.48451599041927,5.93441162472522,0.835500213636086,-0.034609045962278,0.0553622657632912,-0.545687603003113,-0.53,-1.15,9.72
1.3712415,0,0,0.0196,0,0,66.25,4.48451599041927,5.93441162472522,0.835500213636086,-0.034609045962278,0.0553622657632912,-0.545687603003113,-0.53,-1.15,9.72
1.3883766,0,0,0.0196,0,0,66.25,4.48451599041927,5.93441162472522,0.835500213636086,-0.034609045962278,0.0553622657632912,-0.545687603003113,-0.53,-1.15,9.72
1.4862567,0,0,0.0196,0,0,66.25,4.48451599041927,5.93441162472522,0.835500213636086,-0.034609045962278,0.0553622657632912,-0.545687603003113,-0.53,-1.15,9.72
1.5042273,0,0,0.0294,0,0,66.25,4.48451599041927,5.93441162472522,0.835500213636086,-0.034609045962278,0.0553622657632912,-0.545687603003113,-0.53,-1.15,9.72
1.5202821,0,0,0.0294,0,0,66.25,4.48451599041927,5.93441162472522,0.835500213636086,-0.034609045962278,0.0553622657632912,-0.545687603003113,-0.53,-1.15,9.72
1.5352448,0,0,0.0294,0,0,66.25,4.48451599041927,5.93441162472522,0.835500213636086,-0.034609045962278,0.0553622657632912,-0.545687603003113,-0.53,-1.15,9.72
1.6412666,0,0,0.0294,0,0,66.25,4.48451599041927,5.93441162472522,0.835500213636086,-0.034609045962278,0.0553622657632912,-0.545687603003113,-0.53,-1.15,9.72
1.6592891,0,0,0.0294,0,0,66.25,4.48451599041927,5.93441162472522,0.835500213636086,-0.034609045962278,0.0553622657632912,-0.545687603003113,-0.53,-1.15,9.72
1.6742227,0,0,0.0294,0,0,66.25,4.48451599041927,5.93441162472522,0.835500213636086,-0.034609045962278,0.0553622657632912,-0.545687603003113,-0.53,-1.15,9.72
1.6892082,0,0,0.0294,0,0,66.25,4.48451599041927,5.93441162472522,0.835500213636086,-0.034609045962278,0.0553622657632912,-0.545687603003113,-0.53,-1.15,9.72
1.790332,0,0,0.0294,0,0,66.25,4.48451599041927,5.93441162472522,0.835500213636086,-0.034609045962278,0.0553622657632912,-0.545687603003113,-0.53,-1.15,9.72
1.8082753,0,0,0.0294,0,0,66.25,4.48451599041927,5.93441162472522,0.835500213636086,-0.034609045962278,0.0553622657632912,-0.545687603003113,-0.53,-1.15,9.72
1.8243073,0,0,0.0294,0,0,66.25,4.48451599041927,5.93441162472522,0.835500213636086,-0.034609045962278,0.0553622657632912,-0.545687603003113,-0.53,-1.15,9.72
1.8392807,0,0,0.0294,0,0,66.25,4.48451599041927,5.93441162472522,0.835500213636086,-0.034609045962278,0.0553622657632912,-0.545687603003113,-0.53,-1.15,9.72
1.935394,0,0,0.0294,0,0,66.25,4.48451599041927,5.93441162472522,0.835500213636086,-0.034609045962278,0.0553622657632912,-0.545687603003113,-0.53,-1.15,9.72
1.9548906,0,0,0.0294,0,0,66.25,4.48451599041927,5.93441162472522,0.835500213636086,-0.034609045962278,0.0553622657632912,-0.545687603003113,-0.53,-1.15,9.72
1.9703873,0,0,0.0294,0,0,66.25,4.48451599041927,5.93441162472522,0.835500213636086,-0.034609045962278,0.0553622657632912,-0.545687603003113,-0.53,-1.15,9.72
2.0663337,0,0,0.0294,0,0,66.25,4.48451599041927,5.93441162472522,0.835500213636086,-0.034609045962278,0.0553622657632912,-0.545687603003113,-0.53,-1.15,9.72
2.084403,0,0,0.0294,0,0,66.25,4.48451599041927,5.93441162472522,0.835500213636086,-0.034609045962278,0.0553622657632912,-0.545687603003113,-0.53,-1.15,9.72
2.0993861,0,0,0.0294,0,0,66.25,4.48451599041927,5.93441162472522,0.835500213636086,-0.034609045962278,0.0553622657632912,-0.545687603003113,-0.53,-1.15,9.72
2.1153432,0,0,0.0294,0,0,66.25,4.48451599041927,5.93441162472522,0.835500213636086,-0.034609045962278,0.0553622657632912,-0.545687603003113,-0.53,-1.15,9.72
2.2133401,0,0,0.0294,0,0,66.25,4.48451599041927,5.93441162472522,0.835500213636086,-0.034609045962278,0.0553622657632912,-0.545687603003113,-0.53,-1.15,9.72
2.2324416,0,0,0.0294,0,0,66.25,4.48451599041927,5.93441162472522,0.835500213636086,-0.034609045962278,0.0553622657632912,-0.545687603003113,-0.53,-1.15,9.72
2.2474182,0,0,0.0294,0,0,66.25,4.48451599041927,5.93441162472522,0.835500213636086,-0.034609045962278,0.0553622657632912,-0.545687603003113,-0.53,-1.15,9.72
2.3464321,0,0,0.0294,0,0,66.25,4.48451599041927,5.93441162472522,0.835500213636086,-0.034609045962278,0.0553622657632912,-0.545687603003113,-0.53,-1.15,9.72
2.3632976,0,0,0.0294,0,0,66.25,4.48451599041927,5.93441162472522,0.835500213636086,-0.034609045962278,0.0553622657632912,-0.545687603003113,-0.53,-1.15,9.72
2.379383,0,0,0.0294,0,0,66.25,4.48451599041927,5.93441162472522,0.835500213636086,-0.034609045962278,0.0553622657632912,-0.545687603003113,-0.53,-1.15,9.72
2.3944149,0,0,0.0294,0,0,66.25,4.48451599041927,5.93441162472522,0.835500213636086,-0.034609045962278,0.0553622657632912,-0.545687603003113,-0.53,-1.15,9.72
2.5023248,0,0,0.0294,0,0,66.25,4.48451599041927,5.93441162472522,0.835500213636086,-0.034609045962278,0.0553622657632912,-0.545687603003113,-0.53,-1.15,9.72
2.5224273,0,0,0.0294,0,0,66.25,4.48451599041927,5.93441162472522,0.835500213636086,-0.034609045962278,0.0553622657632912,-0.545687603003113,-0.53,-1.15,9.72
2.5383195,0,0,0.0196,0,0,66.25,4.48451599041927,5.93441162472522,0.835500213636086,-0.034609045962278,0.0553622657632912,-0.545687603003113,-0.53,-1.15,9.72
2.635276,0,0,0.0196,0,0,66.25,4.48451599041927,5.93441162472522,0.835500213636086,-0.034609045962278,0.0553622657632912,-0.545687603003113,-0.53,-1.15,9.72
2.653451,0,0,0.0196,0,0,66.25,4.48451599041927,5.93441162472522,0.835500213636086,-0.034609045962278,0.0553622657632912,-0.545687603003113,-0.53,-1.15,9.72
2.668404,0,0,0.0196,0,0,66.25,4.48451599041927,5.93441162472522,0.835500213636086,-0.034609045962278,0.0553622657632912,-0.545687603003113,-0.53,-1.15,9.72
2.6833176,0,0,0.0196,0,0,66.25,4.48451599041927,5.93441162472522,0.835500213636086,-0.034609045962278,0.0553622657632912,-0.545687603003113,-0.53,-1.15,9.72
2.7803919,0,0,0.0196,0,0,66.25,4.48451599041927,5.93441162472522,0.835500213636086,-0.034609045962278,0.0553622657632912,-0.545687603003113,-0.53,-1.15,9.72
2.7983187,0,0,0.0196,0,0,66.25,4.48451599041927,5.93441162472522,0.835500213636086,-0.034609045962278,0.0553622657632912,-0.545687603003113,-0.53,-1.15,9.72
2.8133928,0,0,0.0196,0,0,66.25,4.48451599041927,5.93441162472522,0.835500213636086,-0.034609045962278,0.0553622657632912,-0.545687603003113,-0.53,-1.15,9.72
2.8297059,0,0,0.0196,0,0,66.25,4.48451599041927,5.93441162472522,0.835500213636086,-0.034609045962278,0.0553622657632912,-0.545687603003113,-0.53,-1.15,9.72
2.9284147,0,0,0.0196,0,0,66.25,4.48451599041927,5.93441162472522,0.835500213636086,-0.034609045962278,0.0553622657632912,-0.545687603003113,-0.53,-1.15,9.72
2.9466934,0,0,0.0196,0,0,66.25,4.48451599041927,5.93441162472522,0.835500213636086,-0.034609045962278,0.0553622657632912,-0.545687603003113,-0.53,-1.15,9.72
2.9673279,0,0,0.0196,0,0,66.25,4.48451599041927,5.93441162472522,0.835500213636086,-0.034609045962278,0.0553622657632912,-0.545687603003113,-0.53,-1.15,9.72
3.0633324,90,0,0.0196,0,0,66.25,4.48451599041927,5.93441162472522,0.835500213636086,-0.034609045962278,0.0553622657632912,-0.545687603003113,-0.53,-1.15,9.72
3.0815527,90,0.9,0.0196,0,0,66.25,4.48451599041927,5.93441162472522,0.835500213636086,-0.034609045962278,0.0553622657632912,-0.545687603003113,-0.53,-1.15,9.72
3.0984731,90,2.7,0.0196,0,0,66.25,4.48451599041927,5.93441162472522,0.835500213636086,-0.034609045962278,0.0553622657632912,-0.545687603003113,-0.53,-1.15,9.72
3.2104166,90,37.35,0.5586,0,0,66.25,4.48451599041927,5.93441162472522,0.835500213636086,-0.034609045962278,0.0553622657632912,-0.545687603003113,-0.53,-1.15,9.72
3.2293453,90,47.7,0.6664,0,0,66.25,4.48451599041927,5.93441162472522,0.835500213636086,-0.034609045962278,0.0553622657632912,-0.545687603003113,-0.53,-1.15,9.72
3.246513,90,55.8,0.8918,0,0,66.25,4.48451599041927,5.93441162472522,0.835500213636086,-0.034609045962278,0.0553622657632912,-0.545687603003113,-0.53,-1.15,9.72
3.3472978,90,86.85,1.7934,0,0,66.25,4.56907818783179,5.90868741883337,0.835439174754319,-0.0352804736617225,0.0554843435268266,-0.545748641884881,-0.53,-1.17,9.72
3.3676078,90,89.55,1.8522,0,0,66.3125,4.62422138948397,5.93810641459371,0.835439174754319,-0.0353415125434902,0.0554233046450589,-0.545809680766648,-0.53,-1.17,9.72
3.3894058,90,90,1.9208,0,0,66.3125,4.62422138948397,5.93810641459371,0.835378135872551,-0.0354025514252579,0.0554843435268266,-0.545809680766648,-0.53,-1.17,9.72
3.4955024,90,90,1.8914,0,0,66.3125,4.53965919207146,5.96383062048556,0.835317096990783,-0.0345480070805103,0.0555453824085943,-0.545992797411951,-0.53,-1.16,9.72
3.5154741,90,90,1.8718,0,0,66.3125,4.48451599041927,5.93441162472522,0.835317096990783,-0.0342428126716719,0.0555453824085943,-0.546053836293719,-0.54,-1.15,9.72
3.5374935,90,90,1.8424,0,0,66.3125,4.48451599041927,5.93441162472522,0.835317096990783,-0.0340596960263688,0.0554843435268266,-0.546053836293719,-0.54,-1.14,9.72
3.63633,90,90,1.7248,0,0,66.3125,4.12054299487735,5.95274625088011,0.835256058109015,-0.0314350241103583,0.0553622657632912,-0.54629799182079,-0.57,-1.1,9.72
3.6555006,90,90,1.6954,0,0,66.375,4.06539979322516,5.92332725511978,0.835256058109015,-0.0307635964109138,0.0553012268815235,-0.54629799182079,-0.57,-1.09,9.72
3.6723282,90,90,1.6758,0,0,66.375,3.98083759581264,5.94905146101163,0.835256058109015,-0.0297259354208631,0.0552401879997558,-0.546420069584325,-0.58,-1.07,9.72
3.7693467,90,90,1.519,0,0,66.375,3.56172139861854,5.93796709140618,0.835256058109015,-0.026246719160105,0.0549349935909174,-0.546603186229628,-0.62,-1.01,9.73
3.7873239,90,90,1.5092,0,0,66.375,3.53230240285821,5.99311029305837,0.835256058109015,-0.0254532136971251,0.0548739547091497,-0.546664225111396,-0.62,-1,9.73
3.8035091,90,90,1.47,0,0,66.375,3.42201599955384,5.9342723015377,0.835256058109015,-0.025086980406519,0.0548739547091497,-0.546664225111396,-0.62,-0.99,9.73
3.8195226,90,90,1.4504,0,0,66.375,3.33745380214132,5.95999650742955,0.835256058109015,-0.024293474943539,0.0547518769456144,-0.546725263993164,-0.64,-0.97,9.73
3.9163338,90,90,1.3132,0,0,66.4375,2.91833760494721,5.94891213782411,0.835195019227248,-0.0204480253921748,0.0544466825367759,-0.546969419520234,-0.67,-0.91,9.74
3.9355058,90,90,1.2838,0,0,66.4375,2.83377540753469,5.97463634371596,0.835195019227248,-0.0200817921015687,0.0543856436550082,-0.546969419520234,-0.67,-0.9,9.74
3.951472,90,90,1.274,0,0,66.4375,2.77863220588251,5.94521734795562,0.835195019227248,-0.0193493255203565,0.0543246047732406,-0.547030458402002,-0.68,-0.9,9.74
4.0484659,90,90,1.1466,0,0,66.4375,2.41465921034058,5.96355197411051,0.835195019227248,-0.0161142647866691,0.0540804492461698,-0.547152536165537,-0.71,-0.84,9.74
4.0664539,90,90,1.1368,0,0,66.4375,2.33009701292807,5.98927618000236,0.835195019227248,-0.0155038759689922,0.0540194103644021,-0.547213575047305,-0.71,-0.83,9.74
4.0813707,90,90,1.127,0,0,66.4375,2.27495381127588,5.95985718424203,0.835195019227248,-0.0152597204419215,0.0540194103644021,-0.547213575047305,-0.72,-0.82,9.74
4.0978336,90,90,1.1074,0,0,66.4375,2.2198106096237,5.9304381884817,0.835195019227248,-0.0147103705060123,0.0539583714826344,-0.547213575047305,-0.72,-0.82,9.74
4.2037693,90,90,1.0388,0,0,66.4375,1.99554301314648,5.95246760450507,0.835317096990783,-0.0127571262894464,0.0535310993102606,-0.547152536165537,-0.74,-0.78,9.74
4.2284537,90,90,1.029,0,0,66.4375,1.94039981149429,5.92304860874473,0.835317096990783,-0.0123298541170726,0.0534090215467253,-0.547152536165537,-0.74,-0.77,9.74
4.2434863,90,90,1.0192,0,0,66.4375,1.94039981149429,5.92304860874473,0.835317096990783,-0.0121467374717695,0.0534700604284929,-0.54709149728377,-0.74,-0.77,9.74
4.3393368,90,90,1.0192,0,0,66.4375,1.85583761408177,5.94877281463658,0.835317096990783,-0.0115363486540927,0.0535310993102606,-0.547152536165537,-0.75,-0.76,9.74
4.3584097,90,90,1.0192,0,0,66.4375,1.85583761408177,5.94877281463658,0.835317096990783,-0.011475309772325,0.0534700604284929,-0.547152536165537,-0.75,-0.76,9.74
4.3733801,90,90,1.029,0,0,66.4375,1.85583761408177,5.94877281463658,0.835317096990783,-0.0115973875358603,0.0534090215467253,-0.547152536165537,-0.75,-0.76,9.74
4.3920116,90,90,1.029,0,0,66.4375,1.85583761408177,5.94877281463658,0.835317096990783,-0.011658426417628,0.0534090215467253,-0.547152536165537,-0.74,-0.76,9.74
4.501389,90,90,1.0976,0,0,66.375,2.080105210559,5.92674339861321,0.835378135872551,-0.0133675151071232,0.0533479826649576,-0.546969419520234,-0.73,-0.79,9.74
4.5194496,90,90,1.1172,0,0,66.375,2.080105210559,5.92674339861321,0.835378135872551,-0.013611670634194,0.0532869437831899,-0.546969419520234,-0.72,-0.79,9.74
4.5355484,90,90,1.127,0,0,66.375,2.16466740797151,5.90101919272136,0.835439174754319,-0.0140999816883355,0.0532259049014222,-0.546969419520234,-0.72,-0.8,9.74
4.5504333,90,90,1.1564,0,0,66.375,2.16466740797151,5.90101919272136,0.835439174754319,-0.0146493316242446,0.0532259049014222,-0.546908380638467,-0.71,-0.81,9.74
4.6484672,90,90,1.2544,0,0,66.375,2.52864040351344,5.88268456656648,0.835500213636086,-0.0173350424220228,0.0532259049014222,-0.546786302874931,-0.68,-0.86,9.74
4.6664796,90,90,1.2936,0,0,66.375,2.61320260092595,5.85696036067463,0.835500213636086,-0.0180675090032351,0.0532259049014222,-0.546725263993164,-0.67,-0.86,9.74
4.6828083,90,90,1.3034,0,0,66.375,2.69776479833847,5.83123615478277,0.835500213636086,-0.0187999755844473,0.0531648660196545,-0.546664225111396,-0.66,-0.87,9.74
4.7944945,90,90,1.47,0,0,66.3125,3.11688099553258,5.84232052438822,0.835561252517854,-0.0230116584264176,0.0533479826649576,-0.546481108466093,-0.62,-0.94,9.74
4.8126269,90,90,1.4798,0,0,66.3125,3.28600539035761,5.79087211260452,0.835561252517854,-0.0238051638893975,0.0534090215467253,-0.546420069584325,-0.61,-0.96,9.73
4.8284775,90,90,1.4994,0,0,66.3125,3.28600539035761,5.79087211260452,0.835561252517854,-0.0241713971800037,0.0534090215467253,-0.546359030702558,-0.61,-0.96,9.73
4.8458052,90,90,1.5288,0,0,66.3125,3.3411485920098,5.82029110836485,0.835561252517854,-0.0245986693523775,0.0534700604284929,-0.546359030702558,-0.61,-0.97,9.73
4.9563918,90,90,1.666,0,0,66.3125,3.84482698661643,5.80565127207844,0.835561252517854,-0.0289934688396509,0.053653177073796,-0.546114875175487,-0.56,-1.05,9.73
4.9755502,90,90,1.6954,0,0,66.3125,3.98453238568113,5.80934606194693,0.835561252517854,-0.0300921687114692,0.0537752548373314,-0.546053836293719,-0.55,-1.06,9.73
4.9943619,90,90,1.7248,0,0,66.3125,4.01395138144146,5.75420286029474,0.835561252517854,-0.0308856741744491,0.0538362937190991,-0.546053836293719,-0.55,-1.08,9.73
5.0904733,90,90,1.813,0,0,66.3125,4.43306757863557,5.76528722990019,0.835500213636086,-0.0340596960263688,0.0542025270097052,-0.545870719648416,-0.52,-1.13,9.72
5.1105653,90,90,1.8326,0,0,66.3125,4.54335398193994,5.82412522142085,0.835439174754319,-0.0350363181346518,0.0543246047732406,-0.545870719648416,-0.51,-1.15,9.72
5.1275928,90,90,1.8424,0,0,66.3125,4.57277297770027,5.76898201976867,0.835439174754319,-0.0353415125434902,0.0543856436550082,-0.545809680766648,-0.51,-1.16,9.72
5.2405365,90,90,1.9012,0,0,66.3125,4.87790798172153,5.86093379691815,0.835378135872551,-0.0379661844595007,0.0549349935909174,-0.545748641884881,-0.49,-1.21,9.71
5.2605568,90,90,1.911,0,0,66.3125,4.87790798172153,5.86093379691815,0.835317096990783,-0.0380882622230361,0.0549960324726851,-0.545748641884881,-0.49,-1.21,9.71
5.2824731,90,90,1.911,0,0,66.3125,4.87790798172153,5.86093379691815,0.835317096990783,-0.0382103399865714,0.0550570713544528,-0.545748641884881,-0.49,-1.21,9.71
5.3795163,90,90,1.9012,0,0,66.3125,4.87790798172153,5.86093379691815,0.835378135872551,-0.0380272233412684,0.0549349935909174,-0.545748641884881,-0.49,-1.21,9.71
5.3995628,90,90,1.9012,0,0,66.3125,4.87790798172153,5.86093379691815,0.835378135872551,-0.037905145577733,0.0549349935909174,-0.545748641884881,-0.49,-1.2,9.71
5.4224486,90,90,1.8914,0,0,66.3125,4.82276478006934,5.83151480115782,0.835378135872551,-0.0375389122871269,0.0549349935909174,-0.545809680766648,-0.49,-1.2,9.71
5.5204047,90,90,1.8228,0,0,66.3125,4.65364038524431,5.88296321294152,0.835378135872551,-0.0357077458340963,0.0549349935909174,-0.545931758530184,-0.51,-1.17,9.72
5.5404083,90,90,1.8032,0,0,66.3125,4.59849718359212,5.85354421718119,0.835378135872551,-0.0352194347799548,0.0548739547091497,-0.545931758530184,-0.52,-1.16,9.72
5.5554019,90,90,1.7934,0,0,66.3125,4.5139349861796,5.87926842307304,0.835378135872551,-0.0349752792528841,0.0548739547091497,-0.545931758530184,-0.52,-1.16,9.72
5.5724658,90,90,1.7836,0,0,66.3125,4.5139349861796,5.87926842307304,0.835378135872551,-0.0344259293169749,0.054812915827382,-0.545992797411951,-0.52,-1.15,9.72
5.6745385,90,90,1.6758,0,0,66.3125,4.14996199063768,5.89760304922793,0.835378135872551,-0.0313739852285906,0.054629799182079,-0.546175914057255,-0.55,-1.09,9.72
5.6957073,90,90,1.6464,0,0,66.3125,4.0948187889855,5.86818405346759,0.835378135872551,-0.0307025575291461,0.0545687603003113,-0.546236952939022,-0.56,-1.08,9.72
5.7115039,90,90,1.6268,0,0,66.3125,3.95511338992079,5.86448926359911,0.835378135872551,-0.0300311298297015,0.0545077214185436,-0.54629799182079,-0.57,-1.07,9.73
5.8075899,90,90,1.4994,0,0,66.375,3.59114039437887,5.882823889754,0.835378135872551,-0.026429835805408,0.0542635658914729,-0.546481108466093,-0.6,-1.01,9.73
5.8258279,90,90,1.47,0,0,66.375,3.53599719272669,5.85340489399367,0.835378135872551,-0.0260636025148019,0.0542025270097052,-0.546542147347861,-0.61,-1,9.73
5.8446671,90,90,1.4406,0,0,66.375,3.45143499531417,5.87912909988552,0.835378135872551,-0.0256973692241958,0.0542025270097052,-0.546542147347861,-0.61,-1,9.73
5.9516328,90,90,1.3034,0,0,66.375,3.03231879812006,5.86804473028007,0.835317096990783,-0.0215467252639932,0.0537752548373314,-0.546786302874931,-0.64,-0.92,9.74
5.9704062,90,90,1.2838,0,0,66.375,2.94775660070754,5.89376893617192,0.835317096990783,-0.0208752975645486,0.0537142159555637,-0.546847341756699,-0.65,-0.91,9.74
5.986527,90,90,1.2544,0,0,66.375,2.89261339905536,5.86434994041159,0.835317096990783,-0.0205701031557102,0.053653177073796,-0.546847341756699,-0.65,-0.91,9.74
6.0825651,90,90,1.1564,0,0,66.375,2.61320260092595,5.85696036067463,0.835317096990783,-0.0180675090032351,0.0532259049014222,-0.546969419520234,-0.68,-0.86,9.74
6.1005785,90,90,1.1368,0,0,66.4375,2.52864040351344,5.88268456656648,0.835317096990783,-0.0173960813037905,0.0531648660196545,-0.547030458402002,-0.68,-0.85,9.74
6.1155299,90,90,1.127,0,0,66.4375,2.47349720186125,5.85326557080614,0.835317096990783,-0.0171519257767198,0.0531648660196545,-0.547030458402002,-0.68,-0.84,9.74
6.1305747,90,90,1.1172,0,0,66.4375,2.47349720186125,5.85326557080614,0.835317096990783,-0.0169688091314167,0.0531038271378868,-0.547030458402002,-0.68,-0.84,9.74
6.2326195,90,90,1.0584,0,0,66.4375,2.27864860114436,5.82015178517733,0.835317096990783,-0.0153817982054569,0.0526155160837453,-0.54709149728377,-0.69,-0.81,9.74
6.2539082,90,90,1.0486,0,0,66.4375,2.22350539949218,5.79073278941699,0.835317096990783,-0.0148934871513154,0.0525544772019777,-0.54709149728377,-0.7,-0.8,9.74
6.2757494,90,90,1.0388,0,0,66.4375,2.22350539949218,5.79073278941699,0.835378135872551,-0.0146493316242446,0.05249343832021,-0.54709149728377,-0.7,-0.8,9.74
6.38051,90,90,1.0388,0,0,66.4375,2.13894320207966,5.81645699530885,0.835378135872551,-0.0138558261612647,0.0525544772019777,-0.54709149728377,-0.71,-0.79,9.74
6.3995491,90,90,1.0388,0,0,66.4375,2.13894320207966,5.81645699530885,0.835378135872551,-0.0139168650430324,0.05249343832021,-0.54709149728377,-0.71,-0.79,9.74
6.4155498,90,90,1.0486,0,0,66.4375,2.13894320207966,5.81645699530885,0.835378135872551,-0.0139779039248001,0.05249343832021,-0.547030458402002,-0.7,-0.79,9.74
6.4305605,90,90,1.0486,0,0,66.375,2.13894320207966,5.81645699530885,0.835378135872551,-0.0139779039248001,0.05249343832021,-0.547030458402002,-0.7,-0.79,9.74
6.5304503,90,90,1.1074,0,0,66.375,2.25292439525251,5.73558958776481,0.835439174754319,-0.0151986815601538,0.0523103216749069,-0.546969419520234,-0.69,-0.81,9.74
6.5485542,90,90,1.127,0,0,66.375,2.3080675969047,5.76500858352514,0.835500213636086,-0.0155649148507599,0.0522492827931392,-0.546908380638467,-0.68,-0.81,9.74
6.5634132,90,90,1.1368,0,0,66.375,2.36321079855688,5.79442757928548,0.835500213636086,-0.015931148141366,0.0521882439113715,-0.546908380638467,-0.68,-0.82,9.74
6.5785323,90,90,1.1564,0,0,66.375,2.39262979431722,5.73928437763329,0.835500213636086,-0.0161753036684368,0.0521882439113715,-0.546908380638467,-0.68,-0.82,9.74
6.6745054,90,90,1.2544,0,0,66.375,2.70145958820695,5.69153075571807,0.835561252517854,-0.018861014466215,0.0521272050296039,-0.546725263993164,-0.65,-0.86,9.74
6.692571,90,90,1.2642,0,0,66.375,2.75660278985914,5.7209497514784,0.835561252517854,-0.0194714032838918,0.0521272050296039,-0.546725263993164,-0.64,-0.87,9.74
6.7097107,90,90,1.2936,0,0,66.375,2.84116498727166,5.69522554558655,0.835561252517854,-0.0201428309833364,0.0521272050296039,-0.546664225111396,-0.63,-0.88,9.74
6.8115741,90,90,1.421,0,0,66.3125,3.20513798281358,5.67689091943167,0.835561252517854,-0.0236220472440945,0.0521882439113715,-0.546481108466093,-0.6,-0.94,9.74
6.8307143,90,90,1.4406,0,0,66.3125,3.2897001802261,5.65116671353981,0.835622291399622,-0.0243545138253067,0.0522492827931392,-0.546420069584325,-0.59,-0.95,9.74
6.8465622,90,90,1.47,0,0,66.3125,3.34484338187828,5.68058570930015,0.835622291399622,-0.0247207471159128,0.0522492827931392,-0.546420069584325,-0.59,-0.96,9.74
6.9446179,90,90,1.5876,0,0,66.3125,3.76395957907239,5.69167007890559,0.835622291399622,-0.0283220411402063,0.05249343832021,-0.546175914057255,-0.55,-1.02,9.73
6.9625537,90,90,1.6072,0,0,66.3125,3.84852177648491,5.66594587301374,0.835622291399622,-0.0290545077214185,0.0525544772019777,-0.546175914057255,-0.55,-1.03,9.73
6.9796252,90,90,1.6268,0,0,66.3125,3.90366497813709,5.69536486877408,0.835622291399622,-0.0297259354208631,0.0526155160837453,-0.546114875175487,-0.54,-1.05,9.73
7.0905592,90,90,1.7444,0,0,66.3125,4.35220017109153,5.65130603672734,0.835561252517854,-0.0333882683269243,0.0531038271378868,-0.545931758530184,-0.51,-1.11,9.72
7.1107131,90,90,1.764,0,0,66.3125,4.40734337274372,5.68072503248767,0.835561252517854,-0.0339986571446011,0.0531648660196545,-0.545931758530184,-0.5,-1.12,9.72
7.1315366,90,90,1.7836,0,0,66.3125,4.4624865743959,5.710144028248,0.835500213636086,-0.034609045962278,0.0532869437831899,-0.545870719648416,-0.5,-1.13,9.72
7.2296218,90,90,1.8424,0,0,66.25,4.74189737252531,5.71753360798497,0.835439174754319,-0.03692852346945,0.0538973326008668,-0.545809680766648,-0.48,-1.18,9.72
7.2476054,90,90,1.8522,0,0,66.3125,4.79704057417749,5.7469526037453,0.835439174754319,-0.0372947567600562,0.0540804492461698,-0.545748641884881,-0.48,-1.18,9.72
7.2679031,90,90,1.8522,0,0,66.3125,4.79704057417749,5.7469526037453,0.835378135872551,-0.0375999511688946,0.0542025270097052,-0.545748641884881,-0.48,-1.19,9.72
7.371638,90,90,1.8718,0,0,66.3125,4.99188917489438,5.78006638937412,0.835317096990783,-0.0386376121589452,0.0545077214185436,-0.545748641884881,-0.47,-1.21,9.71
7.3905204,90,90,1.862,0,0,66.3125,4.99188917489438,5.78006638937412,0.835317096990783,-0.0385765732771776,0.0545687603003113,-0.545748641884881,-0.48,-1.21,9.71
7.4075342,90,90,1.862,0,0,66.3125,4.96247017913404,5.8352095910263,0.835317096990783,-0.0385765732771776,0.054629799182079,-0.545748641884881,-0.48,-1.21,9.71
7.5055846,90,90,1.8228,0,0,66.3125,4.82276478006934,5.83151480115782,0.835317096990783,-0.0373557956418238,0.054629799182079,-0.545870719648416,-0.49,-1.19,9.72
7.5245051,90,90,1.813,0,0,66.3125,4.82276478006934,5.83151480115782,0.835317096990783,-0.0372337178782885,0.054629799182079,-0.545870719648416,-0.49,-1.19,9.72
7.5394969,90,90,1.8032,0,0,66.3125,4.76762157841716,5.80209580539749,0.835317096990783,-0.0369895623512177,0.054629799182079,-0.545870719648416,-0.5,-1.18,9.72
7.6405813,90,90,1.715,0,0,66.3125,4.54335398193994,5.82412522142085,0.835317096990783,-0.0347311237258133,0.054629799182079,-0.545992797411951,-0.52,-1.15,9.72
7.6607009,90,90,1.7052,0,0,66.3125,4.45879178452742,5.84984942731271,0.835317096990783,-0.0339376182628334,0.054629799182079,-0.546053836293719,-0.53,-1.14,9.72
7.6826476,90,90,1.6758,0,0,66.3125,4.3742295871149,5.87557363320456,0.835317096990783,-0.0333882683269243,0.0545687603003113,-0.546114875175487,-0.53,-1.13,9.72
7.7825842,90,90,1.5582,0,0,66.3125,4.03967558733331,5.83876505770726,0.835317096990783,-0.0302142464750046,0.0543246047732406,-0.54629799182079,-0.56,-1.07,9.73
7.8045332,90,90,1.5288,0,0,66.3125,3.95511338992079,5.86448926359911,0.835317096990783,-0.0292376243667216,0.0542635658914729,-0.546359030702558,-0.57,-1.06,9.73
7.8206429,90,90,1.519,0,0,66.375,3.81540799085609,5.86079447373063,0.835317096990783,-0.0289324299578832,0.0542025270097052,-0.546420069584325,-0.57,-1.05,9.73
7.9214845,90,90,1.3818,0,0,66.375,3.4808539910745,5.82398589823333,0.835317096990783,-0.0256363303424281,0.0538362937190991,-0.546603186229628,-0.6,-0.99,9.73
7.9404919,90,90,1.372,0,0,66.375,3.39629179366198,5.84971010412518,0.835378135872551,-0.025270097051822,0.0537752548373314,-0.546603186229628,-0.61,-0.97,9.73
7.9578518,90,90,1.3426,0,0,66.375,3.3411485920098,5.82029110836485,0.835317096990783,-0.0243545138253067,0.053653177073796,-0.546664225111396,-0.61,-0.97,9.73
8.0674549,90,90,1.225,0,0,66.375,3.00659459222821,5.78348253286755,0.835317096990783,-0.0212415308551547,0.0531648660196545,-0.546847341756699,-0.64,-0.91,9.74
8.0858702,90,90,1.2054,0,0,66.375,2.92203239481569,5.8092067387594,0.835317096990783,-0.020997375328084,0.0531038271378868,-0.546847341756699,-0.64,-0.91,9.74
8.1026455,90,90,1.1858,0,0,66.375,2.92203239481569,5.8092067387594,0.835317096990783,-0.0202649087468718,0.0529817493743515,-0.546908380638467,-0.65,-0.9,9.74
8.1994613,90,90,1.1074,0,0,66.375,2.67204059244662,5.74667395737026,0.835378135872551,-0.0186168589391442,0.0525544772019777,-0.546969419520234,-0.66,-0.86,9.74
8.2186242,90,90,1.1074,0,0,66.375,2.5874783950341,5.77239816326211,0.835378135872551,-0.0180064701214674,0.0524323994384423,-0.546969419520234,-0.66,-0.85,9.74
8.2346058,90,90,1.0976,0,0,66.375,2.5874783950341,5.77239816326211,0.835378135872551,-0.0178233534761643,0.0523713605566746,-0.546969419520234,-0.66,-0.85,9.74
8.333621,90,90,1.0682,0,0,66.375,2.39262979431722,5.73928437763329,0.835439174754319,-0.0164194591955075,0.0521882439113715,-0.547030458402002,-0.68,-0.82,9.74
8.3526785,90,90,1.0584,0,0,66.375,2.39262979431722,5.73928437763329,0.835439174754319,-0.0162363425502045,0.0522492827931392,-0.546969419520234,-0.68,-0.82,9.74
8.3686432,90,90,1.0584,0,0,66.375,2.39262979431722,5.73928437763329,0.835439174754319,-0.0161142647866691,0.0521882439113715,-0.546969419520234,-0.68,-0.82,9.74
8.4655707,90,90,1.078,0,0,66.375,2.33748659266503,5.70986538187296,0.835500213636086,-0.0159921870231337,0.0519440883843008,-0.546908380638467,-0.67,-0.81,9.74
8.4836294,90,90,1.0878,0,0,66.375,2.39262979431722,5.73928437763329,0.835500213636086,-0.0161753036684368,0.0518830495025331,-0.546908380638467,-0.67,-0.82,9.74
8.4986546,90,90,1.0878,0,0,66.375,2.39262979431722,5.73928437763329,0.835500213636086,-0.0162363425502045,0.0518830495025331,-0.546908380638467,-0.67,-0.82,9.74
8.5192292,90,90,1.0976,0,0,66.375,2.42204879007755,5.68414117598111,0.835500213636086,-0.0164804980772752,0.0518830495025331,-0.546908380638467,-0.67,-0.82,9.74
8.6295173,90,90,1.176,0,0,66.375,2.64631638655477,5.66211175995774,0.835561252517854,-0.0183116645303058,0.0516388939754624,-0.546786302874931,-0.64,-0.85,9.74
8.6484804,90,90,1.1956,0,0,66.375,2.64631638655477,5.66211175995774,0.835561252517854,-0.0187999755844473,0.0515778550936947,-0.546725263993164,-0.64,-0.86,9.74
8.6635598,90,90,1.2054,0,0,66.375,2.73087858396729,5.63638755406589,0.835561252517854,-0.0192882866385888,0.0515778550936947,-0.546725263993164,-0.63,-0.86,9.74
8.7696281,90,90,1.323,0,0,66.3125,3.03970837785703,5.58863393215067,0.835622291399622,-0.02215711408167,0.0515778550936947,-0.546542147347861,-0.6,-0.92,9.74
8.7898408,90,90,1.3426,0,0,66.3125,3.09485157950921,5.618052927911,0.835622291399622,-0.0224623084905085,0.0515778550936947,-0.546542147347861,-0.6,-0.92,9.74
8.8118026,90,90,1.372,0,0,66.3125,3.17941377692173,5.59232872201915,0.835622291399622,-0.0234389305987914,0.0515778550936947,-0.546481108466093,-0.59,-0.94,9.74
8.9096308,90,90,1.4798,0,0,66.3125,3.59852997411583,5.60341309162459,0.835622291399622,-0.0267350302142465,0.0517609717389977,-0.54629799182079,-0.55,-0.99,9.73
8.9307591,90,90,1.5092,0,0,66.3125,3.59852997411583,5.60341309162459,0.835622291399622,-0.027406457913691,0.0517609717389977,-0.546236952939022,-0.55,-1,9.73
8.9476273,90,90,1.5386,0,0,66.3125,3.73823537318054,5.60710788149308,0.835622291399622,-0.0280168467313679,0.0518220106207654,-0.546175914057255,-0.54,-1.01,9.73
9.0446368,90,90,1.6464,0,0,66.3125,4.10220836872246,5.58877325533819,0.835622291399622,-0.0311908685832876,0.0521882439113715,-0.545992797411951,-0.52,-1.06,9.73
9.06475,90,90,1.666,0,0,66.3125,4.15735157037464,5.61819225109852,0.835622291399622,-0.0318012574009644,0.0522492827931392,-0.545992797411951,-0.51,-1.08,9.73
9.0867169,90,90,1.6856,0,0,66.3125,4.15735157037464,5.61819225109852,0.835622291399622,-0.0321064518098028,0.0523103216749069,-0.545992797411951,-0.51,-1.08,9.73
9.1885445,90,90,1.764,0,0,66.25,4.52132456591657,5.59985762494363,0.835561252517854,-0.0352804736617225,0.0528596716108161,-0.545809680766648,-0.48,-1.14,9.72
9.2066566,90,90,1.7738,0,0,66.25,4.57646776756875,5.62927662070397,0.835561252517854,-0.0355246291887933,0.0529207104925838,-0.545809680766648,-0.48,-1.14,9.72
9.222717,90,90,1.7836,0,0,66.25,4.63161096922094,5.6586956164643,0.835561252517854,-0.035768784715864,0.0529817493743515,-0.545809680766648,-0.48,-1.15,9.72
9.2375924,90,90,1.7934,0,0,66.25,4.63161096922094,5.6586956164643,0.835561252517854,-0.0359519013611671,0.0529817493743515,-0.545809680766648,-0.48,-1.15,9.72
9.3376789,90,90,1.8228,0,0,66.25,4.82645956993782,5.69180940209312,0.835439174754319,-0.0375389122871269,0.0537752548373314,-0.545748641884881,-0.47,-1.19,9.72
9.3555591,90,90,1.8326,0,0,66.25,4.82645956993782,5.69180940209312,0.835439174754319,-0.0376609900506623,0.0538362937190991,-0.545748641884881,-0.47,-1.19,9.72
9.3729499,90,90,1.8326,0,0,66.25,4.88160277159001,5.72122839785345,0.835439174754319,-0.03772202893243,0.0538362937190991,-0.545748641884881,-0.47,-1.19,9.72
9.4816549,90,90,1.8228,0,0,66.25,4.79704057417749,5.7469526037453,0.835439174754319,-0.0372947567600562,0.0540194103644021,-0.545748641884881,-0.48,-1.18,9.72
9.4996585,90,90,1.813,0,0,66.25,4.79704057417749,5.7469526037453,0.835439174754319,-0.0371116401147531,0.0540194103644021,-0.545748641884881,-0.48,-1.18,9.72
9.514528,90,90,1.8032,0,0,66.25,4.79704057417749,5.7469526037453,0.835439174754319,-0.03692852346945,0.0540194103644021,-0.545809680766648,-0.48,-1.18,9.72
9.5329932,90,90,1.7934,0,0,66.25,4.79704057417749,5.7469526037453,0.835439174754319,-0.0366843679423793,0.0540804492461698,-0.545809680766648,-0.49,-1.17,9.72
9.64162,90,90,1.7248,0,0,66.3125,4.48821078028775,5.79470622566052,0.835439174754319,-0.034792162607581,0.0540804492461698,-0.545931758530184,-0.51,-1.14,9.72
9.6617258,90,90,1.7052,0,0,66.3125,4.48821078028775,5.79470622566052,0.835439174754319,-0.0341207349081365,0.0540804492461698,-0.545992797411951,-0.52,-1.13,9.72
9.6788098,90,90,1.6954,0,0,66.3125,4.43306757863557,5.76528722990019,0.835439174754319,-0.0338765793810657,0.0540804492461698,-0.545992797411951,-0.52,-1.13,9.72
9.77773,90,90,1.5876,0,0,66.3125,4.12423778474583,5.81304085181541,0.835439174754319,-0.0311908685832876,0.0538973326008668,-0.546175914057255,-0.54,-1.08,9.73
9.7955256,90,90,1.5778,0,0,66.3125,4.06909458309364,5.78362185605508,0.835439174754319,-0.0305804797656107,0.0538362937190991,-0.546175914057255,-0.55,-1.07,9.73
9.8105468,90,90,1.5484,0,0,66.3125,3.98453238568113,5.80934606194693,0.835439174754319,-0.0302752853567723,0.0538362937190991,-0.546236952939022,-0.55,-1.06,9.73
9.825761,90,90,1.5386,0,0,66.3125,3.92938918402894,5.77992706618659,0.835439174754319,-0.0296648965390954,0.0537142159555637,-0.546236952939022,-0.56,-1.06,9.73
9.9546726,90,90,1.3916,0,0,66.375,3.51027298683483,5.76884269658115,0.835439174754319,-0.0256973692241958,0.0532869437831899,-0.546481108466093,-0.59,-0.99,9.73
9.9726037,90,90,1.3622,0,0,66.375,3.42571078942232,5.794566902473,0.835439174754319,-0.0251480192882866,0.0532259049014222,-0.546542147347861,-0.6,-0.98,9.73
9.9886623,90,90,1.3524,0,0,66.375,3.37056758777013,5.76514790671267,0.835439174754319,-0.0248428248794482,0.0531648660196545,-0.546542147347861,-0.6,-0.97,9.73
10.0045281,90,90,1.3426,0,0,66.375,3.28600539035761,5.79087211260452,0.835439174754319,-0.0242324360617713,0.0531038271378868,-0.546603186229628,-0.6,-0.96,9.73
10.1135936,90,90,1.225,0,0,66.375,2.95145139057603,5.75406353710722,0.835439174754319,-0.0214246475004578,0.0526155160837453,-0.546725263993164,-0.63,-0.91,9.74
10.1326781,90,90,1.2152,0,0,66.375,2.95145139057603,5.75406353710722,0.835439174754319,-0.020997375328084,0.05249343832021,-0.546786302874931,-0.63,-0.9,9.74
10.1485613,90,90,1.1956,0,0,66.375,2.89630818892384,5.72464454134689,0.835439174754319,-0.0205701031557102,0.0524323994384423,-0.546786302874931,-0.63,-0.89,9.74
10.2617719,90,90,1.127,0,0,66.375,2.70145958820695,5.69153075571807,0.835500213636086,-0.0186778978209119,0.0518830495025331,-0.546847341756699,-0.65,-0.86,9.74
10.279588,90,90,1.1172,0,0,66.375,2.61689739079444,5.71725496160992,0.835500213636086,-0.0183727034120735,0.0518220106207654,-0.546847341756699,-0.65,-0.85,9.74
10.2965824,90,90,1.1074,0,0,66.375,2.61689739079444,5.71725496160992,0.835500213636086,-0.0182506256485381,0.0518220106207654,-0.546847341756699,-0.65,-0.85,9.74
10.4005965,90,90,1.0878,0,0,66.375,2.47719199172973,5.71356017174144,0.835500213636086,-0.0171519257767198,0.0518220106207654,-0.546847341756699,-0.66,-0.83,9.74
10.4196665,90,90,1.0878,0,0,66.375,2.47719199172973,5.71356017174144,0.835500213636086,-0.0170908868949521,0.0517609717389977,-0.546847341756699,-0.66,-0.83,9.74
10.4358029,90,90,1.0878,0,0,66.375,2.47719199172973,5.71356017174144,0.835561252517854,-0.0170298480131844,0.0517609717389977,-0.546847341756699,-0.66,-0.83,9.74
10.5377058,90,90,1.1172,0,0,66.375,2.50661098749007,5.65841697008926,0.835561252517854,-0.0174571201855582,0.0513947384483916,-0.546786302874931,-0.65,-0.83,9.74
10.5557342,90,90,1.127,0,0,66.375,2.50661098749007,5.65841697008926,0.835622291399622,-0.0175181590673259,0.0513947384483916,-0.546786302874931,-0.65,-0.84,9.74
10.573715,90,90,1.1368,0,0,66.375,2.50661098749007,5.65841697008926,0.835622291399622,-0.0176402368308613,0.0513336995666239,-0.546786302874931,-0.65,-0.84,9.74
10.6936506,90,90,1.2152,0,0,66.375,2.76029757972762,5.5812443524137,0.835683330281389,-0.0197155588109626,0.0512116218030886,-0.546603186229628,-0.62,-0.87,9.74
10.711705,90,90,1.2446,0,0,66.3125,2.84485977714014,5.55552014652185,0.835683330281389,-0.0204480253921748,0.0512116218030886,-0.546603186229628,-0.61,-0.88,9.74
10.7287286,90,90,1.2544,0,0,66.3125,2.90000297879232,5.58493914228218,0.835683330281389,-0.0206921809192456,0.0511505829213209,-0.546542147347861,-0.61,-0.88,9.74
10.8465929,90,90,1.372,0,0,66.3125,3.20883277268206,5.53718552036696,0.835683330281389,-0.0244155527070744,0.0512116218030886,-0.546359030702558,-0.57,-0.94,9.74
10.8646328,90,90,1.4014,0,0,66.3125,3.34853817174676,5.54088031023545,0.835683330281389,-0.0246597082341452,0.0512116218030886,-0.546359030702558,-0.57,-0.95,9.74
10.8797033,90,90,1.4112,0,0,66.3125,3.34853817174676,5.54088031023545,0.835683330281389,-0.0249649026429836,0.0512116218030886,-0.54629799182079,-0.57,-0.95,9.74
10.8958187,90,90,1.4406,0,0,66.3125,3.40368137339895,5.57029930599578,0.835683330281389,-0.0253311359335897,0.0512116218030886,-0.54629799182079,-0.56,-0.97,9.74
11.0057423,90,90,1.5484,0,0,66.3125,3.85221656635339,5.52624047394904,0.835744369163157,-0.0289324299578832,0.0514557773301593,-0.546114875175487,-0.53,-1.03,9.73
11.0236527,90,90,1.5778,0,0,66.3125,3.90735976800557,5.55565946970937,0.835744369163157,-0.02954281877556,0.051516816211927,-0.546053836293719,-0.52,-1.03,9.73
11.0386642,90,90,1.5876,0,0,66.3125,3.90735976800557,5.55565946970937,0.835744369163157,-0.0298480131843985,0.0515778550936947,-0.546053836293719,-0.52,-1.04,9.73
11.0535902,90,90,1.5974,0,0,66.3125,3.99192196541809,5.52993526381752,0.835683330281389,-0.0303973631203076,0.0516388939754624,-0.545992797411951,-0.51,-1.05,9.73
11.157765,90,90,1.6954,0,0,66.25,4.32647596519968,5.56674383931482,0.835683330281389,-0.0330220350363181,0.0520661661478362,-0.545870719648416,-0.49,-1.1,9.73
11.1757158,90,90,1.715,0,0,66.25,4.32647596519968,5.56674383931482,0.835683330281389,-0.0335103460904596,0.0521272050296039,-0.545809680766648,-0.49,-1.1,9.73
11.190677,90,90,1.715,0,0,66.25,4.38161916685186,5.59616283507515,0.835683330281389,-0.0337545016175304,0.0521882439113715,-0.545809680766648,-0.49,-1.11,9.73
11.2056678,90,90,1.7248,0,0,66.25,4.46618136426438,5.5704386291833,0.835683330281389,-0.0342428126716719,0.0523103216749069,-0.545809680766648,-0.48,-1.12,9.72
11.3056591,90,90,1.7836,0,0,66.25,4.63161096922094,5.6586956164643,0.835561252517854,-0.0360739791247024,0.0530427882561191,-0.545748641884881,-0.48,-1.15,9.72
11.3247593,90,90,1.7836,0,0,66.25,4.68675417087312,5.68811461222463,0.835561252517854,-0.0363181346517732,0.0531648660196545,-0.545687603003113,-0.48,-1.16,9.72
11.3416563,90,90,1.7934,0,0,66.25,4.68675417087312,5.68811461222463,0.835561252517854,-0.0364402124153086,0.0532869437831899,-0.545687603003113,-0.48,-1.16,9.72
11.4417712,90,90,1.7934,0,0,66.25,4.77131636828564,5.66239040633278,0.835500213636086,-0.0369895623512177,0.0535310993102606,-0.545687603003113,-0.48,-1.17,9.72
11.4606362,90,90,1.7934,0,0,66.25,4.77131636828564,5.66239040633278,0.835500213636086,-0.0369895623512177,0.0535310993102606,-0.545687603003113,-0.48,-1.17,9.72
11.4767593,90,90,1.7934,0,0,66.25,4.77131636828564,5.66239040633278,0.835500213636086,-0.0369895623512177,0.0535310993102606,-0.545687603003113,-0.48,-1.17,9.72
11.5747754,90,90,1.764,0,0,66.25,4.65733517511279,5.74325781387682,0.835500213636086,-0.0360739791247024,0.0537142159555637,-0.545748641884881,-0.49,-1.16,9.72
11.5936477,90,90,1.7444,0,0,66.25,4.6021919734606,5.71383881811649,0.835500213636086,-0.035768784715864,0.0537752548373314,-0.545748641884881,-0.49,-1.16,9.72
11.6106386,90,90,1.7444,0,0,66.25,4.6021919734606,5.71383881811649,0.835500213636086,-0.0354635903070256,0.0537752548373314,-0.545809680766648,-0.5,-1.15,9.72
11.7167421,90,90,1.666,0,0,66.3125,4.29336217957086,5.76159244003171,0.835500213636086,-0.0331441127998535,0.0537142159555637,-0.545931758530184,-0.52,-1.11,9.72
11.7356042,90,90,1.6464,0,0,66.3125,4.29336217957086,5.76159244003171,0.835500213636086,-0.032655801745712,0.0537142159555637,-0.545992797411951,-0.53,-1.11,9.72
11.7516375,90,90,1.6366,0,0,66.3125,4.23821897791868,5.73217344427137,0.835500213636086,-0.0324116462186413,0.0537142159555637,-0.545992797411951,-0.53,-1.1,9.72
11.8616099,90,90,1.519,0,0,66.3125,3.92938918402894,5.77992706618659,0.835500213636086,-0.0294817798937923,0.0534700604284929,-0.546175914057255,-0.56,-1.05,9.73
11.8816538,90,90,1.5092,0,0,66.3125,3.87424598237676,5.75050807042626,0.835500213636086,-0.0289324299578832,0.0534700604284929,-0.546175914057255,-0.56,-1.04,9.73
11.8966046,90,90,1.4798,0,0,66.3125,3.78968378496424,5.77623227631811,0.835500213636086,-0.0283220411402063,0.0533479826649576,-0.546236952939022,-0.57,-1.03,9.73
11.9976305,90,90,1.3818,0,0,66.3125,3.45512978518265,5.73942370082081,0.835500213636086,-0.0255752914606604,0.0530427882561191,-0.546420069584325,-0.59,-0.98,9.73
12.0156801,90,90,1.3622,0,0,66.3125,3.45512978518265,5.73942370082081,0.835500213636086,-0.0250259415247513,0.0529207104925838,-0.546420069584325,-0.59,-0.97,9.73
12.0339881,90,90,1.3524,0,0,66.3125,3.37056758777013,5.76514790671267,0.835500213636086,-0.0247817859976805,0.0528596716108161,-0.546481108466093,-0.6,-0.97,9.73
12.1357975,90,90,1.2544,0,0,66.375,3.03601358798854,5.72833933121537,0.835500213636086,-0.02215711408167,0.0523713605566746,-0.546603186229628,-0.62,-0.92,9.74
12.1536752,90,90,1.225,0,0,66.375,3.03601358798854,5.72833933121537,0.835500213636086,-0.0219129585545993,0.0523103216749069,-0.546603186229628,-0.62,-0.91,9.74
12.1687521,90,90,1.2152,0,0,66.375,2.98087038633636,5.69892033545503,0.835561252517854,-0.0215467252639932,0.0522492827931392,-0.546664225111396,-0.62,-0.91,9.74
12.1838579,90,90,1.2152,0,0,66.375,2.98087038633636,5.69892033545503,0.835561252517854,-0.021180491973387,0.0521272050296039,-0.546664225111396,-0.62,-0.9,9.74
12.2857551,90,90,1.1466,0,0,66.375,2.73087858396729,5.63638755406589,0.835561252517854,-0.0195934810474272,0.051516816211927,-0.546725263993164,-0.63,-0.87,9.74
12.3037935,90,90,1.1466,0,0,66.375,2.73087858396729,5.63638755406589,0.835561252517854,-0.0192882866385888,0.0514557773301593,-0.546725263993164,-0.63,-0.86,9.74
12.3197551,90,90,1.1368,0,0,66.375,2.73087858396729,5.63638755406589,0.835561252517854,-0.0191662088750534,0.0514557773301593,-0.546725263993164,-0.63,-0.86,9.74
12.4188066,90,90,1.1172,0,0,66.375,2.59117318490258,5.6326927641974,0.835622291399622,-0.0182506256485381,0.0514557773301593,-0.546725263993164,-0.64,-0.85,9.74
12.4366617,90,90,1.1172,0,0,66.375,2.59117318490258,5.6326927641974,0.835622291399622,-0.0181285478850027,0.051516816211927,-0.546725263993164,-0.64,-0.84,9.74
12.4517952,90,90,1.1172,0,0,66.375,2.59117318490258,5.6326927641974,0.835622291399622,-0.0180675090032351,0.0514557773301593,-0.546725263993164,-0.64,-0.84,9.74
12.4700817,90,90,1.1172,0,0,66.375,2.59117318490258,5.6326927641974,0.835622291399622,-0.0180675090032351,0.0514557773301593,-0.546725263993164,-0.64,-0.84,9.74
12.5788868,90,90,1.1466,0,0,66.375,2.62059218066292,5.57754956254522,0.835683330281389,-0.0184337422938412,0.0509674662760178,-0.546664225111396,-0.63,-0.84,9.74
12.5976876,90,90,1.1564,0,0,66.375,2.62059218066292,5.57754956254522,0.835683330281389,-0.0186168589391442,0.0509064273942501,-0.546603186229628,-0.63,-0.85,9.74
12.6127777,90,90,1.1662,0,0,66.375,2.6757353823151,5.60696855830555,0.835683330281389,-0.0187999755844473,0.0509064273942501,-0.546603186229628,-0.63,-0.85,9.74
12.7107975,90,90,1.225,0,0,66.3125,2.84485977714014,5.55552014652185,0.835744369163157,-0.0204480253921748,0.0507233107489471,-0.546481108466093,-0.61,-0.87,9.74
12.7298553,90,90,1.2446,0,0,66.3125,2.84485977714014,5.55552014652185,0.835744369163157,-0.0208142586827809,0.0506622718671794,-0.546481108466093,-0.6,-0.88,9.74
12.7456825,90,90,1.2544,0,0,66.3125,2.92942197455266,5.52979594063,0.835744369163157,-0.0213025697369224,0.0507233107489471,-0.546420069584325,-0.6,-0.89,9.74
12.8437967,90,90,1.3524,0,0,66.3125,3.23825176844239,5.48204231871478,0.835805408044925,-0.0238662027711652,0.0507233107489471,-0.54629799182079,-0.57,-0.93,9.74
12.8627748,90,90,1.3622,0,0,66.3125,3.29339497009458,5.51146131447511,0.835805408044925,-0.024110358298236,0.0507233107489471,-0.54629799182079,-0.57,-0.93,9.74
12.877829,90,90,1.3916,0,0,66.3125,3.29339497009458,5.51146131447511,0.835805408044925,-0.0246597082341452,0.0507233107489471,-0.546236952939022,-0.56,-0.94,9.74
12.9746903,90,90,1.4798,0,0,66.3125,3.60222476398432,5.46370769255989,0.835805408044925,-0.027223341268388,0.0507843496307148,-0.546114875175487,-0.53,-0.99,9.74
12.9931015,90,90,1.5092,0,0,66.3125,3.6573679656365,5.49312668832022,0.835805408044925,-0.0277726912042971,0.0508453885124825,-0.546053836293719,-0.53,-1,9.74
13.008835,90,90,1.519,0,0,66.3125,3.74193016304902,5.46740248242837,0.835805408044925,-0.028383080021974,0.0509064273942501,-0.546053836293719,-0.53,-1.01,9.74
13.0237638,90,90,1.5288,0,0,66.25,3.7970733647012,5.49682147818871,0.835805408044925,-0.0286272355490447,0.0509674662760178,-0.546053836293719,-0.52,-1.01,9.73
13.1208451,90,90,1.617,0,0,66.25,4.07648416283061,5.50421105792567,0.835805408044925,-0.0312519074650552,0.0512726606848563,-0.545870719648416,-0.5,-1.06,9.73
13.1419902,90,90,1.6366,0,0,66.25,4.13162736448279,5.533630053686,0.835805408044925,-0.0317402185191967,0.0513947384483916,-0.545870719648416,-0.5,-1.06,9.73
13.1645156,90,90,1.6562,0,0,66.25,4.21618956189531,5.50790584779415,0.835744369163157,-0.0322285295733382,0.0514557773301593,-0.545809680766648,-0.49,-1.07,9.73
13.2768327,90,90,1.7346,0,0,66.25,4.46618136426438,5.5704386291833,0.835683330281389,-0.034609045962278,0.0521882439113715,-0.545687603003113,-0.48,-1.12,9.72
13.2958542,90,90,1.7444,0,0,66.25,4.52132456591657,5.59985762494363,0.835683330281389,-0.0349752792528841,0.0523103216749069,-0.545687603003113,-0.48,-1.13,9.72
13.3108034,90,90,1.7444,0,0,66.25,4.52132456591657,5.59985762494363,0.835683330281389,-0.0350973570164195,0.0523713605566746,-0.545687603003113,-0.48,-1.13,9.72
13.3268662,90,90,1.7542,0,0,66.25,4.57646776756875,5.62927662070397,0.835683330281389,-0.0353415125434902,0.0525544772019777,-0.545687603003113,-0.48,-1.14,9.72
13.4256885,90,90,1.7738,0,0,66.25,4.63161096922094,5.6586956164643,0.835622291399622,-0.0361960568882378,0.0529817493743515,-0.545626564121345,-0.48,-1.16,9.72
13.4436859,90,90,1.7738,0,0,66.25,4.63161096922094,5.6586956164643,0.835622291399622,-0.0361960568882378,0.0529817493743515,-0.545626564121345,-0.48,-1.16,9.72
13.4598766,90,90,1.7738,0,0,66.25,4.63161096922094,5.6586956164643,0.835622291399622,-0.0361960568882378,0.0529817493743515,-0.545626564121345,-0.48,-1.16,9.72
13.4772262,90,90,1.7738,0,0,66.25,4.63161096922094,5.6586956164643,0.835622291399622,-0.0361960568882378,0.0529817493743515,-0.545626564121345,-0.48,-1.16,9.72
13.5868286,90,90,1.7444,0,0,66.25,4.54704877180842,5.68441982235615,0.835622291399622,-0.0354635903070256,0.0531648660196545,-0.545687603003113,-0.49,-1.15,9.72
13.6047096,90,90,1.7346,0,0,66.25,4.54704877180842,5.68441982235615,0.835622291399622,-0.0352194347799548,0.0532259049014222,-0.545687603003113,-0.49,-1.14,9.72
13.6207153,90,90,1.7346,0,0,66.25,4.54704877180842,5.68441982235615,0.835622291399622,-0.0349142403711164,0.0532259049014222,-0.545748641884881,-0.49,-1.14,9.72
13.7188237,90,90,1.666,0,0,66.25,4.3227811753312,5.70644923837952,0.835622291399622,-0.0333272294451566,0.0532259049014222,-0.545809680766648,-0.51,-1.11,9.72
13.7367324,90,90,1.6562,0,0,66.25,4.3227811753312,5.70644923837952,0.835622291399622,-0.0328999572727828,0.0532259049014222,-0.545870719648416,-0.52,-1.1,9.72
13.7538206,90,90,1.6366,0,0,66.25,4.23821897791868,5.73217344427137,0.835622291399622,-0.032472685100409,0.0532259049014222,-0.545870719648416,-0.52,-1.1,9.73
13.8568173,90,90,1.5484,0,0,66.3125,3.95880817978928,5.72478386453441,0.835622291399622,-0.0300311298297015,0.0531038271378868,-0.546053836293719,-0.54,-1.06,9.73
13.8768796,90,90,1.5386,0,0,66.3125,3.95880817978928,5.72478386453441,0.835622291399622,-0.0297869743026308,0.0530427882561191,-0.546053836293719,-0.55,-1.05,9.73
13.9878859,90,90,1.421,0,0,66.3125,3.62425418000769,5.68797528903711,0.835622291399622,-0.0269791857413172,0.052676554965513,-0.546236952939022,-0.57,-1,9.73
14.0078832,90,90,1.4112,0,0,66.3125,3.53969198259517,5.71369949492896,0.835622291399622,-0.0261856802783373,0.0526155160837453,-0.546236952939022,-0.58,-0.99,9.73
14.0239528,90,90,1.3916,0,0,66.3125,3.48454878094298,5.68428049916863,0.835622291399622,-0.0259415247512666,0.0525544772019777,-0.54629799182079,-0.58,-0.98,9.73
14.1217929,90,90,1.3034,0,0,66.3125,3.20513798281358,5.67689091943167,0.835622291399622,-0.0235610083623268,0.0521272050296039,-0.546420069584325,-0.6,-0.94,9.74
14.1398282,90,90,1.2838,0,0,66.3125,3.14999478116139,5.64747192367133,0.835622291399622,-0.023133736189953,0.0520661661478362,-0.546420069584325,-0.6,-0.93,9.74
14.1592498,90,90,1.2642,0,0,66.3125,3.14999478116139,5.64747192367133,0.835622291399622,-0.0227064640175792,0.0519440883843008,-0.546481108466093,-0.6,-0.92,9.74
14.256831,90,90,1.1956,0,0,66.3125,2.90000297879232,5.58493914228218,0.835683330281389,-0.0211194530916194,0.0512726606848563,-0.546542147347861,-0.61,-0.89,9.74
14.2779201,90,90,1.1858,0,0,66.3125,2.90000297879232,5.58493914228218,0.835683330281389,-0.0207532198010132,0.0511505829213209,-0.546542147347861,-0.61,-0.88,9.74
14.2928498,90,90,1.176,0,0,66.3125,2.90000297879232,5.58493914228218,0.835683330281389,-0.0204480253921748,0.0510895440395532,-0.546603186229628,-0.61,-0.88,9.74
14.3907765,90,90,1.1466,0,0,66.3125,2.70515437807544,5.55182535665337,0.835683330281389,-0.0193493255203565,0.0508453885124825,-0.546603186229628,-0.62,-0.86,9.74
14.4088526,90,90,1.1368,0,0,66.3125,2.70515437807544,5.55182535665337,0.835683330281389,-0.0191662088750534,0.0509064273942501,-0.546603186229628,-0.62,-0.85,9.74
14.4340531,90,90,1.1368,0,0,66.3125,2.70515437807544,5.55182535665337,0.835683330281389,-0.019044131111518,0.0509064273942501,-0.546603186229628,-0.63,-0.85,9.74
14.5328809,90,90,1.1466,0,0,66.3125,2.62059218066292,5.57754956254522,0.835744369163157,-0.0187999755844473,0.0507843496307148,-0.546542147347861,-0.63,-0.85,9.74
14.5508471,90,90,1.1466,0,0,66.3125,2.65001117642325,5.52240636089303,0.835744369163157,-0.018861014466215,0.0507233107489471,-0.546542147347861,-0.62,-0.85,9.74
14.5658513,90,90,1.1466,0,0,66.3125,2.70515437807544,5.55182535665337,0.835744369163157,-0.0189220533479827,0.0507233107489471,-0.546542147347861,-0.62,-0.85,9.74
14.5808847,90,90,1.1564,0,0,66.3125,2.70515437807544,5.55182535665337,0.835744369163157,-0.019044131111518,0.0506012329854117,-0.546542147347861,-0.62,-0.85,9.74
14.6778515,90,90,1.2054,0,0,66.3125,2.78971657548795,5.52610115076152,0.835805408044925,-0.0200817921015687,0.0504181163401086,-0.546420069584325,-0.6,-0.87,9.74
14.6969352,90,90,1.2152,0,0,66.3125,2.81913557124829,5.47095794910933,0.835805408044925,-0.0203869865104071,0.0504181163401086,-0.546420069584325,-0.6,-0.87,9.74
14.7128521,90,90,1.225,0,0,66.3125,2.87427877290047,5.50037694486967,0.835805408044925,-0.0206921809192456,0.050357077458341,-0.546420069584325,-0.6,-0.87,9.74
14.8101584,90,90,1.2936,0,0,66.3125,3.09854636937769,5.4783475288463,0.835866446926692,-0.0227675028993469,0.0502960385765733,-0.54629799182079,-0.58,-0.91,9.74
14.8298471,90,90,1.3132,0,0,66.3125,3.18310856679021,5.45262332295445,0.835866446926692,-0.0232558139534884,0.0502960385765733,-0.546236952939022,-0.57,-0.91,9.74
14.8447529,90,90,1.323,0,0,66.3125,3.18310856679021,5.45262332295445,0.835866446926692,-0.0234999694805591,0.0502960385765733,-0.546236952939022,-0.57,-0.92,9.74
14.9538576,90,90,1.4406,0,0,66.25,3.49193836067995,5.40486970103922,0.835866446926692,-0.026246719160105,0.050357077458341,-0.546053836293719,-0.54,-0.97,9.74
14.9740034,90,90,1.4504,0,0,66.25,3.54708156233213,5.43428869679956,0.835866446926692,-0.0265519135689434,0.0504181163401086,-0.546053836293719,-0.54,-0.97,9.74
14.9910746,90,90,1.47,0,0,66.25,3.60222476398432,5.46370769255989,0.835866446926692,-0.0272843801501556,0.0504791552218763,-0.545992797411951,-0.53,-0.98,9.74
15.1008746,90,90,1.568,0,0,66.25,3.96619775952624,5.445373066405,0.835866446926692,-0.0300921687114692,0.0507233107489471,-0.545870719648416,-0.5,-1.03,9.73
15.1189126,90,90,1.5876,0,0,66.25,3.96619775952624,5.445373066405,0.835866446926692,-0.0303363242385399,0.0507843496307148,-0.545809680766648,-0.5,-1.04,9.73
15.1348977,90,90,1.5974,0,0,66.25,4.02134096117842,5.47479206216534,0.835866446926692,-0.0308246352926814,0.0508453885124825,-0.545809680766648,-0.5,-1.04,9.73
15.1509759,90,90,1.617,0,0,66.25,4.10590315859094,5.44906785627349,0.835866446926692,-0.0313129463468229,0.0509064273942501,-0.545809680766648,-0.49,-1.05,9.73
15.2479588,90,90,1.6758,0,0,66.25,4.30075175930783,5.4821816419023,0.835805408044925,-0.0333882683269243,0.0513947384483916,-0.545687603003113,-0.48,-1.09,9.73
15.2667705,90,90,1.6856,0,0,66.25,4.35589496096001,5.51160063766263,0.835805408044925,-0.0335713849722273,0.0514557773301593,-0.545626564121345,-0.48,-1.1,9.73
15.2871658,90,90,1.6954,0,0,66.25,4.35589496096001,5.51160063766263,0.835805408044925,-0.0337545016175304,0.0514557773301593,-0.545626564121345,-0.48,-1.11,9.73
15.3989903,90,90,1.7346,0,0,66.25,4.60588676332909,5.57413341905178,0.835744369163157,-0.0354025514252579,0.0523713605566746,-0.545565525239578,-0.47,-1.14,9.72
15.417904,90,90,1.7444,0,0,66.25,4.60588676332909,5.57413341905178,0.835744369163157,-0.0354635903070256,0.0524323994384423,-0.545565525239578,-0.47,-1.14,9.72
15.4339061,90,90,1.7444,0,0,66.25,4.60588676332909,5.57413341905178,0.835744369163157,-0.0354635903070256,0.0524323994384423,-0.545565525239578,-0.47,-1.14,9.72
15.5329347,90,90,1.7444,0,0,66.25,4.60588676332909,5.57413341905178,0.835744369163157,-0.0354635903070256,0.0524323994384423,-0.545565525239578,-0.47,-1.14,9.72
15.5565867,90,90,1.7346,0,0,66.25,4.60588676332909,5.57413341905178,0.835744369163157,-0.0354025514252579,0.05249343832021,-0.545565525239578,-0.48,-1.14,9.72
15.6698628,90,90,1.6954,0,0,66.25,4.43676236850405,5.62558183083549,0.835744369163157,-0.0342428126716719,0.0526155160837453,-0.545626564121345,-0.49,-1.12,9.72
15.6889492,90,90,1.6856,0,0,66.25,4.38161916685186,5.59616283507515,0.835744369163157,-0.0337545016175304,0.0526155160837453,-0.545687603003113,-0.5,-1.11,9.72
15.7079497,90,90,1.6758,0,0,66.25,4.35220017109153,5.65130603672734,0.835744369163157,-0.033632423853995,0.0526155160837453,-0.545687603003113,-0.5,-1.11,9.73
15.8048268,90,90,1.6072,0,0,66.25,4.15735157037464,5.61819225109852,0.835744369163157,-0.0317402185191967,0.0525544772019777,-0.545809680766648,-0.52,-1.08,9.73
15.8227884,90,90,1.5974,0,0,66.25,4.07278937296213,5.64391645699037,0.835744369163157,-0.0312519074650552,0.05249343832021,-0.545809680766648,-0.52,-1.07,9.73
15.8398798,90,90,1.5778,0,0,66.25,4.07278937296213,5.64391645699037,0.835744369163157,-0.0308246352926814,0.05249343832021,-0.545870719648416,-0.52,-1.07,9.73
