Time (s),Setpoint (deg),Motor Position (deg),Tension 1 (N),Tension 2 (N),Tension 3 (N),Heading (deg),Pitch (deg),Roll (deg),Quaternion W,Quaternion X,Quaternion Y,Quaternion Z,Gravity X,Gravity Y,Gravity Z
0,0,0,0,0,0,0,0,0,0,0,0,0,0,0,0
0.0151812,0,0.45,0.9702,0,0,66,5.1681829962896,5.60664032793821,0.836843069034975,-0.037905145577733,0.0551181102362205,-0.543429164377709,-0.5,-1.2,9.71
0.0430178,0,0,0.9702,0,0,66,5.1681829962896,5.60664032793821,0.836843069034975,-0.037905145577733,0.0551181102362205,-0.543429164377709,-0.5,-1.2,9.71
0.063925,0,0,0.9408,0,0,66,5.1681829962896,5.60664032793821,0.836843069034975,-0.037905145577733,0.0551181102362205,-0.543429164377709,-0.5,-1.2,9.71
0.1718931,0,0,0.9212,0,0,66,5.1681829962896,5.60664032793821,0.836843069034975,-0.037905145577733,0.0551181102362205,-0.543429164377709,-0.5,-1.2,9.71
0.193022,0,0,0.9114,0,0,66,5.1681829962896,5.60664032793821,0.836843069034975,-0.037905145577733,0.0551181102362205,-0.543429164377709,-0.5,-1.2,9.71
0.214874,0,0,0.9114,0,0,66,5.1681829962896,5.60664032793821,0.836843069034975,-0.037905145577733,0.0551181102362205,-0.543429164377709,-0.5,-1.2,9.71
0.3158806,0,0,0.9016,0,0,66,5.1681829962896,5.60664032793821,0.836843069034975,-0.037905145577733,0.0551181102362205,-0.543429164377709,-0.5,-1.2,9.71
0.3378746,0,0,0.9016,0,0,66,5.1681829962896,5.60664032793821,0.836843069034975,-0.037905145577733,0.0551181102362205,-0.543429164377709,-0.5,-1.2,9.71
0.4348654,0,0,0.8918,0,0,66,5.1681829962896,5.60664032793821,0.836843069034975,-0.037905145577733,0.0551181102362205,-0.543429164377709,-0.5,-1.2,9.71
0.4508003,0,0,0.8918,0,0,66,5.1681829962896,5.60664032793821,0.836843069034975,-0.037905145577733,0.0551181102362205,-0.543429164377709,-0.5,-1.2,9.71
0.4667918,0,0,0.8918,0,0,66,5.1681829962896,5.60664032793821,0.836843069034975,-0.037905145577733,0.0551181102362205,-0.543429164377709,-0.5,-1.2,9.71
0.4818167,0,0,0.8918,0,0,66,5.1681829962896,5.60664032793821,0.836843069034975,-0.037905145577733,0.0551181102362205,-0.543429164377709,-0.5,-1.2,9.71
0.4978025,0,0,0.8918,0,0,66,5.1681829962896,5.60664032793821,0.836843069034975,-0.037905145577733,0.0551181102362205,-0.543429164377709,-0.5,-1.2,9.71
0.5137514,0,0,0.8918,0,0,66,5.1681829962896,5.60664032793821,0.836843069034975,-0.037905145577733,0.0551181102362205,-0.543429164377709,-0.5,-1.2,9.71
0.5297435,0,0,0.8918,0,0,66,5.1681829962896,5.60664032793821,0.836843069034975,-0.037905145577733,0.0551181102362205,-0.543429164377709,-0.5,-1.2,9.71
0.5467939,0,0,0.8918,0,0,66,5.1681829962896,5.60664032793821,0.836843069034975,-0.037905145577733,0.0551181102362205,-0.543429164377709,-0.5,-1.2,9.71
0.5647521,0,0,0.8918,0,0,66,5.1681829962896,5.60664032793821,0.836843069034975,-0.037905145577733,0.0551181102362205,-0.543429164377709,-0.5,-1.2,9.71
0.6729047,0,0,0.8918,0,0,66,5.1681829962896,5.60664032793821,0.836843069034975,-0.037905145577733,0.0551181102362205,-0.543429164377709,-0.5,-1.2,9.71
0.6908924,0,0,0.8918,0,0,66,5.1681829962896,5.60664032793821,0.836843069034975,-0.037905145577733,0.0551181102362205,-0.543429164377709,-0.5,-1.2,9.71
0.7057658,0,0,0.8918,0,0,66,5.1681829962896,5.60664032793821,0.836843069034975,-0.037905145577733,0.0551181102362205,-0.543429164377709,-0.5,-1.2,9.71
0.7218973,0,0,0.8918,0,0,66,5.1681829962896,5.60664032793821,0.836843069034975,-0.037905145577733,0.0551181102362205,-0.543429164377709,-0.5,-1.2,9.71
0.8228863,0,0,0.8918,0,0,66,5.1681829962896,5.60664032793821,0.836843069034975,-0.0379661844595007,0.0551181102362205,-0.543429164377709,-0.5,-1.21,9.71
0.8419135,0,0,0.8918,0,0,66,5.1681829962896,5.60664032793821,0.836843069034975,-0.0379661844595007,0.0551181102362205,-0.543429164377709,-0.5,-1.21,9.71
0.8569325,0,0,0.8918,0,0,66,5.1681829962896,5.60664032793821,0.836843069034975,-0.0379661844595007,0.0551181102362205,-0.543429164377709,-0.5,-1.21,9.71
0.959985,0,0,0.9016,0,0,66,5.1681829962896,5.60664032793821,0.836843069034975,-0.0379661844595007,0.0551181102362205,-0.543429164377709,-0.5,-1.21,9.71
0.980029,0,0,0.9016,0,0,66,5.1681829962896,5.60664032793821,0.836843069034975,-0.0379661844595007,0.0551181102362205,-0.543429164377709,-0.5,-1.21,9.71
0.9992275,0,0,0.9016,0,0,66,5.1681829962896,5.60664032793821,0.836843069034975,-0.0379661844595007,0.0551181102362205,-0.543429164377709,-0.5,-1.21,9.71
1.1288521,0,0,0.9212,0,0,66,5.1681829962896,5.60664032793821,0.836843069034975,-0.0379661844595007,0.0551181102362205,-0.543429164377709,-0.5,-1.21,9.71
1.147786,0,0,0.9212,0,0,66,5.1681829962896,5.60664032793821,0.836843069034975,-0.0379661844595007,0.0551181102362205,-0.543429164377709,-0.5,-1.21,9.71
1.1638702,0,0,0.9212,0,0,66,5.1681829962896,5.60664032793821,0.836843069034975,-0.0379661844595007,0.0551181102362205,-0.543429164377709,-0.5,-1.21,9.71
1.2698597,0,0,0.931,0,0,66,5.1681829962896,5.60664032793821,0.836843069034975,-0.0379661844595007,0.0551181102362205,-0.543429164377709,-0.5,-1.21,9.71
1.287968,0,0,0.931,0,0,66,5.1681829962896,5.60664032793821,0.836843069034975,-0.0379661844595007,0.0551181102362205,-0.543429164377709,-0.5,-1.21,9.71
1.3050163,0,0,0.931,0,0,66,5.1681829962896,5.60664032793821,0.836843069034975,-0.0379661844595007,0.0551181102362205,-0.543429164377709,-0.5,-1.21,9.71
1.4097441,0,0,0.9408,0,0,66,5.1681829962896,5.60664032793821,0.836843069034975,-0.0379661844595007,0.0551181102362205,-0.543429164377709,-0.5,-1.21,9.71
1.4309365,0,0,0.9408,0,0,66,5.1681829962896,5.60664032793821,0.836843069034975,-0.0379661844595007,0.0551181102362205,-0.543429164377709,-0.5,-1.21,9.71
1.4488706,0,0,0.9408,0,0,66,5.1681829962896,5.60664032793821,0.836843069034975,-0.0379661844595007,0.0551181102362205,-0.543429164377709,-0.5,-1.21,9.71
1.553882,0,0,0.9506,0,0,66,5.1681829962896,5.60664032793821,0.836843069034975,-0.0379661844595007,0.0551181102362205,-0.543429164377709,-0.5,-1.21,9.71
1.5718724,0,0,0.9506,0,0,66,5.1681829962896,5.60664032793821,0.836843069034975,-0.0379661844595007,0.0551181102362205,-0.543429164377709,-0.5,-1.21,9.71
1.5870568,0,0,0.9506,0,0,66,5.1681829962896,5.60664032793821,0.836843069034975,-0.0379661844595007,0.0551181102362205,-0.543429164377709,-0.5,-1.21,9.71
1.6899843,0,0,0.9506,0,0,66,5.1681829962896,5.60664032793821,0.836843069034975,-0.0379661844595007,0.0551181102362205,-0.543429164377709,-0.5,-1.21,9.71
1.7088722,0,0,0.9506,0,0,66,5.1681829962896,5.60664032793821,0.836843069034975,-0.0379661844595007,0.0551181102362205,-0.543429164377709,-0.5,-1.21,9.71
1.723869,0,0,0.9506,0,0,66,5.1681829962896,5.60664032793821,0.836843069034975,-0.0379661844595007,0.0551181102362205,-0.543429164377709,-0.5,-1.21,9.71
1.7389409,0,0,0.9506,0,0,66,5.1681829962896,5.60664032793821,0.836843069034975,-0.0379661844595007,0.0551181102362205,-0.543429164377709,-0.5,-1.21,9.71
1.8419285,0,0,0.9506,0,0,66,5.1681829962896,5.60664032793821,0.836843069034975,-0.0379661844595007,0.0551181102362205,-0.543429164377709,-0.5,-1.21,9.71
1.8619381,0,0,0.9506,0,0,66,5.1681829962896,5.60664032793821,0.836843069034975,-0.0379661844595007,0.0551181102362205,-0.543429164377709,-0.5,-1.21,9.71
1.8800227,0,0,0.9506,0,0,66,5.1681829962896,5.60664032793821,0.836843069034975,-0.0379661844595007,0.0551181102362205,-0.543429164377709,-0.5,-1.21,9.71
2.0009617,0,0,0.9408,0,0,66,5.1681829962896,5.60664032793821,0.836843069034975,-0.0379661844595007,0.0551181102362205,-0.543429164377709,-0.5,-1.21,9.71
2.0200003,0,0,0.9408,0,0,66,5.1681829962896,5.60664032793821,0.836843069034975,-0.0379661844595007,0.0551181102362205,-0.543429164377709,-0.5,-1.21,9.71
2.035969,0,0,0.931,0,0,66,5.1681829962896,5.60664032793821,0.836843069034975,-0.0379661844595007,0.0551181102362205,-0.543429164377709,-0.5,-1.21,9.71
2.1398248,0,0,0.9212,0,0,66,5.1681829962896,5.60664032793821,0.836843069034975,-0.0379661844595007,0.0551181102362205,-0.543429164377709,-0.5,-1.21,9.71
2.1588481,0,0,0.9212,0,0,66,5.1681829962896,5.60664032793821,0.836843069034975,-0.0379661844595007,0.0551181102362205,-0.543429164377709,-0.5,-1.21,9.71
2.1748837,0,0,0.9212,0,0,66,5.1681829962896,5.60664032793821,0.836843069034975,-0.0379661844595007,0.0551181102362205,-0.543429164377709,-0.5,-1.21,9.71
2.2759071,0,0,0.9114,0,0,66,5.1681829962896,5.60664032793821,0.836843069034975,-0.0379661844595007,0.0551181102362205,-0.543429164377709,-0.5,-1.21,9.71
2.293901,0,0,0.9114,0,0,66,5.1681829962896,5.60664032793821,0.836843069034975,-0.0379661844595007,0.0551181102362205,-0.543429164377709,-0.5,-1.21,9.71
2.3088956,0,0,0.9114,0,0,66,5.1681829962896,5.60664032793821,0.836843069034975,-0.0379661844595007,0.0551181102362205,-0.543429164377709,-0.5,-1.21,9.71
2.3259424,0,0,0.9114,0,0,66,5.1681829962896,5.60664032793821,0.836843069034975,-0.0379661844595007,0.0551181102362205,-0.543429164377709,-0.5,-1.21,9.71
2.4250495,0,0,0.9016,0,0,66,5.1681829962896,5.60664032793821,0.836843069034975,-0.0379661844595007,0.0551181102362205,-0.543429164377709,-0.5,-1.21,9.71
2.4439867,0,0,0.9016,0,0,66,5.1681829962896,5.60664032793821,0.836843069034975,-0.0379661844595007,0.0551181102362205,-0.543429164377709,-0.5,-1.21,9.71
2.4599889,0,0,0.9016,0,0,66,5.1681829962896,5.60664032793821,0.836843069034975,-0.0379661844595007,0.0551181102362205,-0.543429164377709,-0.5,-1.21,9.71
2.5610171,0,0,0.8918,0,0,66,5.1681829962896,5.60664032793821,0.836843069034975,-0.0379661844595007,0.0551181102362205,-0.543429164377709,-0.5,-1.21,9.71
2.5829096,0,0,0.8918,0,0,66,5.1681829962896,5.60664032793821,0.836843069034975,-0.0379661844595007,0.0551181102362205,-0.543429164377709,-0.5,-1.21,9.71
2.6000329,0,0,0.8918,0,0,66,5.1681829962896,5.60664032793821,0.836843069034975,-0.0379661844595007,0.0551181102362205,-0.543429164377709,-0.5,-1.21,9.71
2.7029469,0,0,0.8918,0,0,66,5.1681829962896,5.60664032793821,0.836843069034975,-0.0379661844595007,0.0551181102362205,-0.543429164377709,-0.5,-1.21,9.71
2.7208616,0,0,0.8918,0,0,66,5.1681829962896,5.60664032793821,0.836843069034975,-0.0379661844595007,0.0551181102362205,-0.543429164377709,-0.5,-1.21,9.71
2.7370443,0,0,0.8918,0,0,66,5.1681829962896,5.60664032793821,0.836843069034975,-0.0379661844595007,0.0551181102362205,-0.543429164377709,-0.5,-1.21,9.71
2.8359304,0,0,0.9016,0,0,66,5.1681829962896,5.60664032793821,0.836843069034975,-0.0379661844595007,0.0551181102362205,-0.543429164377709,-0.5,-1.21,9.71
2.8569884,0,0,0.9016,0,0,66,5.1681829962896,5.60664032793821,0.836843069034975,-0.0379661844595007,0.0551181102362205,-0.543429164377709,-0.5,-1.21,9.71
2.8728711,0,0,0.9016,0,0,66,5.1681829962896,5.60664032793821,0.836843069034975,-0.0379661844595007,0.0551181102362205,-0.543429164377709,-0.5,-1.21,9.71
2.9729286,0,0,0.9016,0,0,66,5.1681829962896,5.60664032793821,0.836843069034975,-0.0379661844595007,0.0551181102362205,-0.543429164377709,-0.5,-1.21,9.71
2.9909199,0,0,0.9016,0,0,66,5.1681829962896,5.60664032793821,0.836843069034975,-0.0379661844595007,0.0551181102362205,-0.543429164377709,-0.5,-1.21,9.71
3.0069671,0,0,0.9016,0,0,66,5.1681829962896,5.60664032793821,0.836843069034975,-0.0379661844595007,0.0551181102362205,-0.543429164377709,-0.5,-1.21,9.71
3.1079975,90,0,0.9114,0,0,66,5.1681829962896,5.60664032793821,0.836843069034975,-0.0379661844595007,0.0551181102362205,-0.543429164377709,-0.5,-1.21,9.71
3.1270217,90,1.35,0.9212,0,0,66,5.1681829962896,5.60664032793821,0.836843069034975,-0.0379661844595007,0.0551181102362205,-0.543429164377709,-0.5,-1.21,9.71
3.1440565,90,3.15,0.931,0,0,66,5.1681829962896,5.60664032793821,0.836843069034975,-0.0379661844595007,0.0551181102362205,-0.543429164377709,-0.5,-1.21,9.71
3.2459397,90,33.3,1.3034,0,0,66,5.1681829962896,5.60664032793821,0.836843069034975,-0.0379661844595007,0.0551181102362205,-0.543429164377709,-0.5,-1.21,9.71
3.2638895,90,41.85,1.4798,0,0,66,5.1681829962896,5.60664032793821,0.836843069034975,-0.0379661844595007,0.0551181102362205,-0.543429164377709,-0.5,-1.21,9.71
3.279871,90,50.4,1.5778,0,0,66,5.1681829962896,5.60664032793821,0.836843069034975,-0.0379661844595007,0.0551181102362205,-0.543429164377709,-0.5,-1.21,9.71
3.295128,90,58.05,1.8032,0,0,66,5.1681829962896,5.60664032793821,0.836843069034975,-0.0379661844595007,0.0551181102362205,-0.543429164377709,-0.5,-1.21,9.71
3.3958913,90,87.3,2.646,0,0,66,5.11162201989283,5.58004886410027,0.836843069034975,-0.0375389122871269,0.0549349935909174,-0.543490203259476,-0.5,-1.2,9.71
3.4140059,90,89.55,2.7538,0,0,66,5.11162201989283,5.58004886410027,0.836843069034975,-0.0374168345235915,0.0548739547091497,-0.543490203259476,-0.5,-1.19,9.72
3.431971,90,90,2.8028,0,0,66,5.08503055605489,5.63660984049704,0.836843069034975,-0.0371116401147531,0.0548739547091497,-0.543490203259476,-0.5,-1.19,9.72
3.5349761,90,90,2.7832,0,0,66,4.80560372279195,5.64336593793883,0.836843069034975,-0.0349752792528841,0.054812915827382,-0.543673319904779,-0.52,-1.15,9.72
3.5550638,90,90,2.7636,0,0,66,4.74904274639518,5.61677447410089,0.836843069034975,-0.0344259293169749,0.0547518769456144,-0.543673319904779,-0.53,-1.14,9.72
3.5709452,90,90,2.7538,0,0,66,4.66589030616048,5.64674398665972,0.836843069034975,-0.0338765793810657,0.0547518769456144,-0.543734358786547,-0.53,-1.13,9.72
3.6878649,90,90,2.6068,0,0,66,4.22015859242812,5.71343910921916,0.836843069034975,-0.02954281877556,0.0544466825367759,-0.543978514313618,-0.57,-1.07,9.73
3.7059895,90,90,2.5676,0,0,66,4.16359761603136,5.68684764538123,0.836843069034975,-0.0287493133125801,0.0543856436550082,-0.544039553195385,-0.58,-1.05,9.73
3.7210905,90,90,2.548,0,0,66,4.08044517579665,5.71681715794006,0.836843069034975,-0.0283220411402063,0.0543856436550082,-0.544100592077153,-0.59,-1.04,9.73
3.7413298,90,90,2.5186,0,0,66.0625,3.96732322300312,5.66363423026418,0.836843069034975,-0.0274674967954587,0.0543246047732406,-0.544100592077153,-0.59,-1.03,9.73
3.8558917,90,90,2.3226,0,0,66.0625,3.38187809263929,5.73370740154452,0.836843069034975,-0.0222181529634377,0.0538973326008668,-0.544405786485992,-0.64,-0.94,9.73
3.8739508,90,90,2.303,0,0,66.0625,3.32531711624252,5.70711593770658,0.836843069034975,-0.0217908807910639,0.0538973326008668,-0.544466825367759,-0.65,-0.92,9.74
3.8910714,90,90,2.2638,0,0,66.0625,3.24216467600782,5.73708545026541,0.836843069034975,-0.0209363364463163,0.0538362937190991,-0.544527864249527,-0.66,-0.91,9.74
3.9920635,90,90,2.1168,0,0,66.125,2.7398719858787,5.77718910898692,0.836782030153208,-0.0167856924861137,0.0535921381920283,-0.544772019776598,-0.7,-0.84,9.74
4.0110206,90,90,2.0776,0,0,66.125,2.65671954564399,5.80715862154575,0.836782030153208,-0.0159921870231337,0.0535310993102606,-0.544772019776598,-0.7,-0.83,9.74
4.0281288,90,90,2.058,0,0,66.125,2.51700612901252,5.81053667026665,0.836782030153208,-0.0151376426783861,0.0535310993102606,-0.544833058658365,-0.71,-0.82,9.74
4.1310552,90,90,1.9208,0,0,66.125,2.0147134388834,5.85064032898815,0.836782030153208,-0.0105597265458097,0.0532869437831899,-0.544955136421901,-0.76,-0.73,9.74
4.1499952,90,90,1.8914,0,0,66.125,1.95815246248663,5.82404886515022,0.836782030153208,-0.00976622108282976,0.0532259049014222,-0.544955136421901,-0.76,-0.72,9.74
4.1650053,90,90,1.8816,0,0,66.125,1.87500002225193,5.85401837770905,0.836782030153208,-0.00897271561984984,0.0531648660196545,-0.545016175303668,-0.77,-0.71,9.74
4.2771082,90,90,1.7934,0,0,66.125,1.42926830851958,5.92071350026849,0.836782030153208,-0.00531038271378868,0.0529817493743515,-0.545016175303668,-0.81,-0.65,9.75
4.2972912,90,90,1.7836,0,0,66.125,1.37270733212281,5.89412203643056,0.836782030153208,-0.00488311054141488,0.0529207104925838,-0.545016175303668,-0.81,-0.64,9.75
4.3169034,90,90,1.7836,0,0,66.125,1.31614635572604,5.86753057259262,0.836782030153208,-0.00451687725080877,0.0528596716108161,-0.545016175303668,-0.81,-0.63,9.75
4.421073,90,90,1.7836,0,0,66.125,1.17643293909457,5.87090862131351,0.836843069034975,-0.00317402185191967,0.0527986327290484,-0.544955136421901,-0.83,-0.61,9.75
4.4420978,90,90,1.7836,0,0,66.125,1.17643293909457,5.87090862131351,0.836843069034975,-0.00311298297015199,0.0527986327290484,-0.544955136421901,-0.83,-0.61,9.75
4.4590432,90,90,1.7934,0,0,66.125,1.14984147525663,5.92746959771028,0.836904107916743,-0.00311298297015199,0.0528596716108161,-0.544955136421901,-0.83,-0.61,9.75
4.5630284,90,90,1.862,0,0,66.125,1.2895548918881,5.92409154898939,0.836965146798511,-0.00415064396020265,0.0529817493743515,-0.544833058658365,-0.82,-0.63,9.75
4.5820645,90,90,1.8816,0,0,66.0625,1.37270733212281,5.89412203643056,0.836965146798511,-0.00476103277787951,0.0530427882561191,-0.544772019776598,-0.81,-0.64,9.75
4.6000085,90,90,1.9012,0,0,66.0625,1.37270733212281,5.89412203643056,0.836965146798511,-0.00500518830495025,0.0530427882561191,-0.544772019776598,-0.81,-0.65,9.75
4.6990281,90,90,2.0286,0,0,66.0625,1.70869514178252,5.91395740282671,0.837026185680278,-0.00793505462979918,0.0533479826649576,-0.544588903131295,-0.78,-0.7,9.74
4.7203635,90,90,2.058,0,0,66.0625,1.79184758201723,5.88398789026788,0.837026185680278,-0.00866752121101141,0.0534090215467253,-0.544527864249527,-0.78,-0.71,9.74
4.7382038,90,90,2.0776,0,0,66.0625,1.84840855841399,5.91057935410582,0.837026185680278,-0.00903375450161753,0.0534700604284929,-0.544527864249527,-0.78,-0.71,9.74
4.8390335,90,90,2.2442,0,0,66.0625,2.29414027214635,5.84388423154637,0.837087224562046,-0.0128181651712141,0.0538362937190991,-0.544344747604224,-0.73,-0.79,9.74
4.8570374,90,90,2.2638,0,0,66,2.43385368877782,5.84050618282548,0.837148263443814,-0.0140389428065678,0.0538973326008668,-0.544283708722456,-0.73,-0.8,9.74
4.8720998,90,90,2.2932,0,0,66,2.49041466517459,5.86709764666341,0.837148263443814,-0.0144662149789416,0.0539583714826344,-0.544222669840689,-0.73,-0.81,9.74
4.8880492,90,90,2.3128,0,0,66,2.49041466517459,5.86709764666341,0.837148263443814,-0.0148324482695477,0.0540194103644021,-0.544222669840689,-0.72,-0.83,9.74
5.0261331,90,90,2.5284,0,0,66,3.21557321216988,5.79364642666218,0.837148263443814,-0.020997375328084,0.0545077214185436,-0.54391747543185,-0.67,-0.92,9.73
5.0542236,90,90,2.5578,0,0,66,3.32869516496342,5.84682935433806,0.837148263443814,-0.02215711408167,0.0546908380638467,-0.543856436550082,-0.66,-0.94,9.73
5.0710761,90,90,2.5872,0,0,66,3.41184760519812,5.81685984177923,0.837148263443814,-0.0225843862540438,0.0546908380638467,-0.543856436550082,-0.65,-0.96,9.73
5.1860558,90,90,2.7146,0,0,66,3.91414029532724,5.77675618305772,0.837148263443814,-0.0268571079777818,0.0551181102362205,-0.543673319904779,-0.61,-1.02,9.73
5.2040269,90,90,2.7244,0,0,66,3.97070127172401,5.80334764689565,0.837087224562046,-0.0274674967954587,0.0551791491179882,-0.543673319904779,-0.61,-1.03,9.73
5.219997,90,90,2.744,0,0,66,3.97070127172401,5.80334764689565,0.837087224562046,-0.0277116523225295,0.0551791491179882,-0.543673319904779,-0.6,-1.04,9.73
5.3360536,90,90,2.8028,0,0,66,4.30668908138372,5.82318301329181,0.837026185680278,-0.0302752853567723,0.055606421290362,-0.543612281023012,-0.58,-1.08,9.72
5.3550651,90,90,2.8028,0,0,66,4.33328054522166,5.76662203689504,0.837026185680278,-0.030519440883843,0.055606421290362,-0.543612281023012,-0.58,-1.09,9.72
5.3732112,90,90,2.8028,0,0,66,4.33328054522166,5.76662203689504,0.836965146798511,-0.0307635964109138,0.055606421290362,-0.543612281023012,-0.58,-1.09,9.72
5.4931052,90,90,2.7734,0,0,66,4.38984152161843,5.79321350073298,0.836904107916743,-0.0311908685832876,0.055606421290362,-0.543734358786547,-0.58,-1.1,9.72
5.5140668,90,90,2.7636,0,0,66,4.38984152161843,5.79321350073298,0.836904107916743,-0.0310077519379845,0.055606421290362,-0.543734358786547,-0.58,-1.1,9.72
5.5300939,90,90,2.7636,0,0,66,4.38984152161843,5.79321350073298,0.836904107916743,-0.0308246352926814,0.055606421290362,-0.543795397668315,-0.58,-1.09,9.72
5.6389822,90,90,2.6754,0,0,66,4.16697566475225,5.8265610620127,0.836843069034975,-0.0285661966672771,0.0554843435268266,-0.543978514313618,-0.6,-1.06,9.73
5.6579337,90,90,2.646,0,0,66,4.11041468835548,5.79996959817476,0.836843069034975,-0.0283220411402063,0.0554843435268266,-0.543978514313618,-0.61,-1.05,9.73
5.6730384,90,90,2.6362,0,0,66,4.02726224812078,5.82993911073359,0.836843069034975,-0.0277116523225295,0.0554843435268266,-0.544039553195385,-0.61,-1.04,9.73
5.7861325,90,90,2.4892,0,0,66.0625,3.60812199822636,5.84007325689627,0.836843069034975,-0.0238662027711652,0.0552401879997558,-0.544283708722456,-0.65,-0.98,9.73
5.8059958,90,90,2.45,0,0,66.0625,3.46840858159489,5.84345130561716,0.836843069034975,-0.0230726973081853,0.0551791491179882,-0.544344747604224,-0.65,-0.96,9.73
5.8219398,90,90,2.4304,0,0,66.0625,3.38525614136018,5.87342081817599,0.836782030153208,-0.0223402307269731,0.0551791491179882,-0.544344747604224,-0.66,-0.95,9.73
5.9369396,90,90,2.2638,0,0,66.0625,2.88296345123106,5.9135244768975,0.836782030153208,-0.0178233534761643,0.0548739547091497,-0.544649942013062,-0.71,-0.87,9.74
5.9571838,90,90,2.2246,0,0,66.0625,2.79981101099636,5.94349398945633,0.836782030153208,-0.0169688091314167,0.0548739547091497,-0.544649942013062,-0.72,-0.85,9.74
5.9749886,90,90,2.205,0,0,66.125,2.74325003459959,5.91690252561839,0.83672099127144,-0.0166025758408106,0.054812915827382,-0.54471098089483,-0.72,-0.85,9.74
6.0751538,90,90,2.058,0,0,66.125,2.29751832086724,5.98359764817784,0.83672099127144,-0.0125740096441433,0.054629799182079,-0.544894097540133,-0.76,-0.78,9.74
6.0930429,90,90,2.0384,0,0,66.125,2.15780490423577,5.98697569689873,0.83672099127144,-0.0114142708905573,0.0545077214185436,-0.544955136421901,-0.77,-0.77,9.74
6.1081042,90,90,2.009,0,0,66.125,2.101243927839,5.9603842330608,0.83672099127144,-0.0110480375999512,0.0544466825367759,-0.544955136421901,-0.77,-0.75,9.74
6.1250225,90,90,1.9992,0,0,66.125,2.101243927839,5.9603842330608,0.836659952389672,-0.0106818043093451,0.0544466825367759,-0.544955136421901,-0.78,-0.75,9.74
6.2300565,90,90,1.8914,0,0,66.125,1.59895123770988,6.0004878917823,0.836659952389672,-0.00659219923091009,0.0540194103644021,-0.545138253067204,-0.81,-0.68,9.74
6.2479938,90,90,1.8718,0,0,66.125,1.54239026131311,5.97389642794437,0.836659952389672,-0.00598181041323323,0.0539583714826344,-0.545138253067204,-0.82,-0.67,9.74
6.2650242,90,90,1.862,0,0,66.125,1.54239026131311,5.97389642794437,0.836659952389672,-0.00573765488616249,0.0538973326008668,-0.545138253067204,-0.82,-0.66,9.74
6.3623084,90,90,1.813,0,0,66.125,1.26296342805017,5.98065252538615,0.836659952389672,-0.00384544955136422,0.0535921381920283,-0.545138253067204,-0.83,-0.63,9.75
6.3820308,90,90,1.8032,0,0,66.125,1.2064024516534,5.95406106154822,0.83672099127144,-0.00341817737899042,0.0535310993102606,-0.545138253067204,-0.84,-0.62,9.75
6.399104,90,90,1.8032,0,0,66.125,1.2064024516534,5.95406106154822,0.83672099127144,-0.00323506073368736,0.0534700604284929,-0.545138253067204,-0.84,-0.62,9.75
6.5010323,90,90,1.813,0,0,66.125,1.2064024516534,5.95406106154822,0.83672099127144,-0.00329609961545504,0.0535310993102606,-0.545138253067204,-0.84,-0.62,9.75
6.5211507,90,90,1.8228,0,0,66.125,1.26296342805017,5.98065252538615,0.83672099127144,-0.00354025514252579,0.0535310993102606,-0.545138253067204,-0.84,-0.63,9.75
6.5371385,90,90,1.8326,0,0,66.125,1.26296342805017,5.98065252538615,0.83672099127144,-0.00384544955136422,0.0535310993102606,-0.545077214185436,-0.83,-0.63,9.75
6.6783161,90,90,1.96,0,0,66.125,1.54239026131311,5.97389642794437,0.836782030153208,-0.00701947140328389,0.0538362937190991,-0.544955136421901,-0.8,-0.69,9.74
6.7006363,90,90,1.9698,0,0,66.125,1.68210367794458,5.97051837922347,0.836782030153208,-0.00762986022096075,0.0538973326008668,-0.544894097540133,-0.8,-0.7,9.74
6.7250216,90,90,2.009,0,0,66.125,1.76525611817929,5.94054886666464,0.836782030153208,-0.00817921015686993,0.0539583714826344,-0.544894097540133,-0.79,-0.71,9.74
6.8372448,90,90,2.156,0,0,66.0625,2.1843963680737,5.93041472050197,0.836904107916743,-0.0122688152353049,0.0542025270097052,-0.544649942013062,-0.75,-0.78,9.74
6.8571315,90,90,2.1854,0,0,66.0625,2.26754880830841,5.90044520794314,0.836904107916743,-0.012635048525911,0.0542635658914729,-0.544649942013062,-0.75,-0.78,9.74
6.8741387,90,90,2.205,0,0,66.0625,2.32410978470518,5.92703667178107,0.836904107916743,-0.0133675151071232,0.0543246047732406,-0.544588903131295,-0.74,-0.8,9.74
6.9882604,90,90,2.3716,0,0,66.0625,2.8264024748343,5.88693301305956,0.836965146798511,-0.0174571201855582,0.0546908380638467,-0.544405786485992,-0.7,-0.87,9.74
7.0091093,90,90,2.4108,0,0,66.0625,2.909554915069,5.85696350050073,0.836965146798511,-0.0181285478850027,0.0547518769456144,-0.544344747604224,-0.7,-0.88,9.74
7.0283101,90,90,2.4402,0,0,66.0625,2.96611589146577,5.88355496433867,0.836965146798511,-0.0187999755844473,0.054812915827382,-0.544283708722456,-0.69,-0.89,9.74
7.1480974,90,90,2.5872,0,0,66,3.44181711775695,5.90001228201393,0.836965146798511,-0.0226454251358115,0.0553012268815235,-0.544100592077153,-0.66,-0.96,9.73
7.1671037,90,90,2.6068,0,0,66,3.52496955799166,5.8700427694551,0.836965146798511,-0.0231947750717207,0.0553622657632912,-0.544039553195385,-0.65,-0.97,9.73
7.1830739,90,90,2.6264,0,0,66,3.58153053438842,5.89663423329304,0.836965146798511,-0.0237441250076299,0.0554233046450589,-0.543978514313618,-0.65,-0.98,9.73
7.3173983,90,90,2.7244,0,0,66,4.00067078428284,5.88650008713036,0.836904107916743,-0.0276506134407618,0.0559116156992004,-0.54391747543185,-0.62,-1.04,9.73
7.3394959,90,90,2.7342,0,0,66,4.05723176067961,5.9130915509683,0.836904107916743,-0.0280168467313679,0.0560336934627358,-0.54391747543185,-0.62,-1.05,9.72
7.3560329,90,90,2.744,0,0,66,4.08382322451754,5.85653057457153,0.836904107916743,-0.0281999633766709,0.0560336934627358,-0.54391747543185,-0.61,-1.06,9.72
7.4671382,90,90,2.7538,0,0,66,4.22353664114902,5.85315252585064,0.836782030153208,-0.0296648965390954,0.0560947323445034,-0.54391747543185,-0.6,-1.08,9.72
7.4861539,90,90,2.7538,0,0,66,4.22353664114902,5.85315252585064,0.836782030153208,-0.0297259354208631,0.0561557712262711,-0.543978514313618,-0.6,-1.08,9.72
7.5031407,90,90,2.744,0,0,66,4.28009761754578,5.87974398968857,0.836782030153208,-0.0297259354208631,0.0561557712262711,-0.543978514313618,-0.6,-1.08,9.72
7.6069791,90,90,2.7048,0,0,66.0625,4.14038420091431,5.88312203840947,0.83672099127144,-0.0288713910761155,0.0562168101080388,-0.544100592077153,-0.61,-1.07,9.72
7.6251749,90,90,2.6852,0,0,66.0625,4.14038420091431,5.88312203840947,0.83672099127144,-0.0285051577855094,0.0562168101080388,-0.544100592077153,-0.61,-1.06,9.72
7.6430964,90,90,2.6754,0,0,66.0625,4.08382322451754,5.85653057457153,0.83672099127144,-0.0283220411402063,0.0562168101080388,-0.544161630958921,-0.62,-1.06,9.72
7.7540737,90,90,2.5676,0,0,66.0625,3.77780492741666,5.91984764841008,0.836659952389672,-0.0253311359335897,0.0560336934627358,-0.544344747604224,-0.64,-1.01,9.73
7.7720009,90,90,2.548,0,0,66.0625,3.77780492741666,5.91984764841008,0.836659952389672,-0.0250259415247513,0.0560336934627358,-0.544405786485992,-0.65,-1,9.73
7.7880927,90,90,2.5186,0,0,66.0625,3.63809151078519,5.92322569713098,0.836659952389672,-0.0243545138253067,0.0559726545809681,-0.544405786485992,-0.65,-0.99,9.73
7.8971297,90,90,2.3814,0,0,66.125,3.19235979705284,5.98992081969042,0.836598913507904,-0.0204480253921748,0.0558505768174327,-0.544649942013062,-0.69,-0.93,9.73
7.916122,90,90,2.352,0,0,66.125,3.13579882065607,5.96332935585248,0.836598913507904,-0.020020753219801,0.055789537935665,-0.54471098089483,-0.7,-0.91,9.73
7.9320148,90,90,2.3324,0,0,66.125,3.05264638042137,5.99329886841131,0.836598913507904,-0.0192882866385888,0.0557284990538973,-0.54471098089483,-0.71,-0.9,9.73
8.0421115,90,90,2.1658,0,0,66.125,2.55035369029225,6.03340252713282,0.836537874626137,-0.0151376426783861,0.0554843435268266,-0.544955136421901,-0.75,-0.83,9.74
8.0610569,90,90,2.156,0,0,66.125,2.55035369029225,6.03340252713282,0.836537874626137,-0.0143441372154062,0.0554233046450589,-0.545016175303668,-0.75,-0.82,9.74
8.0772328,90,90,2.1266,0,0,66.125,2.41064027366077,6.03678057585372,0.836537874626137,-0.013611670634194,0.0553622657632912,-0.545077214185436,-0.76,-0.81,9.74
8.1932653,90,90,1.9992,0,0,66.1875,1.99150002376636,6.04691472201639,0.836476835744369,-0.00982725996459745,0.0549960324726851,-0.545199291948972,-0.8,-0.74,9.74
8.2222554,90,90,1.96,0,0,66.1875,1.90834758353165,6.07688423457522,0.836476835744369,-0.00854544344747604,0.0548739547091497,-0.545260330830739,-0.8,-0.72,9.74
8.3220246,90,90,1.8816,0,0,66.1875,1.57235977387194,6.05704886817907,0.836476835744369,-0.0061038881767686,0.0545077214185436,-0.545321369712507,-0.82,-0.68,9.74
8.3411194,90,90,1.8718,0,0,66.1875,1.51579879747517,6.03045740434113,0.836476835744369,-0.00561557712262711,0.0544466825367759,-0.545382408594275,-0.83,-0.67,9.74
8.360215,90,90,1.862,0,0,66.1875,1.48920733363724,6.0870183807379,0.836476835744369,-0.00549349935909174,0.0543856436550082,-0.545382408594275,-0.83,-0.67,9.74
8.4612181,90,90,1.8326,0,0,66.1875,1.31952440444693,6.00724398922409,0.836537874626137,-0.00396752731489959,0.0540194103644021,-0.545382408594275,-0.84,-0.64,9.74
8.4812896,90,90,1.8326,0,0,66.1875,1.292932940609,6.06380496562086,0.836537874626137,-0.0039064884331319,0.0540194103644021,-0.545382408594275,-0.84,-0.64,9.74
8.5031158,90,90,1.8424,0,0,66.1875,1.292932940609,6.06380496562086,0.836537874626137,-0.0039064884331319,0.0540194103644021,-0.545382408594275,-0.84,-0.64,9.74
8.6030766,90,90,1.8718,0,0,66.1875,1.3760853808437,6.03383545306203,0.836537874626137,-0.00476103277787951,0.0540804492461698,-0.545321369712507,-0.83,-0.65,9.74
8.6211194,90,90,1.8816,0,0,66.1875,1.45923782107841,6.0038659405032,0.836537874626137,-0.00506622718671794,0.0540804492461698,-0.545321369712507,-0.83,-0.66,9.74
8.6361473,90,90,1.8816,0,0,66.1875,1.45923782107841,6.0038659405032,0.836537874626137,-0.00543246047732406,0.0541414881279375,-0.545321369712507,-0.82,-0.66,9.74
8.6554714,90,90,1.9012,0,0,66.1875,1.45923782107841,6.0038659405032,0.836537874626137,-0.00561557712262711,0.0541414881279375,-0.545260330830739,-0.82,-0.67,9.74
8.7621452,90,90,1.9992,0,0,66.125,1.79522563073812,6.02370130689935,0.836598913507904,-0.00824024903863761,0.0543246047732406,-0.545138253067204,-0.8,-0.71,9.74
8.7821482,90,90,2.0286,0,0,66.125,1.87837807097282,5.99373179434052,0.836598913507904,-0.00885063785631447,0.0543856436550082,-0.545138253067204,-0.79,-0.72,9.74
8.7981617,90,90,2.0482,0,0,66.125,1.93493904736959,6.02032325817846,0.836659952389672,-0.00939998779222365,0.0544466825367759,-0.545077214185436,-0.79,-0.73,9.74
8.8981945,90,90,2.1756,0,0,66.125,2.29751832086724,5.98359764817784,0.836659952389672,-0.0125740096441433,0.054629799182079,-0.544894097540133,-0.76,-0.79,9.74
8.9160827,90,90,2.1952,0,0,66.125,2.38067076110194,5.95362813561901,0.83672099127144,-0.0132454373435879,0.0546908380638467,-0.544894097540133,-0.75,-0.8,9.74
8.9322272,90,90,2.2246,0,0,66.125,2.38067076110194,5.95362813561901,0.83672099127144,-0.0135506317524263,0.0547518769456144,-0.544894097540133,-0.75,-0.81,9.74
9.0311956,90,90,2.352,0,0,66.0625,2.79981101099636,5.94349398945633,0.83672099127144,-0.0170298480131844,0.0550570713544528,-0.544649942013062,-0.72,-0.86,9.74
9.0501215,90,90,2.3814,0,0,66.0625,2.88296345123106,5.9135244768975,0.83672099127144,-0.0176402368308613,0.0551181102362205,-0.544649942013062,-0.71,-0.87,9.74
9.0683668,90,90,2.4108,0,0,66.0625,2.93952442762783,5.94011594073544,0.836782030153208,-0.0183116645303058,0.0551791491179882,-0.544588903131295,-0.71,-0.88,9.74
9.1754063,90,90,2.5382,0,0,66.0625,3.27551223728754,5.95995130713159,0.836782030153208,-0.0216077641457608,0.0556674601721296,-0.544405786485992,-0.68,-0.94,9.73
9.195225,90,90,2.548,0,0,66.0625,3.35866467752225,5.92998179457276,0.836782030153208,-0.0220960751999023,0.0557284990538973,-0.544344747604224,-0.67,-0.95,9.73
9.2111282,90,90,2.5774,0,0,66.0625,3.41522565391901,5.9565732584107,0.836782030153208,-0.0225843862540438,0.055789537935665,-0.544344747604224,-0.67,-0.96,9.73
9.3082248,90,90,2.6558,0,0,66.0625,3.69465248718196,5.94981716096891,0.83672099127144,-0.0250259415247513,0.0560947323445034,-0.544222669840689,-0.65,-1,9.73
9.329244,90,90,2.6656,0,0,66.0625,3.77780492741666,5.91984764841008,0.83672099127144,-0.0255142525788928,0.0560947323445034,-0.544222669840689,-0.64,-1.02,9.73
9.344181,90,90,2.6754,0,0,66.0625,3.83436590381343,5.94643911224802,0.83672099127144,-0.0259415247512666,0.0562168101080388,-0.544222669840689,-0.64,-1.02,9.73
9.4422243,90,90,2.7146,0,0,66.0625,4.03064029684167,5.96965252736506,0.836659952389672,-0.0275285356772264,0.0564609656351096,-0.544222669840689,-0.63,-1.05,9.72
9.462253,90,90,2.7146,0,0,66.0625,4.03064029684167,5.96965252736506,0.836659952389672,-0.0277726912042971,0.0564609656351096,-0.544222669840689,-0.63,-1.05,9.72
9.4802406,90,90,2.7146,0,0,66.0625,4.05723176067961,5.9130915509683,0.836659952389672,-0.0279558078496002,0.0564609656351096,-0.544222669840689,-0.62,-1.06,9.72
9.5802237,90,90,2.7048,0,0,66.0625,4.11379273707638,5.93968301480623,0.836598913507904,-0.0282610022584386,0.0565830433986449,-0.544283708722456,-0.62,-1.06,9.72
9.5991752,90,90,2.695,0,0,66.0625,4.11379273707638,5.93968301480623,0.836537874626137,-0.0281389244949033,0.0565830433986449,-0.544344747604224,-0.62,-1.06,9.72
9.6161859,90,90,2.6852,0,0,66.0625,4.05723176067961,5.9130915509683,0.836537874626137,-0.0280168467313679,0.0566440822804126,-0.544344747604224,-0.63,-1.06,9.72
9.7152209,90,90,2.6264,0,0,66.0625,3.94748785660696,5.99962203992389,0.836537874626137,-0.0267350302142465,0.0567051211621803,-0.544466825367759,-0.64,-1.04,9.72
9.7333321,90,90,2.6068,0,0,66.0625,3.8909268802102,5.97303057608596,0.836476835744369,-0.0261246413965696,0.0567051211621803,-0.544527864249527,-0.65,-1.03,9.73
9.7491454,90,90,2.597,0,0,66.125,3.80777443997549,6.00300008864479,0.836476835744369,-0.0259415247512666,0.0567051211621803,-0.544527864249527,-0.65,-1.03,9.73
9.8480773,90,90,2.499,0,0,66.125,3.52834760671255,6.00975618608657,0.836476835744369,-0.0231947750717207,0.0566440822804126,-0.54471098089483,-0.68,-0.98,9.73
9.8671832,90,90,2.4696,0,0,66.125,3.44519516647784,6.0397256986454,0.836476835744369,-0.0228895806628823,0.0566440822804126,-0.544772019776598,-0.69,-0.96,9.73
9.8853496,90,90,2.4402,0,0,66.125,3.38863419008108,6.01313423480747,0.836415796862601,-0.0219129585545993,0.0565830433986449,-0.544833058658365,-0.69,-0.96,9.73
9.9841626,90,90,2.3226,0,0,66.125,2.94290247634872,6.07982935736691,0.836415796862601,-0.0184337422938412,0.0563999267533419,-0.545016175303668,-0.72,-0.9,9.73
10.0023236,90,90,2.2932,0,0,66.125,2.94290247634872,6.07982935736691,0.836415796862601,-0.0180675090032351,0.0563388878715742,-0.545016175303668,-0.73,-0.89,9.73
10.0182065,90,90,2.2736,0,0,66.125,2.85975003611402,6.10979886992574,0.836415796862601,-0.0173960813037905,0.0562778489898065,-0.545077214185436,-0.74,-0.88,9.73
10.0332486,90,90,2.2638,0,0,66.1875,2.80318905971725,6.0832074060878,0.836354757980834,-0.0166636147225783,0.0562168101080388,-0.545138253067204,-0.74,-0.87,9.73
10.1331343,90,90,2.1266,0,0,66.1875,2.38404880982284,6.09334155225048,0.836354757980834,-0.0132454373435879,0.0559726545809681,-0.545321369712507,-0.77,-0.81,9.74
10.152282,90,90,2.1168,0,0,66.1875,2.38404880982284,6.09334155225048,0.836354757980834,-0.0129402429347494,0.0559116156992004,-0.545321369712507,-0.77,-0.81,9.74
10.167273,90,90,2.0874,0,0,66.1875,2.30089636958813,6.12331106480931,0.836354757980834,-0.0123298541170726,0.0559116156992004,-0.545321369712507,-0.78,-0.79,9.74
10.1866232,90,90,2.0776,0,0,66.1875,2.21774392935343,6.15328057736814,0.836293719099066,-0.011658426417628,0.0558505768174327,-0.545382408594275,-0.79,-0.78,9.74
10.2963218,90,90,1.96,0,0,66.1875,1.82519514329695,6.10685374713405,0.836293719099066,-0.00842336568394067,0.0554233046450589,-0.54550448635781,-0.81,-0.73,9.74
10.3162557,90,90,1.9502,0,0,66.1875,1.74204270306224,6.13682325969288,0.836293719099066,-0.00793505462979918,0.0553622657632912,-0.545565525239578,-0.82,-0.72,9.74
10.3322508,90,90,1.9306,0,0,66.1875,1.74204270306224,6.13682325969288,0.836293719099066,-0.00744674357565769,0.0553012268815235,-0.545565525239578,-0.82,-0.71,9.74
10.4302663,90,90,1.8816,0,0,66.1875,1.48920733363724,6.0870183807379,0.836293719099066,-0.00561557712262711,0.0546908380638467,-0.545626564121345,-0.83,-0.67,9.74
10.4502285,90,90,1.8718,0,0,66.1875,1.48920733363724,6.0870183807379,0.836293719099066,-0.00549349935909174,0.054629799182079,-0.545626564121345,-0.83,-0.67,9.74
10.4672131,90,90,1.8718,0,0,66.1875,1.43264635724047,6.06042691689997,0.836293719099066,-0.00518830495025331,0.0545077214185436,-0.545626564121345,-0.83,-0.66,9.74
10.5762193,90,90,1.8718,0,0,66.1875,1.43264635724047,6.06042691689997,0.836354757980834,-0.00506622718671794,0.0545077214185436,-0.545626564121345,-0.83,-0.66,9.74
10.5943509,90,90,1.8718,0,0,66.1875,1.43264635724047,6.06042691689997,0.836354757980834,-0.00512726606848563,0.0545687603003113,-0.545565525239578,-0.83,-0.66,9.74
10.6143749,90,90,1.8816,0,0,66.1875,1.43264635724047,6.06042691689997,0.836354757980834,-0.00531038271378868,0.0545077214185436,-0.545565525239578,-0.83,-0.67,9.74
10.721275,90,90,1.9404,0,0,66.1875,1.65551221410665,6.02707935562024,0.836354757980834,-0.00677531587621315,0.0545077214185436,-0.54550448635781,-0.82,-0.69,9.74
10.7393169,90,90,1.96,0,0,66.1875,1.65551221410665,6.02707935562024,0.836354757980834,-0.00720258804858695,0.0545077214185436,-0.54550448635781,-0.81,-0.7,9.74
10.7552665,90,90,1.9698,0,0,66.1875,1.71207319050341,6.05367081945818,0.836415796862601,-0.00762986022096075,0.0545077214185436,-0.545443447476042,-0.81,-0.7,9.74
10.7702697,90,90,1.9796,0,0,66.1875,1.73866465434135,5.99710984306141,0.836415796862601,-0.00781297686626381,0.0545077214185436,-0.545443447476042,-0.81,-0.71,9.74
10.8693258,90,90,2.0874,0,0,66.1875,2.01809148760429,5.99035374561963,0.836415796862601,-0.0104376487822743,0.0546908380638467,-0.545321369712507,-0.78,-0.75,9.74
10.8882657,90,90,2.1168,0,0,66.1875,2.07465246400106,6.01694520945756,0.836476835744369,-0.0109869987181835,0.0547518769456144,-0.545321369712507,-0.77,-0.77,9.74
10.9032752,90,90,2.1266,0,0,66.1875,2.15780490423577,5.98697569689873,0.836476835744369,-0.0115363486540927,0.0547518769456144,-0.545260330830739,-0.77,-0.77,9.74
10.9192053,90,90,2.1364,0,0,66.1875,2.21436588063253,6.01356716073667,0.836476835744369,-0.0118415430629311,0.0547518769456144,-0.545260330830739,-0.77,-0.78,9.74
11.0272288,90,90,2.2736,0,0,66.125,2.57694515413018,5.97684155073605,0.836537874626137,-0.0153207593236892,0.0549960324726851,-0.545077214185436,-0.73,-0.83,9.74
11.0452967,90,90,2.303,0,0,66.125,2.66009759436489,5.94687203817722,0.836537874626137,-0.015931148141366,0.0551181102362205,-0.545016175303668,-0.73,-0.85,9.74
11.0602976,90,90,2.3128,0,0,66.125,2.71665857076165,5.97346350201516,0.836537874626137,-0.0166025758408106,0.0551791491179882,-0.545016175303668,-0.72,-0.86,9.74
11.0753179,90,90,2.3422,0,0,66.125,2.79981101099636,5.94349398945633,0.836537874626137,-0.016907770249649,0.0552401879997558,-0.544955136421901,-0.72,-0.86,9.74
11.1732971,90,90,2.45,0,0,66.125,3.13579882065607,5.96332935585248,0.836537874626137,-0.019837636574498,0.0555453824085943,-0.544772019776598,-0.69,-0.91,9.73
11.1923387,90,90,2.4794,0,0,66.125,3.19235979705284,5.98992081969042,0.836537874626137,-0.0203869865104071,0.055606421290362,-0.544772019776598,-0.69,-0.92,9.73
11.2083445,90,90,2.4892,0,0,66.125,3.27551223728754,5.95995130713159,0.836537874626137,-0.0209363364463163,0.0557284990538973,-0.54471098089483,-0.69,-0.93,9.73
11.3083373,90,90,2.5872,0,0,66.125,3.47178663031578,5.98316472224864,0.836598913507904,-0.023133736189953,0.0561557712262711,-0.544588903131295,-0.67,-0.97,9.73
11.3273172,90,90,2.597,0,0,66.125,3.55493907055049,5.95319520968981,0.836537874626137,-0.0236220472440945,0.0562168101080388,-0.544588903131295,-0.66,-0.98,9.73
11.3422977,90,90,2.6068,0,0,66.125,3.61150004694725,5.97978667352774,0.836537874626137,-0.0238662027711652,0.0562168101080388,-0.544588903131295,-0.66,-0.99,9.73
11.4421734,90,90,2.6656,0,0,66.125,3.80777443997549,6.00300008864479,0.836476835744369,-0.0256973692241958,0.056766160043948,-0.544527864249527,-0.65,-1.02,9.73
11.4613505,90,90,2.6656,0,0,66.125,3.86433541637226,6.02959155248272,0.836476835744369,-0.0260025636330342,0.0568271989257157,-0.544527864249527,-0.65,-1.03,9.73
11.4802969,90,90,2.6754,0,0,66.125,3.8909268802102,5.97303057608596,0.836476835744369,-0.026246719160105,0.0568271989257157,-0.544527864249527,-0.65,-1.03,9.72
11.5831802,90,90,2.6754,0,0,66.125,3.94748785660696,5.99962203992389,0.836415796862601,-0.0270402246230849,0.0569492766892511,-0.544588903131295,-0.64,-1.05,9.72
11.6011888,90,90,2.6754,0,0,66.125,3.94748785660696,5.99962203992389,0.836415796862601,-0.0270402246230849,0.0569492766892511,-0.544588903131295,-0.64,-1.05,9.72
11.6168417,90,90,2.6754,0,0,66.125,3.94748785660696,5.99962203992389,0.836354757980834,-0.0270402246230849,0.0570103155710187,-0.544588903131295,-0.64,-1.05,9.72
11.7262066,90,90,2.6264,0,0,66.125,3.86433541637226,6.02959155248272,0.836293719099066,-0.0260025636330342,0.0571323933345541,-0.544772019776598,-0.65,-1.03,9.72
11.7452464,90,90,2.6166,0,0,66.125,3.86433541637226,6.02959155248272,0.836293719099066,-0.0258194469877312,0.0571323933345541,-0.544772019776598,-0.66,-1.03,9.72
11.7632755,90,90,2.597,0,0,66.125,3.78118297613756,6.05956106504155,0.836293719099066,-0.0255142525788928,0.0571323933345541,-0.544772019776598,-0.66,-1.02,9.73
11.8751762,90,90,2.499,0,0,66.125,3.55831711927138,6.09290862632128,0.836232680217298,-0.0227064640175792,0.0571323933345541,-0.545016175303668,-0.69,-0.98,9.73
11.8932846,90,90,2.4794,0,0,66.125,3.41860370263991,6.09628667504217,0.836232680217298,-0.0224623084905085,0.0571323933345541,-0.545016175303668,-0.69,-0.97,9.73
11.9101903,90,90,2.4598,0,0,66.1875,3.41860370263991,6.09628667504217,0.836232680217298,-0.0218519196728316,0.0571323933345541,-0.545077214185436,-0.7,-0.96,9.73
12.0162552,90,90,2.3422,0,0,66.1875,2.99946345274549,6.10642082120485,0.836232680217298,-0.0186778978209119,0.0570103155710187,-0.545260330830739,-0.73,-0.91,9.73
12.0343783,90,90,2.3128,0,0,66.1875,2.91631101251079,6.13639033376368,0.836171641335531,-0.0180675090032351,0.0569492766892511,-0.545260330830739,-0.74,-0.9,9.73
12.0512541,90,90,2.303,0,0,66.1875,2.85975003611402,6.10979886992574,0.836171641335531,-0.0173960813037905,0.0569492766892511,-0.545321369712507,-0.74,-0.89,9.73
12.1482953,90,90,2.1756,0,0,66.1875,2.55373173901314,6.17311594376429,0.836171641335531,-0.0141610205701032,0.0566440822804126,-0.54550448635781,-0.77,-0.83,9.73
12.1672519,90,90,2.156,0,0,66.1875,2.47057929877843,6.20308545632312,0.836171641335531,-0.0138558261612647,0.0566440822804126,-0.54550448635781,-0.78,-0.83,9.73
12.1843104,90,90,2.1364,0,0,66.1875,2.41401832238167,6.17649399248519,0.836110602453763,-0.0132454373435879,0.0565830433986449,-0.545565525239578,-0.78,-0.82,9.74
12.2833134,90,90,2.0384,0,0,66.25,2.07803051272195,6.15665862608904,0.836110602453763,-0.0103766099005066,0.0561557712262711,-0.545687603003113,-0.8,-0.77,9.74
12.3033926,90,90,2.0188,0,0,66.25,1.99487807248725,6.18662813864787,0.836110602453763,-0.00988829884636513,0.0560947323445034,-0.545748641884881,-0.81,-0.76,9.74
12.3203456,90,90,2.009,0,0,66.25,1.93831709609048,6.16003667480993,0.836110602453763,-0.00933894891045596,0.0559726545809681,-0.545748641884881,-0.81,-0.75,9.74
12.435276,90,90,1.9306,0,0,66.25,1.65889026282754,6.16679277225171,0.836110602453763,-0.00695843252151621,0.0554843435268266,-0.545809680766648,-0.83,-0.7,9.74
12.4543455,90,90,1.9208,0,0,66.25,1.60232928643077,6.14020130841378,0.836110602453763,-0.00665323811267778,0.0553012268815235,-0.545870719648416,-0.83,-0.7,9.74
12.4713602,90,90,1.911,0,0,66.25,1.60232928643077,6.14020130841378,0.836110602453763,-0.00634804370383935,0.0551791491179882,-0.545870719648416,-0.83,-0.69,9.74
12.5712948,90,90,1.8914,0,0,66.25,1.48920733363724,6.0870183807379,0.836110602453763,-0.00549349935909174,0.0548739547091497,-0.545870719648416,-0.84,-0.67,9.74
12.5892934,90,90,1.8914,0,0,66.25,1.48920733363724,6.0870183807379,0.836171641335531,-0.00549349935909174,0.054812915827382,-0.545870719648416,-0.84,-0.67,9.74
12.6062624,90,90,1.9012,0,0,66.25,1.48920733363724,6.0870183807379,0.836171641335531,-0.00549349935909174,0.054812915827382,-0.545870719648416,-0.84,-0.67,9.74
12.7043105,90,90,1.9208,0,0,66.25,1.57235977387194,6.05704886817907,0.836171641335531,-0.00622596594030397,0.0546908380638467,-0.545809680766648,-0.83,-0.68,9.74
12.7223488,90,90,1.9306,0,0,66.25,1.57235977387194,6.05704886817907,0.836171641335531,-0.00634804370383935,0.0546908380638467,-0.545809680766648,-0.82,-0.69,9.74
12.738337,90,90,1.9404,0,0,66.25,1.62892075026871,6.08364033201701,0.836171641335531,-0.00665323811267778,0.0546908380638467,-0.545809680766648,-0.82,-0.69,9.74
12.7553888,90,90,1.9502,0,0,66.25,1.62892075026871,6.08364033201701,0.836171641335531,-0.00701947140328389,0.0546908380638467,-0.545748641884881,-0.82,-0.7,9.74
12.8551985,90,90,2.0286,0,0,66.25,1.85178660713489,6.05029277073729,0.836232680217298,-0.00885063785631447,0.054629799182079,-0.545687603003113,-0.8,-0.72,9.74
12.8733528,90,90,2.058,0,0,66.25,1.93493904736959,6.02032325817846,0.836232680217298,-0.0095831044375267,0.0546908380638467,-0.545626564121345,-0.79,-0.74,9.74
12.889292,90,90,2.0678,0,0,66.1875,1.99150002376636,6.04691472201639,0.836232680217298,-0.00982725996459745,0.0546908380638467,-0.545626564121345,-0.79,-0.74,9.74
12.9903193,90,90,2.1756,0,0,66.1875,2.29751832086724,5.98359764817784,0.836293719099066,-0.0125129707623756,0.054812915827382,-0.54550448635781,-0.76,-0.79,9.74
13.0083816,90,90,2.1854,0,0,66.1875,2.29751832086724,5.98359764817784,0.836293719099066,-0.0128181651712141,0.054812915827382,-0.54550448635781,-0.76,-0.79,9.74
13.0233173,90,90,2.2148,0,0,66.1875,2.38067076110194,5.95362813561901,0.836293719099066,-0.013611670634194,0.0548739547091497,-0.545443447476042,-0.75,-0.81,9.74
13.039398,90,90,2.2246,0,0,66.1875,2.43723173749871,5.98021959945695,0.836293719099066,-0.0139168650430324,0.0549349935909174,-0.545443447476042,-0.75,-0.81,9.74
13.1352718,90,90,2.3324,0,0,66.1875,2.79981101099636,5.94349398945633,0.836354757980834,-0.0168467313678813,0.0552401879997558,-0.545260330830739,-0.72,-0.86,9.74
13.1542699,90,90,2.3618,0,0,66.1875,2.79981101099636,5.94349398945633,0.836354757980834,-0.0171519257767198,0.0552401879997558,-0.545260330830739,-0.72,-0.87,9.74
13.1693161,90,90,2.3716,0,0,66.1875,2.85637198739313,5.97008545329427,0.836354757980834,-0.0177012757126289,0.0553012268815235,-0.545199291948972,-0.71,-0.88,9.74
13.1879844,90,90,2.401,0,0,66.1875,2.93952442762783,5.94011594073544,0.836354757980834,-0.0181895867667704,0.0553622657632912,-0.545199291948972,-0.71,-0.89,9.74
13.2873226,90,90,2.499,0,0,66.125,3.19235979705284,5.98992081969042,0.836354757980834,-0.0206921809192456,0.0558505768174327,-0.545016175303668,-0.69,-0.93,9.73
13.3053303,90,90,2.5186,0,0,66.125,3.27551223728754,5.95995130713159,0.836354757980834,-0.0208752975645486,0.0558505768174327,-0.545016175303668,-0.69,-0.93,9.73
13.3212549,90,90,2.5284,0,0,66.125,3.27551223728754,5.95995130713159,0.836354757980834,-0.0214856863822255,0.0559726545809681,-0.544955136421901,-0.68,-0.95,9.73
13.4213235,90,90,2.597,0,0,66.125,3.52834760671255,6.00975618608657,0.836354757980834,-0.0234389305987914,0.0565830433986449,-0.544894097540133,-0.67,-0.98,9.73
13.4393158,90,90,2.6068,0,0,66.125,3.58490858310932,6.03634764992451,0.836354757980834,-0.0236220472440945,0.0566440822804126,-0.544894097540133,-0.67,-0.99,9.73
13.4553349,90,90,2.6166,0,0,66.125,3.58490858310932,6.03634764992451,0.836354757980834,-0.0238051638893975,0.0566440822804126,-0.544894097540133,-0.67,-0.99,9.73
13.4703941,90,90,2.6264,0,0,66.125,3.58490858310932,6.03634764992451,0.836293719099066,-0.024110358298236,0.056766160043948,-0.544894097540133,-0.67,-1,9.73
13.5703309,90,90,2.646,0,0,66.125,3.80777443997549,6.00300008864479,0.836232680217298,-0.0254532136971251,0.0568882378074834,-0.544894097540133,-0.66,-1.02,9.73
13.5892545,90,90,2.646,0,0,66.125,3.80777443997549,6.00300008864479,0.836232680217298,-0.0255752914606604,0.0568882378074834,-0.544894097540133,-0.65,-1.02,9.73
13.6046043,90,90,2.646,0,0,66.125,3.80777443997549,6.00300008864479,0.836232680217298,-0.0256973692241958,0.0568882378074834,-0.544894097540133,-0.65,-1.02,9.73
13.7113678,90,90,2.6264,0,0,66.1875,3.78118297613756,6.05956106504155,0.836171641335531,-0.0256363303424281,0.0572544710980895,-0.544955136421901,-0.66,-1.03,9.72
13.7303892,90,90,2.6264,0,0,66.1875,3.78118297613756,6.05956106504155,0.836171641335531,-0.0255142525788928,0.0573155099798572,-0.545016175303668,-0.66,-1.03,9.72
13.7464413,90,90,2.6166,0,0,66.1875,3.78118297613756,6.05956106504155,0.836171641335531,-0.0253311359335897,0.0573155099798572,-0.545016175303668,-0.66,-1.02,9.72
13.8463986,90,90,2.548,0,0,66.1875,3.61487809566815,6.11950009015921,0.836110602453763,-0.0238051638893975,0.0574986266251602,-0.545138253067204,-0.68,-1,9.73
13.8643896,90,90,2.5284,0,0,66.1875,3.55831711927138,6.09290862632128,0.836110602453763,-0.0235610083623268,0.0574986266251602,-0.545199291948972,-0.69,-1,9.73
13.8804241,90,90,2.5186,0,0,66.1875,3.53172565543344,6.14946960271804,0.836110602453763,-0.023133736189953,0.0574986266251602,-0.545199291948972,-0.69,-0.99,9.73
13.9794364,90,90,2.4206,0,0,66.1875,3.2522988221705,6.15622570015983,0.836049563571995,-0.0206311420374779,0.0574986266251602,-0.545382408594275,-0.72,-0.95,9.73
13.9984063,90,90,2.4108,0,0,66.1875,3.16914638193579,6.18619521271866,0.836049563571995,-0.0200817921015687,0.0574375877433925,-0.545382408594275,-0.72,-0.94,9.73
14.0164347,90,90,2.3912,0,0,66.1875,3.11258540553903,6.15960374888072,0.836049563571995,-0.0194714032838918,0.0574375877433925,-0.545443447476042,-0.73,-0.93,9.73
14.1253581,90,90,2.2736,0,0,66.25,2.75000613204138,6.19632935888134,0.835988524690228,-0.0161753036684368,0.0571934322163218,-0.545626564121345,-0.76,-0.87,9.73
14.1443627,90,90,2.2442,0,0,66.25,2.66685369180667,6.22629887144017,0.835988524690228,-0.0155649148507599,0.0571323933345541,-0.545687603003113,-0.77,-0.86,9.73
14.1614429,90,90,2.2344,0,0,66.25,2.61029271540991,6.19970740760223,0.835988524690228,-0.0150155649148508,0.0571323933345541,-0.545687603003113,-0.77,-0.85,9.73
14.2603012,90,90,2.1168,0,0,66.25,2.33086588214696,6.20646350504402,0.83592748580846,-0.0123908929988403,0.0568271989257157,-0.545870719648416,-0.8,-0.8,9.74
14.2794221,90,90,2.107,0,0,66.25,2.24771344191226,6.23643301760285,0.83592748580846,-0.0118415430629311,0.056766160043948,-0.545870719648416,-0.8,-0.8,9.74
14.2944026,90,90,2.0874,0,0,66.25,2.19115246551549,6.20984155376491,0.83592748580846,-0.0113532320087896,0.0567051211621803,-0.545931758530184,-0.8,-0.79,9.74
14.3933863,90,90,2.009,0,0,66.25,1.91172563225255,6.2165976512067,0.83592748580846,-0.00891167673808216,0.0562778489898065,-0.545992797411951,-0.82,-0.74,9.74
14.4113955,90,90,1.9992,0,0,66.25,1.85516465585578,6.19000618736876,0.83592748580846,-0.00854544344747604,0.0561557712262711,-0.546053836293719,-0.82,-0.74,9.74
14.4263822,90,90,1.9894,0,0,66.25,1.85516465585578,6.19000618736876,0.83592748580846,-0.00836232680217298,0.0561557712262711,-0.546053836293719,-0.83,-0.73,9.74
14.4427418,90,90,1.9796,0,0,66.25,1.79860367945901,6.16341472353082,0.83592748580846,-0.00799609351156687,0.0559726545809681,-0.546053836293719,-0.83,-0.73,9.74
14.5444595,90,90,1.9306,0,0,66.25,1.60232928643077,6.14020130841378,0.83592748580846,-0.00671427699444546,0.0553012268815235,-0.546114875175487,-0.83,-0.7,9.74
14.562437,90,90,1.9306,0,0,66.3125,1.60232928643077,6.14020130841378,0.83592748580846,-0.0065311603491424,0.0551791491179882,-0.546114875175487,-0.83,-0.69,9.74
14.5774604,90,90,1.9306,0,0,66.3125,1.60232928643077,6.14020130841378,0.83592748580846,-0.0065311603491424,0.0551791491179882,-0.546114875175487,-0.83,-0.69,9.74
14.5943971,90,90,1.9208,0,0,66.3125,1.60232928643077,6.14020130841378,0.83592748580846,-0.00647012146737472,0.0551791491179882,-0.546114875175487,-0.83,-0.69,9.74
14.6933531,90,90,1.9306,0,0,66.3125,1.60232928643077,6.14020130841378,0.83592748580846,-0.0065311603491424,0.0551181102362205,-0.546114875175487,-0.83,-0.69,9.74
14.7133535,90,90,1.9306,0,0,66.25,1.62892075026871,6.08364033201701,0.83592748580846,-0.00665323811267778,0.0549960324726851,-0.546114875175487,-0.82,-0.69,9.74
14.730364,90,90,1.9404,0,0,66.25,1.62892075026871,6.08364033201701,0.83592748580846,-0.00683635475798083,0.0549349935909174,-0.546114875175487,-0.82,-0.69,9.74
14.8303662,90,90,1.9894,0,0,66.25,1.79522563073812,6.02370130689935,0.835988524690228,-0.00817921015686993,0.0547518769456144,-0.546053836293719,-0.8,-0.72,9.74
14.8504838,90,90,1.9992,0,0,66.25,1.79522563073812,6.02370130689935,0.835988524690228,-0.00836232680217298,0.0547518769456144,-0.546053836293719,-0.8,-0.72,9.74
14.8726166,90,90,2.0188,0,0,66.25,1.87837807097282,5.99373179434052,0.835988524690228,-0.00897271561984984,0.0546908380638467,-0.545992797411951,-0.8,-0.73,9.74
14.9723609,90,90,2.107,0,0,66.25,2.15780490423577,5.98697569689873,0.836049563571995,-0.0111701153634865,0.0546908380638467,-0.545870719648416,-0.77,-0.76,9.74
14.9904543,90,90,2.1266,0,0,66.25,2.15780490423577,5.98697569689873,0.836049563571995,-0.0114142708905573,0.0546908380638467,-0.545870719648416,-0.77,-0.77,9.74
15.0074945,90,90,2.1462,0,0,66.25,2.15780490423577,5.98697569689873,0.836049563571995,-0.011658426417628,0.0546908380638467,-0.545870719648416,-0.76,-0.78,9.74
15.1113914,90,90,2.254,0,0,66.25,2.52038417773341,5.95025008689812,0.836110602453763,-0.014588292742477,0.0548739547091497,-0.545687603003113,-0.74,-0.82,9.74
15.1294812,90,90,2.2736,0,0,66.25,2.60353661796812,5.92028057433929,0.836110602453763,-0.0153817982054569,0.0549349935909174,-0.545687603003113,-0.73,-0.83,9.74
15.1503341,90,90,2.2932,0,0,66.25,2.66009759436489,5.94687203817722,0.836110602453763,-0.0156259537325276,0.0549960324726851,-0.545626564121345,-0.73,-0.84,9.74
15.2472951,90,90,2.3912,0,0,66.1875,2.93952442762783,5.94011594073544,0.836171641335531,-0.0181895867667704,0.0553622657632912,-0.54550448635781,-0.71,-0.89,9.74
15.2665333,90,90,2.4108,0,0,66.1875,2.9960854040246,5.96670740457338,0.836171641335531,-0.0189220533479827,0.0554843435268266,-0.545443447476042,-0.7,-0.9,9.73
15.2822699,90,90,2.4206,0,0,66.1875,3.0792378442593,5.93673789201455,0.836171641335531,-0.0191662088750534,0.0554843435268266,-0.545443447476042,-0.7,-0.9,9.73
15.3803555,90,90,2.5186,0,0,66.1875,3.27551223728754,5.95995130713159,0.836171641335531,-0.0210584142098517,0.0559116156992004,-0.545321369712507,-0.69,-0.94,9.73
15.4015166,90,90,2.5186,0,0,66.1875,3.33207321368431,5.98654277096953,0.836171641335531,-0.0214246475004578,0.0560336934627358,-0.545321369712507,-0.68,-0.95,9.73
15.4183316,90,90,2.5382,0,0,66.1875,3.33207321368431,5.98654277096953,0.836171641335531,-0.0218519196728316,0.0562778489898065,-0.545260330830739,-0.68,-0.96,9.73
15.5184646,90,90,2.597,0,0,66.1875,3.52834760671255,6.00975618608657,0.836110602453763,-0.0233778917170237,0.056766160043948,-0.545260330830739,-0.68,-0.99,9.73
15.5363497,90,90,2.597,0,0,66.1875,3.58490858310932,6.03634764992451,0.836110602453763,-0.0236830861258622,0.0568271989257157,-0.545260330830739,-0.67,-0.99,9.73
15.552527,90,90,2.6068,0,0,66.1875,3.58490858310932,6.03634764992451,0.836110602453763,-0.0239272416529329,0.0568882378074834,-0.545260330830739,-0.67,-1,9.73
15.6525118,90,90,2.6166,0,0,66.1875,3.72462199974079,6.03296960120362,0.836049563571995,-0.0247207471159128,0.0570713544527864,-0.545260330830739,-0.67,-1.01,9.73
15.6725198,90,90,2.6166,0,0,66.1875,3.72462199974079,6.03296960120362,0.835988524690228,-0.0247817859976805,0.0571323933345541,-0.545260330830739,-0.67,-1.01,9.73
15.6904004,90,90,2.6166,0,0,66.1875,3.72462199974079,6.03296960120362,0.835988524690228,-0.0248428248794482,0.0572544710980895,-0.545260330830739,-0.67,-1.01,9.73
15.787444,90,90,2.5872,0,0,66.1875,3.69803053590285,6.08953057760039,0.83592748580846,-0.0244155527070744,0.0576207043886956,-0.545382408594275,-0.68,-1.01,9.72
15.8084767,90,90,2.5872,0,0,66.1875,3.67143907206491,6.14609155399715,0.83592748580846,-0.0242324360617713,0.0576207043886956,-0.545382408594275,-0.68,-1.01,9.72
15.8244552,90,90,2.5774,0,0,66.1875,3.67143907206491,6.14609155399715,0.83592748580846,-0.024110358298236,0.0576817432704633,-0.545382408594275,-0.68,-1.01,9.73
15.9243105,90,90,2.5088,0,0,66.25,3.44857321519874,6.17943911527687,0.835866446926692,-0.0224623084905085,0.0578648599157663,-0.54550448635781,-0.7,-0.98,9.73
15.9453485,90,90,2.499,0,0,66.25,3.44857321519874,6.17943911527687,0.835866446926692,-0.0220960751999023,0.0578648599157663,-0.545565525239578,-0.71,-0.97,9.73
15.9603511,90,90,2.4892,0,0,66.25,3.36542077496403,6.20940862783571,0.835866446926692,-0.0216688030275285,0.057925898797534,-0.545565525239578,-0.71,-0.97,9.73
16.0604163,90,90,2.3912,0,0,66.25,3.08599394170109,6.21616472527749,0.835805408044925,-0.0191662088750534,0.057925898797534,-0.545748641884881,-0.74,-0.93,9.73
16.0782972,90,90,2.3618,0,0,66.25,3.00284150146638,6.24613423783632,0.835805408044925,-0.0186168589391442,0.057925898797534,-0.545748641884881,-0.74,-0.92,9.73
16.0945935,90,90,2.352,0,0,66.25,3.00284150146638,6.24613423783632,0.835805408044925,-0.0181285478850027,0.0578648599157663,-0.545809680766648,-0.75,-0.91,9.73
16.204453,90,90,2.2442,0,0,66.25,2.64026222796874,6.28285984783694,0.835744369163157,-0.0152597204419215,0.057742782152231,-0.545992797411951,-0.78,-0.86,9.73
16.2225277,90,90,2.2246,0,0,66.3125,2.58370125157197,6.256268383999,0.835744369163157,-0.0147103705060123,0.0576817432704633,-0.545992797411951,-0.78,-0.85,9.73
16.2415542,90,90,2.1952,0,0,66.3125,2.55710978773403,6.31282936039577,0.835744369163157,-0.0144662149789416,0.0576817432704633,-0.545992797411951,-0.79,-0.84,9.73
16.3473335,90,90,2.0972,0,0,66.3125,2.22112197807432,6.29299399399961,0.835683330281389,-0.0115973875358603,0.0573155099798572,-0.546175914057255,-0.81,-0.8,9.73
16.3673517,90,90,2.0874,0,0,66.3125,2.16456100167755,6.26640253016168,0.835683330281389,-0.0109259598364158,0.0571934322163218,-0.546236952939022,-0.81,-0.79,9.74
16.3855898,90,90,2.0678,0,0,66.3125,2.10800002528079,6.23981106632374,0.835683330281389,-0.0107428431911127,0.0571323933345541,-0.546236952939022,-0.82,-0.78,9.74
16.4973789,90,90,1.9992,0,0,66.3125,1.88513416841461,6.27315862760346,0.835683330281389,-0.00848440456570836,0.0566440822804126,-0.546359030702558,-0.83,-0.74,9.74
16.5153339,90,90,1.9894,0,0,66.3125,1.82857319201784,6.24656716376553,0.835683330281389,-0.00811817127510224,0.0563999267533419,-0.546359030702558,-0.83,-0.73,9.74
16.5305431,90,90,1.9894,0,0,66.3125,1.77201221562107,6.21997569992759,0.835683330281389,-0.00799609351156687,0.0562778489898065,-0.546359030702558,-0.83,-0.73,9.74
16.5455268,90,90,1.9796,0,0,66.3125,1.77201221562107,6.21997569992759,0.835683330281389,-0.00781297686626381,0.0562168101080388,-0.546359030702558,-0.83,-0.73,9.74
16.6443693,90,90,1.9502,0,0,66.3125,1.65889026282754,6.16679277225171,0.835683330281389,-0.00701947140328389,0.0557284990538973,-0.546420069584325,-0.83,-0.71,9.74
16.6623998,90,90,1.9502,0,0,66.3125,1.65889026282754,6.16679277225171,0.835683330281389,-0.00701947140328389,0.0557284990538973,-0.546420069584325,-0.83,-0.71,9.74
16.6783848,90,90,1.9502,0,0,66.3125,1.65889026282754,6.16679277225171,0.835683330281389,-0.00701947140328389,0.0557284990538973,-0.546420069584325,-0.83,-0.71,9.74
16.6935387,90,90,1.9502,0,0,66.3125,1.65889026282754,6.16679277225171,0.835744369163157,-0.00708051028505158,0.0556674601721296,-0.546420069584325,-0.83,-0.71,9.74
