Time (s),Setpoint (deg),Motor Position (deg),Tension 1 (N),Tension 2 (N),Tension 3 (N),Heading (deg),Pitch (deg),Roll (deg),Quaternion W,Quaternion X,Quaternion Y,Quaternion Z,Gravity X,Gravity Y,Gravity Z
0,0,0,0,0,0,0,0,0,0,0,0,0,0,0,0
0.0162337,0,-0.45,0.9702,0,0,65.6875,4.23999395882428,5.37745129955945,0.838613196606238,-0.0304584020020753,0.0521272050296039,-0.541475920161143,-0.53,-1.05,9.73
0.0431939,0,0,0.9702,0,0,65.6875,4.23999395882428,5.37745129955945,0.838613196606238,-0.0304584020020753,0.0521272050296039,-0.541475920161143,-0.53,-1.05,9.73
0.1495049,0,0,0.9996,0,0,65.6875,4.23999395882428,5.37745129955945,0.838613196606238,-0.0304584020020753,0.0521272050296039,-0.541475920161143,-0.53,-1.05,9.73
0.1733919,0,0,0.9996,0,0,65.6875,4.23999395882428,5.37745129955945,0.838613196606238,-0.0304584020020753,0.0521272050296039,-0.541475920161143,-0.53,-1.05,9.73
0.1978809,0,0,0.9898,0,0,65.6875,4.23999395882428,5.37745129955945,0.838613196606238,-0.0304584020020753,0.0521272050296039,-0.541475920161143,-0.53,-1.05,9.73
0.3033164,0,0,0.9898,0,0,65.6875,4.23999395882428,5.37745129955945,0.838613196606238,-0.0304584020020753,0.0521272050296039,-0.541475920161143,-0.53,-1.05,9.73
0.3235106,0,0,0.9898,0,0,65.6875,4.23999395882428,5.37745129955945,0.838613196606238,-0.0304584020020753,0.0521272050296039,-0.541475920161143,-0.53,-1.05,9.73
0.3435251,0,0,0.9898,0,0,65.6875,4.23999395882428,5.37745129955945,0.838613196606238,-0.0304584020020753,0.0521272050296039,-0.541475920161143,-0.53,-1.05,9.73
0.4453849,0,0,0.9898,0,0,65.6875,4.23999395882428,5.37745129955945,0.838613196606238,-0.0304584020020753,0.0521272050296039,-0.541475920161143,-0.53,-1.05,9.73
0.468622,0,0,0.9898,0,0,65.6875,4.23999395882428,5.37745129955945,0.838613196606238,-0.0304584020020753,0.0521272050296039,-0.541475920161143,-0.53,-1.05,9.73
0.4862936,0,0,0.9898,0,0,65.6875,4.23999395882428,5.37745129955945,0.838613196606238,-0.0304584020020753,0.0521272050296039,-0.541475920161143,-0.53,-1.05,9.73
0.5853198,0,0,0.9898,0,0,65.6875,4.23999395882428,5.37745129955945,0.838613196606238,-0.0304584020020753,0.0521272050296039,-0.541475920161143,-0.53,-1.05,9.73
0.6083708,0,0,0.9898,0,0,65.6875,4.23999395882428,5.37745129955945,0.838613196606238,-0.0304584020020753,0.0521272050296039,-0.541475920161143,-0.53,-1.05,9.73
0.6275399,0,0,0.9996,0,0,65.6875,4.23999395882428,5.37745129955945,0.838613196606238,-0.0304584020020753,0.0521272050296039,-0.541475920161143,-0.53,-1.05,9.73
0.7253953,0,0,0.9996,0,0,65.6875,4.23999395882428,5.37745129955945,0.838613196606238,-0.0304584020020753,0.0521272050296039,-0.541475920161143,-0.53,-1.05,9.73
0.7476869,0,0,0.9996,0,0,65.6875,4.23999395882428,5.37745129955945,0.838613196606238,-0.0304584020020753,0.0521272050296039,-0.541475920161143,-0.53,-1.05,9.73
0.7685594,0,0,0.9996,0,0,65.6875,4.23999395882428,5.37745129955945,0.838613196606238,-0.0304584020020753,0.0521272050296039,-0.541475920161143,-0.53,-1.05,9.73
0.8853482,0,0,0.9996,0,0,65.6875,4.23999395882428,5.37745129955945,0.838613196606238,-0.0304584020020753,0.0521272050296039,-0.541475920161143,-0.53,-1.05,9.73
0.9064024,0,0,0.9996,0,0,65.6875,4.23999395882428,5.37745129955945,0.838613196606238,-0.0304584020020753,0.0521272050296039,-0.541475920161143,-0.53,-1.05,9.73
0.9235901,0,0,0.9996,0,0,65.6875,4.23999395882428,5.37745129955945,0.838613196606238,-0.0304584020020753,0.0521272050296039,-0.541475920161143,-0.53,-1.05,9.73
1.0231999,0,0,0.9996,0,0,65.6875,4.23999395882428,5.37745129955945,0.838613196606238,-0.0304584020020753,0.0521272050296039,-0.541475920161143,-0.53,-1.05,9.73
1.0433535,0,0,0.9996,0,0,65.6875,4.23999395882428,5.37745129955945,0.838613196606238,-0.0304584020020753,0.0521272050296039,-0.541475920161143,-0.53,-1.05,9.73
1.0624182,0,0,0.9996,0,0,65.6875,4.23999395882428,5.37745129955945,0.838613196606238,-0.0304584020020753,0.0521272050296039,-0.541475920161143,-0.53,-1.05,9.73
1.1643503,0,0,0.9996,0,0,65.6875,4.23999395882428,5.37745129955945,0.838613196606238,-0.0304584020020753,0.0521272050296039,-0.541475920161143,-0.53,-1.05,9.73
1.1873398,0,0,0.9996,0,0,65.6875,4.23999395882428,5.37745129955945,0.838613196606238,-0.0304584020020753,0.0521272050296039,-0.541475920161143,-0.53,-1.05,9.73
1.2023364,0,0,1.0094,0,0,65.6875,4.23999395882428,5.37745129955945,0.838613196606238,-0.0304584020020753,0.0521272050296039,-0.541475920161143,-0.53,-1.05,9.73
1.3033772,0,0,1.0094,0,0,65.6875,4.23999395882428,5.37745129955945,0.838613196606238,-0.0304584020020753,0.0521272050296039,-0.541475920161143,-0.53,-1.05,9.73
1.3244105,0,0,1.0094,0,0,65.6875,4.23999395882428,5.37745129955945,0.838613196606238,-0.0304584020020753,0.0521272050296039,-0.541475920161143,-0.53,-1.05,9.73
1.3443168,0,0,1.0094,0,0,65.6875,4.23999395882428,5.37745129955945,0.838613196606238,-0.0304584020020753,0.0521272050296039,-0.541475920161143,-0.53,-1.05,9.73
1.4452022,0,0,1.0094,0,0,65.6875,4.23999395882428,5.37745129955945,0.838613196606238,-0.0304584020020753,0.0521272050296039,-0.541475920161143,-0.53,-1.05,9.73
1.4642167,0,0,1.0094,0,0,65.6875,4.23999395882428,5.37745129955945,0.838613196606238,-0.0304584020020753,0.0521272050296039,-0.541475920161143,-0.53,-1.05,9.73
1.481208,0,0,1.0094,0,0,65.6875,4.23999395882428,5.37745129955945,0.838613196606238,-0.0304584020020753,0.0521272050296039,-0.541475920161143,-0.53,-1.05,9.73
1.5922381,0,0,0.9996,0,0,65.6875,4.23999395882428,5.37745129955945,0.838613196606238,-0.0304584020020753,0.0521272050296039,-0.541475920161143,-0.53,-1.05,9.73
1.6113828,0,0,0.9996,0,0,65.6875,4.23999395882428,5.37745129955945,0.838613196606238,-0.0304584020020753,0.0521272050296039,-0.541475920161143,-0.53,-1.05,9.73
1.6294674,0,0,0.9996,0,0,65.6875,4.23999395882428,5.37745129955945,0.838613196606238,-0.0304584020020753,0.0521272050296039,-0.541475920161143,-0.53,-1.05,9.73
1.7313463,0,0,0.9996,0,0,65.6875,4.23999395882428,5.37745129955945,0.838613196606238,-0.0304584020020753,0.0521272050296039,-0.541475920161143,-0.53,-1.05,9.73
1.7513554,0,0,0.9996,0,0,65.6875,4.23999395882428,5.37745129955945,0.838613196606238,-0.0304584020020753,0.0521272050296039,-0.541475920161143,-0.53,-1.05,9.73
1.7704064,0,0,0.9996,0,0,65.6875,4.23999395882428,5.37745129955945,0.838613196606238,-0.0304584020020753,0.0521272050296039,-0.541475920161143,-0.53,-1.05,9.73
1.8702105,0,0,0.9996,0,0,65.6875,4.23999395882428,5.37745129955945,0.838613196606238,-0.0304584020020753,0.0521272050296039,-0.541475920161143,-0.53,-1.05,9.73
1.8913104,0,0,0.9996,0,0,65.6875,4.23999395882428,5.37745129955945,0.838613196606238,-0.0304584020020753,0.0521272050296039,-0.541475920161143,-0.53,-1.05,9.73
1.9103077,0,0,0.9996,0,0,65.6875,4.23999395882428,5.37745129955945,0.838613196606238,-0.0304584020020753,0.0521272050296039,-0.541475920161143,-0.53,-1.05,9.73
2.012353,0,0,0.9996,0,0,65.6875,4.23999395882428,5.37745129955945,0.838613196606238,-0.0304584020020753,0.0521272050296039,-0.541475920161143,-0.53,-1.05,9.73
2.031326,0,0,0.9996,0,0,65.6875,4.23999395882428,5.37745129955945,0.838613196606238,-0.0304584020020753,0.0521272050296039,-0.541475920161143,-0.53,-1.05,9.73
2.050288,0,0,0.9996,0,0,65.6875,4.23999395882428,5.37745129955945,0.838613196606238,-0.0304584020020753,0.0521272050296039,-0.541475920161143,-0.53,-1.05,9.73
2.1473126,0,0,0.9996,0,0,65.6875,4.23999395882428,5.37745129955945,0.838613196606238,-0.0304584020020753,0.0521272050296039,-0.541475920161143,-0.53,-1.05,9.73
2.1686557,0,0,0.9996,0,0,65.6875,4.23999395882428,5.37745129955945,0.838613196606238,-0.0304584020020753,0.0521272050296039,-0.541475920161143,-0.53,-1.05,9.73
2.1876019,0,0,0.9996,0,0,65.6875,4.23999395882428,5.37745129955945,0.838613196606238,-0.0304584020020753,0.0521272050296039,-0.541475920161143,-0.53,-1.05,9.73
2.3016147,0,0,0.9996,0,0,65.6875,4.23999395882428,5.37745129955945,0.838613196606238,-0.0304584020020753,0.0521272050296039,-0.541475920161143,-0.53,-1.05,9.73
2.3223074,0,0,0.9996,0,0,65.6875,4.23999395882428,5.37745129955945,0.838613196606238,-0.0304584020020753,0.0521272050296039,-0.541475920161143,-0.53,-1.05,9.73
2.3392109,0,0,0.9996,0,0,65.6875,4.23999395882428,5.37745129955945,0.838613196606238,-0.0304584020020753,0.0521272050296039,-0.541475920161143,-0.53,-1.05,9.73
2.4373082,0,0,0.9996,0,0,65.6875,4.23999395882428,5.37745129955945,0.838613196606238,-0.0304584020020753,0.0521272050296039,-0.541475920161143,-0.53,-1.05,9.73
2.4572862,0,0,0.9996,0,0,65.6875,4.23999395882428,5.37745129955945,0.838613196606238,-0.0304584020020753,0.0521272050296039,-0.541475920161143,-0.53,-1.05,9.73
2.4721949,0,0,0.9996,0,0,65.6875,4.23999395882428,5.37745129955945,0.838613196606238,-0.0304584020020753,0.0521272050296039,-0.541475920161143,-0.53,-1.05,9.73
2.5673959,0,0,0.9996,0,0,65.6875,4.23999395882428,5.37745129955945,0.838613196606238,-0.0304584020020753,0.0521272050296039,-0.541475920161143,-0.53,-1.05,9.73
2.5895111,0,0,0.9996,0,0,65.6875,4.23999395882428,5.37745129955945,0.838613196606238,-0.0304584020020753,0.0521272050296039,-0.541475920161143,-0.53,-1.05,9.73
2.6083157,0,0,0.9996,0,0,65.6875,4.23999395882428,5.37745129955945,0.838613196606238,-0.0304584020020753,0.0521272050296039,-0.541475920161143,-0.53,-1.05,9.73
2.7062352,0,0,0.9996,0,0,65.6875,4.23999395882428,5.37745129955945,0.838613196606238,-0.0304584020020753,0.0521272050296039,-0.541475920161143,-0.53,-1.05,9.73
2.7265713,0,0,0.9996,0,0,65.6875,4.23999395882428,5.37745129955945,0.838613196606238,-0.0304584020020753,0.0521272050296039,-0.541475920161143,-0.53,-1.05,9.73
2.7456737,0,0,0.9996,0,0,65.6875,4.23999395882428,5.37745129955945,0.838613196606238,-0.0304584020020753,0.0521272050296039,-0.541475920161143,-0.53,-1.05,9.73
2.8584124,0,0,0.9996,0,0,65.6875,4.23999395882428,5.37745129955945,0.838613196606238,-0.0304584020020753,0.0521272050296039,-0.541475920161143,-0.53,-1.05,9.73
2.878507,0,0,0.9996,0,0,65.6875,4.23999395882428,5.37745129955945,0.838613196606238,-0.0304584020020753,0.0521272050296039,-0.541475920161143,-0.53,-1.05,9.73
2.8953675,0,0,0.9996,0,0,65.6875,4.23999395882428,5.37745129955945,0.838613196606238,-0.0304584020020753,0.0521272050296039,-0.541475920161143,-0.53,-1.05,9.73
2.9932575,0,0,0.9996,0,0,65.6875,4.23999395882428,5.37745129955945,0.838613196606238,-0.0304584020020753,0.0521272050296039,-0.541475920161143,-0.53,-1.05,9.73
3.0124732,90,0,0.9996,0,0,65.6875,4.23999395882428,5.37745129955945,0.838613196606238,-0.0304584020020753,0.0521272050296039,-0.541475920161143,-0.53,-1.05,9.73
3.0306097,90,1.35,0.9996,0,0,65.6875,4.23999395882428,5.37745129955945,0.838613196606238,-0.0304584020020753,0.0521272050296039,-0.541475920161143,-0.53,-1.05,9.73
3.1304888,90,25.2,1.2936,0,0,65.6875,4.23999395882428,5.37745129955945,0.838613196606238,-0.0304584020020753,0.0521272050296039,-0.541475920161143,-0.53,-1.05,9.73
3.150588,90,33.75,1.4406,0,0,65.6875,4.23999395882428,5.37745129955945,0.838613196606238,-0.0304584020020753,0.0521272050296039,-0.541475920161143,-0.53,-1.05,9.73
3.1707874,90,43.65,1.6268,0,0,65.6875,4.23999395882428,5.37745129955945,0.838613196606238,-0.0304584020020753,0.0521272050296039,-0.541475920161143,-0.53,-1.05,9.73
3.2696756,90,82.35,2.5676,0,0,65.6875,4.21340249498634,5.43401227595622,0.838674235488006,-0.0302752853567723,0.0520661661478362,-0.541414881279375,-0.53,-1.05,9.73
3.2904921,90,86.4,2.7244,0,0,65.6875,4.21340249498634,5.43401227595622,0.838674235488006,-0.0300311298297015,0.0520661661478362,-0.541414881279375,-0.53,-1.04,9.73
3.3083403,90,88.65,2.7832,0,0,65.6875,4.15684151858957,5.40742081211828,0.838674235488006,-0.0299090520661661,0.0520051272660685,-0.541475920161143,-0.53,-1.04,9.73
3.4062826,90,90,2.9008,0,0,65.6875,4.13025005475163,5.46398178851505,0.838613196606238,-0.0292986632484893,0.0521882439113715,-0.541597997924678,-0.54,-1.03,9.73
3.4263793,90,90,2.8812,0,0,65.6875,4.07368907835487,5.43739032467711,0.83855215772447,-0.0289934688396509,0.0521882439113715,-0.541597997924678,-0.55,-1.03,9.73
3.4424082,90,90,2.8518,0,0,65.6875,4.07368907835487,5.43739032467711,0.83855215772447,-0.0286882744308124,0.0521882439113715,-0.541659036806446,-0.55,-1.02,9.73
3.5443946,90,90,2.7244,0,0,65.6875,3.76767078125398,5.50070739851567,0.83855215772447,-0.0261246413965696,0.0520661661478362,-0.541842153451749,-0.57,-0.98,9.74
3.5754346,90,90,2.695,0,0,65.6875,3.62795736462251,5.50408544723656,0.83855215772447,-0.0251480192882866,0.0520051272660685,-0.541903192333516,-0.58,-0.96,9.74
3.5943997,90,90,2.6558,0,0,65.75,3.57139638822574,5.47749398339862,0.838491118842703,-0.0244155527070744,0.0520051272660685,-0.541964231215284,-0.59,-0.95,9.74
3.6954056,90,90,2.5088,0,0,65.75,3.12566467449339,5.54418910595807,0.838491118842703,-0.0205090642739425,0.0517609717389977,-0.542208386742355,-0.63,-0.88,9.74
3.7154545,90,90,2.4696,0,0,65.75,3.01254272169986,5.49100617828219,0.838491118842703,-0.0196545199291949,0.0516999328572301,-0.542208386742355,-0.64,-0.86,9.74
3.7345667,90,90,2.4304,0,0,65.75,2.92939028146515,5.52097569084102,0.838491118842703,-0.0187999755844473,0.0516388939754624,-0.542269425624123,-0.64,-0.85,9.74
3.8383878,90,90,2.2638,0,0,65.75,2.42709759133603,5.56107934956253,0.838430079960935,-0.0142220594518708,0.0513947384483916,-0.542513581151193,-0.69,-0.78,9.75
3.8597055,90,90,2.2246,0,0,65.8125,2.34394515110133,5.59104886212136,0.838430079960935,-0.0134285539888909,0.0513336995666239,-0.542574620032961,-0.7,-0.76,9.75
3.8773407,90,90,2.205,0,0,65.8125,2.28738417470456,5.56445739828342,0.838430079960935,-0.0126960874076787,0.0513336995666239,-0.542574620032961,-0.7,-0.75,9.75
3.9794949,90,90,2.058,0,0,65.8125,1.78509148457544,5.60456105700493,0.838369041079167,-0.00878959897454679,0.0510895440395532,-0.542757736678264,-0.74,-0.68,9.75
3.9994242,90,90,2.0384,0,0,65.8125,1.70193904434073,5.63453056956376,0.838369041079167,-0.00811817127510224,0.0511505829213209,-0.542757736678264,-0.75,-0.67,9.75
4.015284,90,90,2.0188,0,0,65.8125,1.70193904434073,5.63453056956376,0.838369041079167,-0.00744674357565769,0.0510895440395532,-0.542757736678264,-0.76,-0.66,9.75
4.1164864,90,90,1.9208,0,0,65.75,1.42251221107779,5.64128666700555,0.83855215772447,-0.00537142159555637,0.0507843496307148,-0.542513581151193,-0.77,-0.62,9.75
4.1454468,90,90,1.911,0,0,65.8125,1.33935977084309,5.67125617956438,0.838430079960935,-0.00500518830495025,0.0507843496307148,-0.542696697796496,-0.78,-0.61,9.75
4.2586368,90,90,1.8816,0,0,65.75,1.11649391397691,5.7046037408441,0.83855215772447,-0.00292986632484893,0.0509064273942501,-0.542513581151193,-0.8,-0.59,9.75
4.2773862,90,90,1.8816,0,0,65.75,1.05993293758014,5.67801227700616,0.838674235488006,-0.0026246719160105,0.0509674662760178,-0.54233046450589,-0.81,-0.58,9.75
4.2944662,90,90,1.8816,0,0,65.75,1.0333414737422,5.73457325340293,0.838674235488006,-0.00250259415247513,0.0510285051577855,-0.54233046450589,-0.81,-0.58,9.75
4.3923889,90,90,1.9208,0,0,65.75,1.11649391397691,5.7046037408441,0.838613196606238,-0.00299090520661661,0.0510895440395532,-0.542452542269426,-0.8,-0.59,9.75
4.4145401,90,90,1.9306,0,0,65.75,1.11649391397691,5.7046037408441,0.838735274369774,-0.00317402185191967,0.0512116218030886,-0.542208386742355,-0.8,-0.59,9.75
4.4376453,90,90,1.9502,0,0,65.75,1.17305489037368,5.73119520468204,0.838613196606238,-0.00354025514252579,0.051516816211927,-0.542391503387658,-0.8,-0.6,9.75
4.5484289,90,90,2.0678,0,0,65.75,1.50904270003339,5.75103057107819,0.838613196606238,-0.00628700482207166,0.0518830495025331,-0.54233046450589,-0.78,-0.65,9.75
4.5694311,90,90,2.0874,0,0,65.75,1.56560367643016,5.77762203491613,0.838613196606238,-0.00659219923091009,0.0519440883843008,-0.542269425624123,-0.78,-0.66,9.75
4.5882837,90,90,2.1168,0,0,65.75,1.64875611666486,5.7476525223573,0.838674235488006,-0.00769089910272844,0.0521272050296039,-0.542208386742355,-0.77,-0.68,9.75
4.7003601,90,90,2.2834,0,0,65.75,2.12445734295604,5.76410984003256,0.838613196606238,-0.0117194652993957,0.0526155160837453,-0.542208386742355,-0.74,-0.75,9.74
4.7224921,90,90,2.2932,0,0,65.75,2.20760978319075,5.73414032747373,0.838491118842703,-0.0125740096441433,0.0526155160837453,-0.54233046450589,-0.73,-0.76,9.74
4.8304678,90,90,2.4696,0,0,65.75,2.68331100948193,5.75059764514899,0.838491118842703,-0.016907770249649,0.0531648660196545,-0.542147347860587,-0.69,-0.84,9.74
4.849465,90,90,2.4892,0,0,65.75,2.8230244261134,5.74721959642809,0.838430079960935,-0.0178233534761643,0.0532259049014222,-0.542208386742355,-0.68,-0.85,9.74
4.8644071,90,90,2.5284,0,0,65.75,2.90617686634811,5.71725008386926,0.838491118842703,-0.0182506256485381,0.0532869437831899,-0.542086308978819,-0.68,-0.86,9.74
4.965447,90,90,2.646,0,0,65.75,3.32531711624252,5.70711593770658,0.8383080021974,-0.02215711408167,0.0538362937190991,-0.542208386742355,-0.64,-0.94,9.73
4.9834302,90,90,2.6754,0,0,65.75,3.465030532874,5.70373788898569,0.838246963315632,-0.0230116584264176,0.0538973326008668,-0.542208386742355,-0.64,-0.95,9.73
4.9984054,90,90,2.695,0,0,65.75,3.52159150927076,5.73032935282363,0.8383080021974,-0.0238051638893975,0.0538973326008668,-0.542147347860587,-0.63,-0.96,9.73
5.0964863,90,90,2.793,0,0,65.75,3.94073175916518,5.72019520666095,0.838124885552097,-0.0271012635048526,0.0543856436550082,-0.542208386742355,-0.6,-1.02,9.73
5.1164518,90,90,2.8028,0,0,65.75,3.94073175916518,5.72019520666095,0.838124885552097,-0.0277726912042971,0.0544466825367759,-0.542147347860587,-0.59,-1.03,9.73
5.1354855,90,90,2.8126,0,0,65.75,4.02388419939988,5.69022569410212,0.838063846670329,-0.0283220411402063,0.0544466825367759,-0.542208386742355,-0.59,-1.04,9.73
5.2354867,90,90,2.8518,0,0,65.75,4.27671956882489,5.7400305730571,0.838002807788561,-0.0301532075932369,0.0549960324726851,-0.542147347860587,-0.58,-1.07,9.72
5.2585297,90,90,2.8518,0,0,65.75,4.27671956882489,5.7400305730571,0.838002807788561,-0.0303973631203076,0.0549960324726851,-0.542147347860587,-0.58,-1.08,9.72
5.2787754,90,90,2.8616,0,0,65.75,4.33328054522166,5.76662203689504,0.838002807788561,-0.0305804797656107,0.0549960324726851,-0.542147347860587,-0.57,-1.08,9.72
5.391386,90,90,2.8322,0,0,65.75,4.3598720090596,5.71006106049827,0.837941768906794,-0.0310687908197522,0.0548739547091497,-0.542208386742355,-0.57,-1.09,9.72
5.4124489,90,90,2.8126,0,0,65.8125,4.3598720090596,5.71006106049827,0.837941768906794,-0.0308856741744491,0.0547518769456144,-0.542269425624123,-0.57,-1.08,9.72
5.4283707,90,90,2.8126,0,0,65.8125,4.30331103266283,5.68346959666033,0.837941768906794,-0.0306415186473784,0.054812915827382,-0.542269425624123,-0.57,-1.08,9.72
5.5325075,90,90,2.7244,0,0,65.8125,4.16359761603136,5.68684764538123,0.837880730025026,-0.0287493133125801,0.0545077214185436,-0.542452542269426,-0.58,-1.05,9.73
5.5615193,90,90,2.7048,0,0,65.8125,4.02388419939988,5.69022569410212,0.837880730025026,-0.0281999633766709,0.0544466825367759,-0.542452542269426,-0.59,-1.03,9.73
5.6594095,90,90,2.5774,0,0,65.8125,3.66130492590224,5.72695130410274,0.837880730025026,-0.0251480192882866,0.0540804492461698,-0.542635658914729,-0.62,-0.98,9.73
5.6825406,90,90,2.548,0,0,65.8125,3.60474394950547,5.7003598402648,0.837880730025026,-0.0244155527070744,0.0540804492461698,-0.542696697796496,-0.63,-0.97,9.73
5.7015461,90,90,2.5284,0,0,65.8125,3.52159150927076,5.73032935282363,0.837880730025026,-0.0236830861258622,0.0540194103644021,-0.542757736678264,-0.63,-0.95,9.73
5.8023736,90,90,2.3814,0,0,65.875,3.04589028297958,5.71387203514837,0.837880730025026,-0.0195934810474272,0.0535310993102606,-0.543001892205335,-0.67,-0.89,9.74
5.8203473,90,90,2.3422,0,0,65.875,3.04589028297958,5.71387203514837,0.837880730025026,-0.0192272477568211,0.0534700604284929,-0.543001892205335,-0.67,-0.87,9.74
5.8363688,90,90,2.3324,0,0,65.875,2.90617686634811,5.71725008386926,0.837880730025026,-0.0184337422938412,0.0534700604284929,-0.543062931087102,-0.68,-0.87,9.74
5.8513602,90,90,2.3128,0,0,65.875,2.8230244261134,5.74721959642809,0.837880730025026,-0.0177012757126289,0.0533479826649576,-0.543062931087102,-0.68,-0.85,9.74
5.9594759,90,90,2.156,0,0,65.875,2.40388417621899,5.75735374259077,0.837819691143258,-0.0139168650430324,0.0530427882561191,-0.543246047732406,-0.72,-0.79,9.74
5.9773827,90,90,2.1364,0,0,65.875,2.34732319982222,5.73076227875283,0.837819691143258,-0.0135506317524263,0.0529817493743515,-0.543307086614173,-0.72,-0.78,9.74
6.0014421,90,90,2.107,0,0,65.875,2.26417075958752,5.76073179131166,0.837819691143258,-0.0125129707623756,0.0528596716108161,-0.543307086614173,-0.73,-0.76,9.74
6.1055979,90,90,1.9992,0,0,65.875,1.8450305096931,5.77086593747434,0.837819691143258,-0.00885063785631447,0.05249343832021,-0.543429164377709,-0.76,-0.7,9.75
6.1253963,90,90,1.9796,0,0,65.9375,1.76187806945839,5.80083545003317,0.837819691143258,-0.00854544344747604,0.05249343832021,-0.543429164377709,-0.77,-0.7,9.75
6.1405252,90,90,1.9698,0,0,65.9375,1.70531709306163,5.77424398619524,0.837819691143258,-0.00781297686626381,0.0523103216749069,-0.543490203259476,-0.77,-0.68,9.75
6.2433705,90,90,1.911,0,0,65.9375,1.42589025979868,5.78100008363702,0.837880730025026,-0.0056766160043948,0.0521272050296039,-0.543490203259476,-0.79,-0.64,9.75
6.2613646,90,90,1.911,0,0,65.9375,1.42589025979868,5.78100008363702,0.837880730025026,-0.00555453824085943,0.0521272050296039,-0.543490203259476,-0.79,-0.64,9.75
6.2773661,90,90,1.9012,0,0,65.9375,1.42589025979868,5.78100008363702,0.837880730025026,-0.00537142159555637,0.0520661661478362,-0.543490203259476,-0.79,-0.64,9.75
6.3804226,90,90,1.911,0,0,65.875,1.34273781956398,5.81096959619585,0.837880730025026,-0.00469999389611182,0.0521272050296039,-0.543429164377709,-0.8,-0.63,9.75
6.3983647,90,90,1.9208,0,0,65.875,1.34273781956398,5.81096959619585,0.837880730025026,-0.00476103277787951,0.0521272050296039,-0.543429164377709,-0.8,-0.63,9.75
6.4134165,90,90,1.9208,0,0,65.875,1.34273781956398,5.81096959619585,0.837880730025026,-0.0048220716596472,0.0521882439113715,-0.543368125495941,-0.8,-0.63,9.75
6.4305477,90,90,1.9306,0,0,65.875,1.34273781956398,5.81096959619585,0.837941768906794,-0.00488311054141488,0.0521882439113715,-0.543368125495941,-0.8,-0.63,9.75
6.5315604,90,90,2.009,0,0,65.875,1.53901221259222,5.8341830113129,0.837941768906794,-0.00628700482207166,0.0524323994384423,-0.543246047732406,-0.79,-0.66,9.75
6.5536032,90,90,2.0188,0,0,65.875,1.53901221259222,5.8341830113129,0.838002807788561,-0.00671427699444546,0.0524323994384423,-0.543246047732406,-0.78,-0.67,9.75
6.5725099,90,90,2.0384,0,0,65.875,1.62216465282692,5.80421349875407,0.838002807788561,-0.00738570469389001,0.0525544772019777,-0.543185008850638,-0.78,-0.68,9.75
6.6715702,90,90,2.1658,0,0,65.875,1.95815246248663,5.82404886515022,0.838063846670329,-0.0103766099005066,0.0529207104925838,-0.543062931087102,-0.75,-0.73,9.74
6.6925235,90,90,2.1854,0,0,65.875,2.04130490272134,5.79407935259139,0.838063846670329,-0.0109869987181835,0.0529817493743515,-0.543001892205335,-0.75,-0.74,9.74
6.7115678,90,90,2.2148,0,0,65.875,2.09786587911811,5.82067081642932,0.838063846670329,-0.0113532320087896,0.0530427882561191,-0.543001892205335,-0.74,-0.75,9.74
6.8125166,90,90,2.352,0,0,65.8125,2.51700612901252,5.81053667026665,0.838124885552097,-0.0152597204419215,0.0534700604284929,-0.542757736678264,-0.71,-0.81,9.74
6.8327944,90,90,2.3716,0,0,65.8125,2.60015856924723,5.78056715770782,0.838124885552097,-0.0159921870231337,0.0535921381920283,-0.542757736678264,-0.71,-0.83,9.74
6.8505472,90,90,2.401,0,0,65.8125,2.65671954564399,5.80715862154575,0.838124885552097,-0.0166636147225783,0.0537142159555637,-0.542696697796496,-0.7,-0.84,9.74
6.9493771,90,90,2.5284,0,0,65.8125,3.07585979553841,5.79702447538307,0.838124885552097,-0.0203259476286394,0.0541414881279375,-0.542513581151193,-0.67,-0.9,9.74
6.9685846,90,90,2.5578,0,0,65.8125,3.15901223577311,5.76705496282424,0.838124885552097,-0.020997375328084,0.0542635658914729,-0.542452542269426,-0.66,-0.92,9.74
6.9854871,90,90,2.5872,0,0,65.8125,3.27213418856665,5.82023789050012,0.838124885552097,-0.0213636086186901,0.0543246047732406,-0.542452542269426,-0.66,-0.92,9.73
7.0815598,90,90,2.6852,0,0,65.75,3.6347134620643,5.7835122804995,0.838124885552097,-0.0245986693523775,0.054812915827382,-0.54233046450589,-0.63,-0.98,9.73
7.0994102,90,90,2.695,0,0,65.75,3.69127443846107,5.81010374433744,0.838124885552097,-0.0252090581700543,0.0548739547091497,-0.542269425624123,-0.63,-0.99,9.73
7.1154836,90,90,2.7146,0,0,65.75,3.69127443846107,5.81010374433744,0.838063846670329,-0.0255142525788928,0.0549349935909174,-0.542269425624123,-0.62,-1,9.73
7.2194927,90,90,2.7832,0,0,65.75,3.97070127172401,5.80334764689565,0.838063846670329,-0.0278947689678325,0.0552401879997558,-0.542208386742355,-0.61,-1.04,9.73
7.2385091,90,90,2.7832,0,0,65.75,4.02726224812078,5.82993911073359,0.838002807788561,-0.028383080021974,0.0554233046450589,-0.542208386742355,-0.6,-1.05,9.73
7.2535543,90,90,2.793,0,0,65.75,4.11041468835548,5.79996959817476,0.838002807788561,-0.0285051577855094,0.0554843435268266,-0.542147347860587,-0.6,-1.05,9.73
7.3515102,90,90,2.8028,0,0,65.75,4.11041468835548,5.79996959817476,0.838002807788561,-0.0286272355490447,0.055606421290362,-0.542147347860587,-0.6,-1.06,9.72
7.3714566,90,90,2.793,0,0,65.75,4.11041468835548,5.79996959817476,0.838002807788561,-0.0286272355490447,0.055606421290362,-0.542147347860587,-0.6,-1.06,9.72
7.3888773,90,90,2.793,0,0,65.75,4.11041468835548,5.79996959817476,0.838002807788561,-0.0285661966672771,0.0555453824085943,-0.542147347860587,-0.6,-1.06,9.73
7.4934127,90,90,2.7538,0,0,65.75,3.97070127172401,5.80334764689565,0.838002807788561,-0.0273454190319233,0.0553622657632912,-0.542269425624123,-0.61,-1.03,9.73
7.5123809,90,90,2.7342,0,0,65.75,3.94410980788607,5.85990862329242,0.838002807788561,-0.0271623023866203,0.0553622657632912,-0.542269425624123,-0.62,-1.03,9.73
7.530396,90,90,2.7342,0,0,65.8125,3.88754883148931,5.83331715945448,0.838002807788561,-0.0266129524507111,0.0553012268815235,-0.542269425624123,-0.62,-1.02,9.73
7.6623531,90,90,2.597,0,0,65.8125,3.52496955799166,5.8700427694551,0.838002807788561,-0.0235610083623268,0.0549960324726851,-0.542452542269426,-0.65,-0.96,9.73
7.6875084,90,90,2.5676,0,0,65.8125,3.41184760519812,5.81685984177923,0.838002807788561,-0.0223402307269731,0.054812915827382,-0.542574620032961,-0.66,-0.95,9.73
7.707478,90,90,2.5578,0,0,65.8125,3.32869516496342,5.84682935433806,0.838002807788561,-0.0220350363181347,0.054812915827382,-0.542574620032961,-0.66,-0.94,9.73
7.8275671,90,90,2.3912,0,0,65.8125,2.909554915069,5.85696350050073,0.838002807788561,-0.0181285478850027,0.0543856436550082,-0.542818775560032,-0.7,-0.87,9.74
7.856581,90,90,2.3618,0,0,65.8125,2.76984149843753,5.86034154922163,0.837941768906794,-0.0170908868949521,0.0542635658914729,-0.542879814441799,-0.7,-0.85,9.74
7.8726368,90,90,2.3324,0,0,65.875,2.71328052204076,5.83375008538369,0.837941768906794,-0.0164194591955075,0.0542025270097052,-0.542879814441799,-0.71,-0.84,9.74
7.978499,90,90,2.1952,0,0,65.875,2.35070124854311,5.87047569538431,0.837941768906794,-0.0131233595800525,0.0538362937190991,-0.543062931087102,-0.74,-0.78,9.74
7.9996051,90,90,2.1854,0,0,65.875,2.26754880830841,5.90044520794314,0.837941768906794,-0.0125740096441433,0.0537752548373314,-0.54312396996887,-0.75,-0.77,9.74
8.0178387,90,90,2.156,0,0,65.875,2.21098783191164,5.8738537441052,0.837880730025026,-0.0119636208264665,0.0537142159555637,-0.54312396996887,-0.75,-0.76,9.74
8.1296139,90,90,2.0384,0,0,65.875,1.87500002225193,5.85401837770905,0.837880730025026,-0.00885063785631447,0.0532869437831899,-0.543307086614173,-0.77,-0.71,9.74
8.1534743,90,90,2.0188,0,0,65.875,1.79184758201723,5.88398789026788,0.837880730025026,-0.00848440456570836,0.0532259049014222,-0.543307086614173,-0.78,-0.7,9.74
8.1739316,90,90,2.009,0,0,65.875,1.73528660562046,5.85739642642994,0.837880730025026,-0.00811817127510224,0.0531648660196545,-0.543368125495941,-0.78,-0.69,9.74
8.356398,90,90,1.9306,0,0,65.875,1.59557318898899,5.86077447515083,0.837819691143258,-0.00683635475798083,0.0527986327290484,-0.543429164377709,-0.79,-0.67,9.75
8.3744214,90,90,1.9306,0,0,65.875,1.59557318898899,5.86077447515083,0.837819691143258,-0.00683635475798083,0.0527986327290484,-0.543429164377709,-0.79,-0.67,9.75
8.3904433,90,90,1.9306,0,0,65.875,1.59557318898899,5.86077447515083,0.837819691143258,-0.00683635475798083,0.0527986327290484,-0.543429164377709,-0.79,-0.67,9.75
8.5065115,90,90,1.9698,0,0,65.875,1.73528660562046,5.85739642642994,0.837880730025026,-0.00799609351156687,0.0531648660196545,-0.543368125495941,-0.78,-0.69,9.74
8.5275462,90,90,1.9796,0,0,65.875,1.73528660562046,5.85739642642994,0.837880730025026,-0.00836232680217298,0.0532259049014222,-0.543307086614173,-0.78,-0.7,9.74
8.5425177,90,90,1.9894,0,0,65.875,1.79184758201723,5.88398789026788,0.837880730025026,-0.00854544344747604,0.0532259049014222,-0.543307086614173,-0.78,-0.7,9.74
8.6464572,90,90,2.0874,0,0,65.875,2.07127441528017,5.87723179282609,0.837880730025026,-0.0111701153634865,0.0534700604284929,-0.543185008850638,-0.75,-0.75,9.74
8.6654467,90,90,2.107,0,0,65.875,2.15442685551487,5.84726228026726,0.837941768906794,-0.0117194652993957,0.0535310993102606,-0.543185008850638,-0.75,-0.76,9.74
8.6826533,90,90,2.1266,0,0,65.875,2.21098783191164,5.8738537441052,0.837941768906794,-0.0120246597082341,0.0535921381920283,-0.54312396996887,-0.75,-0.76,9.74
8.7884834,90,90,2.2442,0,0,65.875,2.57356710540929,5.83712813410458,0.837941768906794,-0.0154428370872246,0.0539583714826344,-0.542940853323567,-0.72,-0.82,9.74
8.80653,90,90,2.2736,0,0,65.875,2.63012808180606,5.86371959794252,0.837941768906794,-0.0160532259049014,0.0540194103644021,-0.542940853323567,-0.71,-0.83,9.74
8.8257135,90,90,2.2932,0,0,65.875,2.63012808180606,5.86371959794252,0.837941768906794,-0.0164194591955075,0.0540804492461698,-0.542879814441799,-0.71,-0.84,9.74
8.9615501,90,90,2.4696,0,0,65.8125,3.18898174833194,5.85020740305895,0.838002807788561,-0.0206921809192456,0.054629799182079,-0.542635658914729,-0.67,-0.93,9.73
8.9815676,90,90,2.4892,0,0,65.8125,3.32869516496342,5.84682935433806,0.838002807788561,-0.0216688030275285,0.0546908380638467,-0.542574620032961,-0.66,-0.93,9.73
9.0014704,90,90,2.5088,0,0,65.8125,3.38525614136018,5.87342081817599,0.838002807788561,-0.0222791918452054,0.054812915827382,-0.542574620032961,-0.66,-0.94,9.73
9.1285359,90,90,2.6362,0,0,65.8125,3.74783541485783,5.83669520817538,0.838002807788561,-0.0257584081059635,0.0553012268815235,-0.54233046450589,-0.63,-1.01,9.73
9.148575,90,90,2.6558,0,0,65.8125,3.8043963912546,5.86328667201331,0.838002807788561,-0.0261856802783373,0.0553622657632912,-0.54233046450589,-0.63,-1.01,9.73
9.1666088,90,90,2.6656,0,0,65.8125,3.88754883148931,5.83331715945448,0.838002807788561,-0.0263687969236404,0.0554233046450589,-0.54233046450589,-0.63,-1.02,9.73
9.2764994,90,90,2.744,0,0,65.75,4.05723176067961,5.9130915509683,0.838002807788561,-0.0280778856131356,0.0559726545809681,-0.542208386742355,-0.62,-1.05,9.72
9.2944993,90,90,2.744,0,0,65.75,4.05723176067961,5.9130915509683,0.838002807788561,-0.0281999633766709,0.0560336934627358,-0.542208386742355,-0.62,-1.05,9.72
9.3125148,90,90,2.7538,0,0,65.75,4.05723176067961,5.9130915509683,0.838002807788561,-0.0281999633766709,0.0560336934627358,-0.542208386742355,-0.62,-1.06,9.72
9.4576284,90,90,2.7538,0,0,65.75,4.05723176067961,5.9130915509683,0.838002807788561,-0.0283220411402063,0.0561557712262711,-0.542208386742355,-0.62,-1.06,9.72
9.4805055,90,90,2.744,0,0,65.75,4.05723176067961,5.9130915509683,0.838002807788561,-0.0281999633766709,0.0560947323445034,-0.542208386742355,-0.62,-1.05,9.72
9.495498,90,90,2.7342,0,0,65.75,4.05723176067961,5.9130915509683,0.838002807788561,-0.0280168467313679,0.0560947323445034,-0.542208386742355,-0.62,-1.05,9.72
9.6049282,90,90,2.6754,0,0,65.8125,3.86095736765137,5.88987813585125,0.837941768906794,-0.026246719160105,0.0560336934627358,-0.54233046450589,-0.64,-1.02,9.73
9.6268101,90,90,2.6656,0,0,65.8125,3.77780492741666,5.91984764841008,0.837941768906794,-0.0258194469877312,0.0559726545809681,-0.54233046450589,-0.64,-1.02,9.73
9.6466447,90,90,2.6362,0,0,65.8125,3.77780492741666,5.91984764841008,0.837941768906794,-0.0253921748153574,0.0559726545809681,-0.542391503387658,-0.65,-1,9.73
9.7468045,90,90,2.548,0,0,65.8125,3.44181711775695,5.90001228201393,0.837941768906794,-0.0228285417811146,0.0557284990538973,-0.542513581151193,-0.67,-0.96,9.73
9.7685323,90,90,2.5186,0,0,65.8125,3.35866467752225,5.92998179457276,0.837941768906794,-0.0219129585545993,0.055606421290362,-0.542574620032961,-0.68,-0.95,9.73
9.7940137,90,90,2.499,0,0,65.8125,3.27551223728754,5.95995130713159,0.837941768906794,-0.0213636086186901,0.0555453824085943,-0.542635658914729,-0.68,-0.94,9.73
9.9004981,90,90,2.3716,0,0,65.8125,2.93952442762783,5.94011594073544,0.837941768906794,-0.017884392357932,0.0551791491179882,-0.542818775560032,-0.71,-0.88,9.74
9.9216928,90,90,2.3422,0,0,65.8125,2.79981101099636,5.94349398945633,0.837941768906794,-0.0172740035402551,0.0551181102362205,-0.542818775560032,-0.72,-0.87,9.74
9.9428824,90,90,2.3128,0,0,65.875,2.71665857076165,5.97346350201516,0.837880730025026,-0.0166636147225783,0.0550570713544528,-0.542879814441799,-0.72,-0.85,9.74
10.0534836,90,90,2.1756,0,0,65.875,2.38067076110194,5.95362813561901,0.837880730025026,-0.0131843984618202,0.0545687603003113,-0.543062931087102,-0.75,-0.79,9.74
10.0737739,90,90,2.1658,0,0,65.875,2.29751832086724,5.98359764817784,0.837880730025026,-0.0129402429347494,0.0545687603003113,-0.54312396996887,-0.76,-0.78,9.74
10.0905314,90,90,2.1364,0,0,65.875,2.24095734447047,5.9570061843399,0.837880730025026,-0.0123908929988403,0.0545077214185436,-0.54312396996887,-0.76,-0.78,9.74
10.1896609,90,90,2.058,0,0,65.875,1.96153051120753,5.96376228178169,0.837819691143258,-0.0101324543734359,0.0541414881279375,-0.543246047732406,-0.78,-0.74,9.74
10.2116813,90,90,2.0384,0,0,65.875,1.96153051120753,5.96376228178169,0.837819691143258,-0.00976622108282976,0.0540804492461698,-0.543246047732406,-0.78,-0.73,9.74
10.2266056,90,90,2.0286,0,0,65.875,1.90496953481076,5.93717081794375,0.837819691143258,-0.00939998779222365,0.0540804492461698,-0.543307086614173,-0.78,-0.73,9.74
10.3267687,90,90,1.9796,0,0,65.875,1.79184758201723,5.88398789026788,0.837819691143258,-0.00854544344747604,0.0534700604284929,-0.543368125495941,-0.78,-0.7,9.74
10.3537827,90,90,1.9698,0,0,65.875,1.79184758201723,5.88398789026788,0.837819691143258,-0.0083012879204053,0.0532869437831899,-0.543368125495941,-0.78,-0.7,9.74
10.3748834,90,90,1.96,0,0,65.875,1.73528660562046,5.85739642642994,0.837819691143258,-0.00799609351156687,0.0532869437831899,-0.543368125495941,-0.79,-0.69,9.74
10.4727254,90,90,1.96,0,0,65.875,1.65213416538575,5.88736593898877,0.837880730025026,-0.00732466581212232,0.0531038271378868,-0.543307086614173,-0.79,-0.68,9.75
10.4951121,90,90,1.9698,0,0,65.875,1.65213416538575,5.88736593898877,0.837880730025026,-0.00732466581212232,0.0531038271378868,-0.543307086614173,-0.79,-0.68,9.75
10.5216874,90,90,1.9796,0,0,65.875,1.65213416538575,5.88736593898877,0.837880730025026,-0.00732466581212232,0.0530427882561191,-0.543307086614173,-0.79,-0.68,9.75
10.6247436,90,90,2.0286,0,0,65.875,1.73528660562046,5.85739642642994,0.837941768906794,-0.00860648232924373,0.0531038271378868,-0.543185008850638,-0.78,-0.7,9.74
10.6457271,90,90,2.0482,0,0,65.875,1.81843904585516,5.82742691387111,0.837941768906794,-0.00897271561984984,0.0531038271378868,-0.543185008850638,-0.77,-0.71,9.74
10.6626631,90,90,2.0678,0,0,65.875,1.87500002225193,5.85401837770905,0.838002807788561,-0.00921687114692059,0.0531038271378868,-0.54312396996887,-0.77,-0.71,9.74
10.7605106,90,90,2.156,0,0,65.875,2.09786587911811,5.82067081642932,0.838002807788561,-0.011475309772325,0.0532869437831899,-0.543001892205335,-0.75,-0.75,9.74
10.7785809,90,90,2.1854,0,0,65.875,2.15442685551487,5.84726228026726,0.838063846670329,-0.0123908929988403,0.0533479826649576,-0.542940853323567,-0.74,-0.77,9.74
10.795631,90,90,2.1952,0,0,65.875,2.23757929574958,5.81729276770843,0.838063846670329,-0.0126960874076787,0.0533479826649576,-0.542940853323567,-0.74,-0.77,9.74
10.9116407,90,90,2.3324,0,0,65.8125,2.65671954564399,5.80715862154575,0.838063846670329,-0.0159921870231337,0.053653177073796,-0.542757736678264,-0.71,-0.83,9.74
10.9307009,90,90,2.3618,0,0,65.8125,2.71328052204076,5.83375008538369,0.838124885552097,-0.0169688091314167,0.0537752548373314,-0.542696697796496,-0.7,-0.85,9.74
10.9498905,90,90,2.3716,0,0,65.8125,2.79643296227547,5.80378057282486,0.838124885552097,-0.0172740035402551,0.0537752548373314,-0.542696697796496,-0.7,-0.85,9.74
11.0546079,90,90,2.4892,0,0,65.8125,3.13242077193518,5.82361593922101,0.838002807788561,-0.0205701031557102,0.0542635658914729,-0.542696697796496,-0.67,-0.91,9.74
11.0776983,90,90,2.5186,0,0,65.8125,3.21557321216988,5.79364642666218,0.838063846670329,-0.0208752975645486,0.0543856436550082,-0.542574620032961,-0.67,-0.92,9.74
11.096899,90,90,2.5382,0,0,65.8125,3.27213418856665,5.82023789050012,0.838002807788561,-0.0213636086186901,0.0543856436550082,-0.542635658914729,-0.66,-0.92,9.73
11.1976565,90,90,2.6362,0,0,65.8125,3.60812199822636,5.84007325689627,0.837941768906794,-0.024293474943539,0.0550570713544528,-0.542513581151193,-0.64,-0.98,9.73
11.2177177,90,90,2.6362,0,0,65.8125,3.60812199822636,5.84007325689627,0.837941768906794,-0.0245986693523775,0.0551181102362205,-0.542574620032961,-0.64,-0.99,9.73
11.238828,90,90,2.6558,0,0,65.8125,3.66468297462313,5.86666472073421,0.837941768906794,-0.0249038637612159,0.0552401879997558,-0.542513581151193,-0.64,-0.99,9.73
11.3495664,90,90,2.7146,0,0,65.8125,3.94410980788607,5.85990862329242,0.837819691143258,-0.0268571079777818,0.0556674601721296,-0.542513581151193,-0.62,-1.03,9.73
11.3685307,90,90,2.7146,0,0,65.8125,3.94410980788607,5.85990862329242,0.837819691143258,-0.0271012635048526,0.055789537935665,-0.542513581151193,-0.62,-1.03,9.73
11.3857126,90,90,2.7244,0,0,65.8125,3.94410980788607,5.85990862329242,0.837819691143258,-0.0273454190319233,0.0559116156992004,-0.542513581151193,-0.62,-1.04,9.73
11.481643,90,90,2.7244,0,0,65.8125,4.00067078428284,5.88650008713036,0.837758652261491,-0.0278337300860648,0.0559116156992004,-0.542513581151193,-0.62,-1.05,9.73
11.5006508,90,90,2.7244,0,0,65.8125,4.00067078428284,5.88650008713036,0.837758652261491,-0.0278947689678325,0.0559116156992004,-0.542513581151193,-0.62,-1.05,9.73
11.5186549,90,90,2.7146,0,0,65.8125,4.00067078428284,5.88650008713036,0.837758652261491,-0.0278947689678325,0.0559116156992004,-0.542513581151193,-0.62,-1.05,9.73
11.6186835,90,90,2.6754,0,0,65.8125,3.91751834404814,5.91646959968919,0.837758652261491,-0.0271623023866203,0.0560336934627358,-0.542635658914729,-0.63,-1.04,9.73
11.6397643,90,90,2.6656,0,0,65.8125,3.91751834404814,5.91646959968919,0.837758652261491,-0.0268571079777818,0.0560336934627358,-0.542635658914729,-0.63,-1.03,9.73
11.6586175,90,90,2.646,0,0,65.8125,3.91751834404814,5.91646959968919,0.837758652261491,-0.0266129524507111,0.0560336934627358,-0.542635658914729,-0.63,-1.03,9.73
11.759738,90,90,2.5676,0,0,65.875,3.63809151078519,5.92322569713098,0.837697613379723,-0.024293474943539,0.0559726545809681,-0.542818775560032,-0.66,-0.99,9.73
11.7820059,90,90,2.5382,0,0,65.875,3.55493907055049,5.95319520968981,0.837697613379723,-0.0238662027711652,0.0559116156992004,-0.542818775560032,-0.66,-0.98,9.73
11.8007837,90,90,2.5284,0,0,65.875,3.55493907055049,5.95319520968981,0.837697613379723,-0.0233168528352561,0.0559116156992004,-0.542879814441799,-0.67,-0.97,9.73
11.898557,90,90,2.4206,0,0,65.875,3.19235979705284,5.98992081969042,0.837697613379723,-0.0204480253921748,0.055606421290362,-0.543062931087102,-0.69,-0.92,9.73
11.9186308,90,90,2.401,0,0,65.875,3.13579882065607,5.96332935585248,0.837697613379723,-0.0198986754562656,0.0555453824085943,-0.543062931087102,-0.7,-0.91,9.73
11.9377907,90,90,2.3814,0,0,65.875,3.0792378442593,5.93673789201455,0.837697613379723,-0.0196545199291949,0.0555453824085943,-0.54312396996887,-0.7,-0.9,9.73
12.0356414,90,90,2.2736,0,0,65.875,2.71665857076165,5.97346350201516,0.837636574497955,-0.0166025758408106,0.0551791491179882,-0.543246047732406,-0.72,-0.86,9.74
12.0556965,90,90,2.254,0,0,65.875,2.71665857076165,5.97346350201516,0.837636574497955,-0.0160532259049014,0.0551181102362205,-0.543307086614173,-0.73,-0.85,9.74
12.0749305,90,90,2.2246,0,0,65.875,2.57694515413018,5.97684155073605,0.837636574497955,-0.0155038759689922,0.0550570713544528,-0.543307086614173,-0.73,-0.84,9.74
12.1885936,90,90,2.1168,0,0,65.9375,2.24095734447047,5.9570061843399,0.837636574497955,-0.0122688152353049,0.0545687603003113,-0.543490203259476,-0.76,-0.78,9.74
12.2067053,90,90,2.107,0,0,65.9375,2.24095734447047,5.9570061843399,0.837636574497955,-0.0120246597082341,0.0545077214185436,-0.543490203259476,-0.76,-0.77,9.74
12.2248142,90,90,2.0874,0,0,65.9375,2.1843963680737,5.93041472050197,0.837636574497955,-0.0118415430629311,0.0545077214185436,-0.543490203259476,-0.77,-0.77,9.74
12.3345965,90,90,2.0188,0,0,65.9375,1.9315609986487,5.88060984154698,0.837636574497955,-0.00964414331929439,0.0537142159555637,-0.543551242141244,-0.77,-0.72,9.74
12.3569051,90,90,2.009,0,0,65.9375,1.9315609986487,5.88060984154698,0.837636574497955,-0.0095831044375267,0.053653177073796,-0.543551242141244,-0.77,-0.72,9.74
12.3779012,90,90,1.9992,0,0,65.9375,1.9315609986487,5.88060984154698,0.837636574497955,-0.00933894891045596,0.0535310993102606,-0.543612281023012,-0.77,-0.72,9.74
12.4896243,90,90,1.9894,0,0,65.9375,1.87500002225193,5.85401837770905,0.837636574497955,-0.00921687114692059,0.0534090215467253,-0.543612281023012,-0.77,-0.72,9.74
12.5109047,90,90,1.9894,0,0,65.9375,1.87500002225193,5.85401837770905,0.837636574497955,-0.00921687114692059,0.0534090215467253,-0.543612281023012,-0.77,-0.72,9.74
12.5310343,90,90,1.9894,0,0,65.9375,1.87500002225193,5.85401837770905,0.837636574497955,-0.00927791002868827,0.0534090215467253,-0.543612281023012,-0.77,-0.72,9.74
12.6447352,90,90,2.0384,0,0,65.9375,2.0147134388834,5.85064032898815,0.837697613379723,-0.0105597265458097,0.0532869437831899,-0.543551242141244,-0.76,-0.74,9.74
12.6660152,90,90,2.0482,0,0,65.9375,2.07127441528017,5.87723179282609,0.837697613379723,-0.0109259598364158,0.0532869437831899,-0.543490203259476,-0.75,-0.74,9.74
12.684928,90,90,2.058,0,0,65.9375,2.09786587911811,5.82067081642932,0.837697613379723,-0.0113532320087896,0.0532869437831899,-0.543490203259476,-0.75,-0.75,9.74
12.7965854,90,90,2.156,0,0,65.875,2.37729271238105,5.81391471898754,0.837758652261491,-0.0140389428065678,0.0534700604284929,-0.543368125495941,-0.72,-0.8,9.74
12.8177431,90,90,2.1756,0,0,65.875,2.46044515261575,5.78394520642871,0.837758652261491,-0.0142830983336385,0.0534700604284929,-0.543368125495941,-0.72,-0.8,9.74
12.8378622,90,90,2.1952,0,0,65.875,2.51700612901252,5.81053667026665,0.837758652261491,-0.0148324482695477,0.0535310993102606,-0.543307086614173,-0.71,-0.81,9.74
12.9516794,90,90,2.3128,0,0,65.875,2.87958540251017,5.77381106026603,0.837819691143258,-0.0181285478850027,0.0538362937190991,-0.54312396996887,-0.69,-0.87,9.74
12.9707031,90,90,2.3422,0,0,65.875,2.93614637890694,5.80040252410397,0.837819691143258,-0.0186778978209119,0.0539583714826344,-0.54312396996887,-0.68,-0.88,9.74
12.9890364,90,90,2.352,0,0,65.875,2.99270735530371,5.8269939879419,0.837819691143258,-0.0192272477568211,0.0540804492461698,-0.543062931087102,-0.68,-0.89,9.74
13.1036541,90,90,2.4794,0,0,65.875,3.35528662880135,5.79026837794129,0.837819691143258,-0.0222181529634377,0.0545687603003113,-0.542879814441799,-0.65,-0.94,9.73
13.1257696,90,90,2.499,0,0,65.875,3.41184760519812,5.81685984177923,0.837819691143258,-0.0227064640175792,0.054629799182079,-0.542879814441799,-0.65,-0.95,9.73
13.142897,90,90,2.5088,0,0,65.875,3.46840858159489,5.84345130561716,0.837819691143258,-0.0231947750717207,0.0547518769456144,-0.542818775560032,-0.65,-0.96,9.73
13.2477598,90,90,2.597,0,0,65.8125,3.74783541485783,5.83669520817538,0.837819691143258,-0.0253311359335897,0.0553012268815235,-0.542696697796496,-0.63,-1,9.73
13.2701045,90,90,2.6166,0,0,65.8125,3.74783541485783,5.83669520817538,0.837758652261491,-0.0258194469877312,0.0554843435268266,-0.542696697796496,-0.63,-1.01,9.73
13.290916,90,90,2.6362,0,0,65.8125,3.8043963912546,5.86328667201331,0.837758652261491,-0.0261246413965696,0.055606421290362,-0.542635658914729,-0.63,-1.02,9.73
13.3929839,90,90,2.6852,0,0,65.8125,3.9740793204449,5.94306106352713,0.837758652261491,-0.027223341268388,0.0562168101080388,-0.542574620032961,-0.63,-1.04,9.73
13.4129421,90,90,2.6852,0,0,65.8125,3.9740793204449,5.94306106352713,0.837758652261491,-0.0273454190319233,0.0563388878715742,-0.542574620032961,-0.63,-1.04,9.72
13.430765,90,90,2.695,0,0,65.8125,3.9740793204449,5.94306106352713,0.837758652261491,-0.0274674967954587,0.0563999267533419,-0.542574620032961,-0.63,-1.05,9.72
13.5326818,90,90,2.695,0,0,65.8125,3.9740793204449,5.94306106352713,0.837758652261491,-0.0274674967954587,0.0564609656351096,-0.542574620032961,-0.63,-1.05,9.72
13.5556653,90,90,2.6852,0,0,65.8125,3.9740793204449,5.94306106352713,0.837758652261491,-0.0274674967954587,0.0564609656351096,-0.542574620032961,-0.63,-1.05,9.72
13.5757937,90,90,2.6852,0,0,65.8125,3.9740793204449,5.94306106352713,0.837758652261491,-0.0273454190319233,0.0564609656351096,-0.542574620032961,-0.63,-1.04,9.72
13.6779684,90,90,2.646,0,0,65.8125,3.83436590381343,5.94643911224802,0.837697613379723,-0.0260636025148019,0.0566440822804126,-0.542635658914729,-0.65,-1.03,9.73
13.7059921,90,90,2.6264,0,0,65.8125,3.80777443997549,6.00300008864479,0.837697613379723,-0.0255752914606604,0.0565830433986449,-0.542696697796496,-0.65,-1.02,9.73
13.7250557,90,90,2.6166,0,0,65.8125,3.75121346357873,5.97640862480685,0.837697613379723,-0.0253921748153574,0.0566440822804126,-0.542696697796496,-0.65,-1.01,9.73
13.8278092,90,90,2.5382,0,0,65.875,3.52834760671255,6.00975618608657,0.837697613379723,-0.0230726973081853,0.0565220045168773,-0.542818775560032,-0.68,-0.98,9.73
13.8487535,90,90,2.5186,0,0,65.875,3.44519516647784,6.0397256986454,0.837697613379723,-0.0225843862540438,0.0565220045168773,-0.542879814441799,-0.68,-0.97,9.73
13.8669405,90,90,2.5088,0,0,65.875,3.38863419008108,6.01313423480747,0.837697613379723,-0.0220350363181347,0.0565220045168773,-0.542879814441799,-0.69,-0.96,9.73
13.973809,90,90,2.3912,0,0,65.875,3.0826158929802,6.07645130864602,0.837636574497955,-0.0194714032838918,0.0562168101080388,-0.543062931087102,-0.71,-0.91,9.73
13.9936937,90,90,2.3814,0,0,65.875,3.02605491658343,6.04985984480808,0.837636574497955,-0.0189220533479827,0.0562168101080388,-0.543062931087102,-0.72,-0.9,9.73
14.0107645,90,90,2.352,0,0,65.875,2.96949394018666,6.02326838097014,0.837636574497955,-0.0183727034120735,0.0561557712262711,-0.54312396996887,-0.72,-0.89,9.73
14.112781,90,90,2.2442,0,0,65.875,2.66347564308578,6.0865854548087,0.837636574497955,-0.015748031496063,0.055789537935665,-0.543246047732406,-0.75,-0.84,9.74
14.1340269,90,90,2.2344,0,0,65.875,2.60691466668901,6.05999399097076,0.837636574497955,-0.0152597204419215,0.0557284990538973,-0.543307086614173,-0.75,-0.84,9.74
14.1542691,90,90,2.2148,0,0,65.9375,2.55035369029225,6.03340252713282,0.837636574497955,-0.01477140938778,0.0556674601721296,-0.543307086614173,-0.75,-0.83,9.74
14.27484,90,90,2.1168,0,0,65.9375,2.2709268570293,6.04015862457461,0.837575535616187,-0.0121467374717695,0.0551181102362205,-0.543490203259476,-0.77,-0.78,9.74
14.2958546,90,90,2.0972,0,0,65.9375,2.21436588063253,6.01356716073667,0.837575535616187,-0.0118415430629311,0.0549349935909174,-0.543490203259476,-0.77,-0.78,9.74
14.3117763,90,90,2.0776,0,0,65.9375,2.21436588063253,6.01356716073667,0.837636574497955,-0.0115973875358603,0.054812915827382,-0.543490203259476,-0.77,-0.77,9.74
14.411672,90,90,2.0384,0,0,65.9375,2.04468295144223,5.93379276922286,0.837636574497955,-0.0106818043093451,0.0542025270097052,-0.543551242141244,-0.77,-0.75,9.74
14.429719,90,90,2.0286,0,0,65.9375,2.04468295144223,5.93379276922286,0.837636574497955,-0.0106207654275774,0.0541414881279375,-0.543551242141244,-0.77,-0.75,9.74
14.4489903,90,90,2.0286,0,0,65.9375,2.04468295144223,5.93379276922286,0.837636574497955,-0.010498687664042,0.0540804492461698,-0.543551242141244,-0.77,-0.74,9.74
14.5577443,90,90,2.0188,0,0,65.9375,2.04468295144223,5.93379276922286,0.837636574497955,-0.010498687664042,0.0540194103644021,-0.543551242141244,-0.77,-0.74,9.74
14.5779382,90,90,2.0188,0,0,65.9375,2.04468295144223,5.93379276922286,0.837636574497955,-0.010498687664042,0.0540194103644021,-0.543551242141244,-0.77,-0.74,9.74
14.5986971,90,90,2.0188,0,0,65.9375,2.04468295144223,5.93379276922286,0.837636574497955,-0.0105597265458097,0.0539583714826344,-0.543551242141244,-0.77,-0.74,9.74
14.6997475,90,90,2.058,0,0,65.9375,2.12783539167694,5.90382325666403,0.837636574497955,-0.0117805041811634,0.0538362937190991,-0.543490203259476,-0.75,-0.76,9.74
14.722899,90,90,2.0776,0,0,65.9375,2.21098783191164,5.8738537441052,0.837697613379723,-0.0120856985900018,0.0538362937190991,-0.543490203259476,-0.75,-0.77,9.74
14.7479428,90,90,2.0874,0,0,65.9375,2.26754880830841,5.90044520794314,0.837697613379723,-0.0124519318806079,0.0538362937190991,-0.543490203259476,-0.74,-0.78,9.74
14.8497289,90,90,2.1658,0,0,65.875,2.49041466517459,5.86709764666341,0.837697613379723,-0.0147103705060123,0.0538973326008668,-0.543368125495941,-0.72,-0.81,9.74
14.8719043,90,90,2.1952,0,0,65.875,2.57356710540929,5.83712813410458,0.837697613379723,-0.0151986815601538,0.0538973326008668,-0.543307086614173,-0.72,-0.82,9.74
14.8941167,90,90,2.2148,0,0,65.875,2.63012808180606,5.86371959794252,0.837697613379723,-0.0156259537325276,0.0539583714826344,-0.543307086614173,-0.71,-0.83,9.74
14.9938061,90,90,2.303,0,0,65.875,2.909554915069,5.85696350050073,0.837758652261491,-0.0181895867667704,0.0541414881279375,-0.543185008850638,-0.69,-0.87,9.74
15.0157477,90,90,2.3226,0,0,65.875,2.99270735530371,5.8269939879419,0.837758652261491,-0.0186778978209119,0.0542025270097052,-0.54312396996887,-0.68,-0.88,9.74
15.0317573,90,90,2.3324,0,0,65.875,3.04926833170047,5.85358545177984,0.837758652261491,-0.0194714032838918,0.0543246047732406,-0.54312396996887,-0.68,-0.89,9.74
15.1398553,90,90,2.45,0,0,65.875,3.32869516496342,5.84682935433806,0.837758652261491,-0.0220350363181347,0.0546908380638467,-0.542940853323567,-0.66,-0.94,9.73
15.1629181,90,90,2.4696,0,0,65.875,3.41184760519812,5.81685984177923,0.837758652261491,-0.0225233473722761,0.054812915827382,-0.542940853323567,-0.66,-0.95,9.73
15.1862023,90,90,2.499,0,0,65.875,3.46840858159489,5.84345130561716,0.837758652261491,-0.0231947750717207,0.0549349935909174,-0.542879814441799,-0.65,-0.96,9.73
15.2910025,90,90,2.5676,0,0,65.8125,3.7212439510199,5.89325618457215,0.837758652261491,-0.0252090581700543,0.0554843435268266,-0.542757736678264,-0.64,-1,9.73
15.3128657,90,90,2.5872,0,0,65.8125,3.7212439510199,5.89325618457215,0.837758652261491,-0.0257584081059635,0.0556674601721296,-0.542696697796496,-0.64,-1.01,9.73
15.3311199,90,90,2.597,0,0,65.8125,3.8043963912546,5.86328667201331,0.837758652261491,-0.0258804858694989,0.055789537935665,-0.542696697796496,-0.63,-1.02,9.73
15.42874,90,90,2.646,0,0,65.8125,3.91751834404814,5.91646959968919,0.837697613379723,-0.0269791857413172,0.0563999267533419,-0.542635658914729,-0.63,-1.04,9.72
15.4468339,90,90,2.646,0,0,65.8125,3.9740793204449,5.94306106352713,0.837697613379723,-0.0271623023866203,0.0565220045168773,-0.542635658914729,-0.63,-1.04,9.72
15.4659533,90,90,2.6558,0,0,65.8125,3.9740793204449,5.94306106352713,0.837697613379723,-0.0272843801501556,0.0566440822804126,-0.542635658914729,-0.63,-1.05,9.72
15.5787202,90,90,2.6656,0,0,65.8125,3.9740793204449,5.94306106352713,0.837697613379723,-0.027406457913691,0.0567051211621803,-0.542574620032961,-0.63,-1.05,9.72
15.5968332,90,90,2.6656,0,0,65.8125,3.9740793204449,5.94306106352713,0.837697613379723,-0.027406457913691,0.056766160043948,-0.542574620032961,-0.64,-1.05,9.72
15.6171401,90,90,2.6558,0,0,65.8125,3.94748785660696,5.99962203992389,0.837697613379723,-0.0273454190319233,0.0568271989257157,-0.542635658914729,-0.64,-1.05,9.72
15.7177522,90,90,2.6264,0,0,65.8125,3.86433541637226,6.02959155248272,0.837636574497955,-0.026429835805408,0.0570713544527864,-0.542635658914729,-0.65,-1.04,9.72
15.7368831,90,90,2.6166,0,0,65.8125,3.86433541637226,6.02959155248272,0.837636574497955,-0.0261856802783373,0.0571323933345541,-0.542696697796496,-0.66,-1.03,9.72
15.7537461,90,90,2.6068,0,0,65.8125,3.86433541637226,6.02959155248272,0.837636574497955,-0.0260636025148019,0.0571323933345541,-0.542696697796496,-0.66,-1.03,9.72
15.8547984,90,90,2.5382,0,0,65.875,3.64146955950608,6.06293911376245,0.837636574497955,-0.0242324360617713,0.0571323933345541,-0.542818775560032,-0.68,-1,9.73
15.8761145,90,90,2.5186,0,0,65.875,3.55831711927138,6.09290862632128,0.837636574497955,-0.0236220472440945,0.0570713544527864,-0.542818775560032,-0.68,-0.99,9.73
15.8968695,90,90,2.5088,0,0,65.875,3.55831711927138,6.09290862632128,0.837636574497955,-0.0234389305987914,0.0570713544527864,-0.542818775560032,-0.68,-0.98,9.73
15.9957543,90,90,2.4206,0,0,65.875,3.27889028600844,6.09966472376306,0.837636574497955,-0.0208142586827809,0.0568882378074834,-0.543001892205335,-0.71,-0.94,9.73
16.0170692,90,90,2.401,0,0,65.875,3.19573784577373,6.12963423632189,0.837636574497955,-0.0203259476286394,0.0568271989257157,-0.543062931087102,-0.71,-0.93,9.73
16.0338866,90,90,2.3814,0,0,65.875,3.13917686937696,6.10304277248396,0.837636574497955,-0.019837636574498,0.056766160043948,-0.543062931087102,-0.72,-0.93,9.73
16.1367817,90,90,2.2834,0,0,65.875,2.85975003611402,6.10979886992574,0.837575535616187,-0.0173960813037905,0.0564609656351096,-0.543185008850638,-0.74,-0.88,9.73
16.1579855,90,90,2.2638,0,0,65.875,2.80318905971725,6.0832074060878,0.837575535616187,-0.0171519257767198,0.0563999267533419,-0.543246047732406,-0.74,-0.87,9.73
16.1780115,90,90,2.2442,0,0,65.875,2.72003661948255,6.11317691864663,0.837575535616187,-0.0164194591955075,0.0562778489898065,-0.543246047732406,-0.74,-0.86,9.73
16.2888394,90,90,2.156,0,0,65.9375,2.46720125005754,6.06337203969165,0.837575535616187,-0.0142220594518708,0.0558505768174327,-0.543368125495941,-0.76,-0.82,9.74
16.3108674,90,90,2.1364,0,0,65.9375,2.46720125005754,6.06337203969165,0.837575535616187,-0.0138558261612647,0.055789537935665,-0.543429164377709,-0.76,-0.82,9.74
16.3279044,90,90,2.1266,0,0,65.9375,2.38404880982284,6.09334155225048,0.837575535616187,-0.0135506317524263,0.055606421290362,-0.543429164377709,-0.76,-0.81,9.74
16.4830549,90,90,2.0482,0,0,65.9375,2.21436588063253,6.01356716073667,0.837575535616187,-0.0119025819446988,0.054629799182079,-0.543551242141244,-0.77,-0.77,9.74
16.5878347,90,90,2.0384,0,0,65.9375,2.15780490423577,5.98697569689873,0.837575535616187,-0.0118415430629311,0.0545687603003113,-0.543551242141244,-0.77,-0.77,9.74
16.6081225,90,90,2.0384,0,0,65.9375,2.15780490423577,5.98697569689873,0.837575535616187,-0.0118415430629311,0.0545687603003113,-0.543551242141244,-0.76,-0.77,9.74
16.6259119,90,90,2.0384,0,0,65.9375,2.15780490423577,5.98697569689873,0.837575535616187,-0.0118415430629311,0.0545687603003113,-0.543551242141244,-0.76,-0.77,9.74
16.7258277,90,90,2.0678,0,0,65.9375,2.26754880830841,5.90044520794314,0.837636574497955,-0.012635048525911,0.0542635658914729,-0.543490203259476,-0.75,-0.78,9.74
16.7469691,90,90,2.0776,0,0,65.9375,2.32410978470518,5.92703667178107,0.837636574497955,-0.0129402429347494,0.0542025270097052,-0.543490203259476,-0.75,-0.79,9.74
16.7672731,90,90,2.0874,0,0,65.9375,2.32410978470518,5.92703667178107,0.837636574497955,-0.0131843984618202,0.0542025270097052,-0.543490203259476,-0.74,-0.79,9.74
16.8648441,90,90,2.1462,0,0,65.9375,2.54697564157135,5.89368911050135,0.837697613379723,-0.0148934871513154,0.0540804492461698,-0.543368125495941,-0.72,-0.82,9.74
16.8872109,90,90,2.156,0,0,65.9375,2.57356710540929,5.83712813410458,0.837697613379723,-0.0153207593236892,0.0540804492461698,-0.543368125495941,-0.72,-0.83,9.74
16.9040016,90,90,2.1756,0,0,65.9375,2.63012808180606,5.86371959794252,0.837697613379723,-0.015748031496063,0.0540804492461698,-0.543368125495941,-0.72,-0.83,9.74
17.004918,90,90,2.254,0,0,65.875,2.909554915069,5.85696350050073,0.837697613379723,-0.0180675090032351,0.0542025270097052,-0.543246047732406,-0.69,-0.87,9.74
17.025145,90,90,2.2834,0,0,65.875,2.93614637890694,5.80040252410397,0.837697613379723,-0.0185558200573765,0.0542635658914729,-0.543185008850638,-0.69,-0.88,9.74
17.0428583,90,90,2.303,0,0,65.875,2.99270735530371,5.8269939879419,0.837697613379723,-0.019044131111518,0.0543246047732406,-0.543185008850638,-0.68,-0.89,9.74
17.1549041,90,90,2.3912,0,0,65.875,3.27213418856665,5.82023789050012,0.837758652261491,-0.0216077641457608,0.0546908380638467,-0.543001892205335,-0.66,-0.94,9.73
17.1727991,90,90,2.4206,0,0,65.875,3.32869516496342,5.84682935433806,0.837758652261491,-0.0220960751999023,0.0547518769456144,-0.543001892205335,-0.66,-0.94,9.73
17.1921163,90,90,2.4304,0,0,65.875,3.38525614136018,5.87342081817599,0.837758652261491,-0.0222791918452054,0.054812915827382,-0.543001892205335,-0.66,-0.95,9.73
17.3017708,90,90,2.5186,0,0,65.875,3.66468297462313,5.86666472073421,0.837697613379723,-0.0245986693523775,0.0553622657632912,-0.542818775560032,-0.64,-0.99,9.73
17.3250361,90,90,2.5382,0,0,65.875,3.7212439510199,5.89325618457215,0.837697613379723,-0.0253311359335897,0.0555453824085943,-0.542757736678264,-0.64,-1,9.73
17.3463692,90,90,2.548,0,0,65.875,3.7212439510199,5.89325618457215,0.837697613379723,-0.0253311359335897,0.0555453824085943,-0.542757736678264,-0.64,-1.01,9.73
17.4607926,90,90,2.6166,0,0,65.8125,3.8909268802102,5.97303057608596,0.837697613379723,-0.0268571079777818,0.0565220045168773,-0.542696697796496,-0.64,-1.04,9.72
17.4819754,90,90,2.6166,0,0,65.8125,3.94748785660696,5.99962203992389,0.837697613379723,-0.0270402246230849,0.0566440822804126,-0.542696697796496,-0.64,-1.04,9.72
17.5008322,90,90,2.6264,0,0,65.8125,3.94748785660696,5.99962203992389,0.837636574497955,-0.027223341268388,0.0567051211621803,-0.542635658914729,-0.64,-1.05,9.72
17.6017911,90,90,2.6362,0,0,65.8125,4.00404883300373,6.02621350376183,0.837636574497955,-0.0274674967954587,0.0568882378074834,-0.542635658914729,-0.64,-1.05,9.72
17.6229998,90,90,2.6362,0,0,65.8125,4.00404883300373,6.02621350376183,0.837636574497955,-0.0274674967954587,0.0568882378074834,-0.542635658914729,-0.64,-1.05,9.72
17.6430835,90,90,2.6362,0,0,65.8125,4.00404883300373,6.02621350376183,0.837636574497955,-0.0274674967954587,0.0568882378074834,-0.542635658914729,-0.64,-1.05,9.72
17.7440497,90,90,2.6166,0,0,65.875,3.92089639276903,6.05618301632066,0.837636574497955,-0.0269791857413172,0.0573155099798572,-0.542696697796496,-0.65,-1.05,9.72
17.7629482,90,90,2.6068,0,0,65.875,3.92089639276903,6.05618301632066,0.837636574497955,-0.0267350302142465,0.0573765488616249,-0.542696697796496,-0.65,-1.05,9.72
17.7800438,90,90,2.597,0,0,65.875,3.92089639276903,6.05618301632066,0.837636574497955,-0.0264908746871757,0.0574375877433925,-0.542696697796496,-0.66,-1.04,9.72
17.8788202,90,90,2.548,0,0,65.875,3.75459151229962,6.11612204143832,0.837575535616187,-0.0249038637612159,0.0576207043886956,-0.542818775560032,-0.68,-1.02,9.72
17.8969292,90,90,2.5284,0,0,65.875,3.69803053590285,6.08953057760039,0.837575535616187,-0.0245376304706098,0.0576207043886956,-0.542818775560032,-0.68,-1.01,9.72
17.9210734,90,90,2.5186,0,0,65.875,3.61487809566815,6.11950009015921,0.837575535616187,-0.0241713971800037,0.0576817432704633,-0.542818775560032,-0.68,-1.01,9.72
18.0258917,90,90,2.4304,0,0,65.875,3.39201223880197,6.15284765143894,0.837575535616187,-0.0218519196728316,0.0575596655069279,-0.543001892205335,-0.71,-0.97,9.73
