Time (s),Setpoint (deg),Motor Position (deg),Tension 1 (N),Tension 2 (N),Tension 3 (N),Heading (deg),Pitch (deg),Roll (deg),Quaternion W,Quaternion X,Quaternion Y,Quaternion Z,Gravity X,Gravity Y,Gravity Z
0,0,0,0,0,0,0,0,0,0,0,0,0,0,0,0
0.0162857,0,0.45,0,0.9898,0,88.8125,4.21805903270087,6.80941511780935,0.712323750228896,-0.0156259537325276,0.0686077031068791,-0.698406885185863,-0.74,-1.15,9.7
0.0455874,0,0,0,0.98,0,88.8125,4.21805903270087,6.80941511780935,0.712323750228896,-0.0156259537325276,0.0686077031068791,-0.698406885185863,-0.74,-1.15,9.7
0.149344,0,0,0,0.9506,0,88.8125,4.21805903270087,6.80941511780935,0.712323750228896,-0.0156259537325276,0.0686077031068791,-0.698406885185863,-0.74,-1.15,9.7
0.1701188,0,0,0,0.9506,0,88.8125,4.21805903270087,6.80941511780935,0.712323750228896,-0.0156259537325276,0.0686077031068791,-0.698406885185863,-0.74,-1.15,9.7
0.1913115,0,0,0,0.9506,0,88.8125,4.21805903270087,6.80941511780935,0.712323750228896,-0.0156259537325276,0.0686077031068791,-0.698406885185863,-0.74,-1.15,9.7
0.2898807,0,0,0,0.9506,0,88.8125,4.21805903270087,6.80941511780935,0.712323750228896,-0.0156259537325276,0.0686077031068791,-0.698406885185863,-0.74,-1.15,9.7
0.3101606,0,0,0,0.9506,0,88.8125,4.21805903270087,6.80941511780935,0.712323750228896,-0.0156259537325276,0.0686077031068791,-0.698406885185863,-0.74,-1.15,9.7
0.3259543,0,0,0,0.9506,0,88.8125,4.21805903270087,6.80941511780935,0.712323750228896,-0.0156259537325276,0.0686077031068791,-0.698406885185863,-0.74,-1.15,9.7
0.3419498,0,0,0,0.9506,0,88.8125,4.21805903270087,6.80941511780935,0.712323750228896,-0.0156259537325276,0.0686077031068791,-0.698406885185863,-0.74,-1.15,9.7
0.3589683,0,0,0,0.9604,0,88.8125,4.21805903270087,6.80941511780935,0.712323750228896,-0.0156259537325276,0.0686077031068791,-0.698406885185863,-0.74,-1.15,9.7
0.3750519,0,0,0,0.9604,0,88.8125,4.21805903270087,6.80941511780935,0.712323750228896,-0.0156259537325276,0.0686077031068791,-0.698406885185863,-0.74,-1.15,9.7
0.3919465,0,0,0,0.9604,0,88.8125,4.21805903270087,6.80941511780935,0.712323750228896,-0.0156259537325276,0.0686077031068791,-0.698406885185863,-0.74,-1.15,9.7
0.4092539,0,0,0,0.9506,0,88.8125,4.21805903270087,6.80941511780935,0.712323750228896,-0.0156259537325276,0.0686077031068791,-0.698406885185863,-0.74,-1.15,9.7
0.4258428,0,0,0,0.9506,0,88.8125,4.21805903270087,6.80941511780935,0.712323750228896,-0.0156259537325276,0.0686077031068791,-0.698406885185863,-0.74,-1.15,9.7
0.4421384,0,0,0,0.9506,0,88.8125,4.21805903270087,6.80941511780935,0.712323750228896,-0.0156259537325276,0.0686077031068791,-0.698406885185863,-0.74,-1.15,9.7
0.4589119,0,0,0,0.9506,0,88.8125,4.21805903270087,6.80941511780935,0.712323750228896,-0.0156259537325276,0.0686077031068791,-0.698406885185863,-0.74,-1.15,9.7
0.4741142,0,0,0,0.9506,0,88.8125,4.21805903270087,6.80941511780935,0.712323750228896,-0.0156259537325276,0.0686077031068791,-0.698406885185863,-0.74,-1.15,9.7
0.4901587,0,0,0,0.9506,0,88.8125,4.21805903270087,6.80941511780935,0.712323750228896,-0.0156259537325276,0.0686077031068791,-0.698406885185863,-0.74,-1.15,9.7
0.5058636,0,0,0,0.9604,0,88.8125,4.21805903270087,6.80941511780935,0.712323750228896,-0.0156259537325276,0.0686077031068791,-0.698406885185863,-0.74,-1.15,9.7
0.5229759,0,0,0,0.9604,0,88.8125,4.21805903270087,6.80941511780935,0.712323750228896,-0.0156259537325276,0.0686077031068791,-0.698406885185863,-0.74,-1.15,9.7
0.6202447,0,0,0,0.9604,0,88.8125,4.21805903270087,6.80941511780935,0.712323750228896,-0.0156259537325276,0.0686077031068791,-0.698406885185863,-0.74,-1.15,9.7
0.6410822,0,0,0,0.9604,0,88.8125,4.21805903270087,6.80941511780935,0.712323750228896,-0.0156259537325276,0.0686077031068791,-0.698406885185863,-0.74,-1.15,9.7
0.6561084,0,0,0,0.9604,0,88.8125,4.21805903270087,6.80941511780935,0.712323750228896,-0.0156259537325276,0.0686077031068791,-0.698406885185863,-0.74,-1.15,9.7
0.7534766,0,0,0,0.9604,0,88.8125,4.21805903270087,6.80941511780935,0.712323750228896,-0.0156259537325276,0.0686077031068791,-0.698406885185863,-0.74,-1.15,9.7
0.7763244,0,0,0,0.9702,0,88.8125,4.21805903270087,6.80941511780935,0.712323750228896,-0.0156259537325276,0.0686077031068791,-0.698406885185863,-0.74,-1.15,9.7
0.7931704,0,0,0,0.9702,0,88.8125,4.21805903270087,6.80941511780935,0.712323750228896,-0.0156259537325276,0.0686077031068791,-0.698406885185863,-0.74,-1.15,9.7
0.8899791,0,0,0,0.9702,0,88.8125,4.21805903270087,6.80941511780935,0.712323750228896,-0.0156259537325276,0.0686077031068791,-0.698406885185863,-0.74,-1.15,9.7
0.9113016,0,0,0,0.9702,0,88.8125,4.21805903270087,6.80941511780935,0.712323750228896,-0.0156259537325276,0.0686077031068791,-0.698406885185863,-0.74,-1.15,9.7
0.9273213,0,0,0,0.9702,0,88.8125,4.21805903270087,6.80941511780935,0.712323750228896,-0.0156259537325276,0.0686077031068791,-0.698406885185863,-0.74,-1.15,9.7
1.0250366,0,0,0,0.9702,0,88.8125,4.21805903270087,6.80941511780935,0.712323750228896,-0.0156259537325276,0.0686077031068791,-0.698406885185863,-0.74,-1.15,9.7
1.043091,0,0,0,0.9702,0,88.8125,4.21805903270087,6.80941511780935,0.712323750228896,-0.0156259537325276,0.0686077031068791,-0.698406885185863,-0.74,-1.15,9.7
1.0582812,0,0,0,0.9702,0,88.8125,4.21805903270087,6.80941511780935,0.712323750228896,-0.0156259537325276,0.0686077031068791,-0.698406885185863,-0.74,-1.15,9.7
1.0761201,0,0,0,0.98,0,88.8125,4.21805903270087,6.80941511780935,0.712323750228896,-0.0156259537325276,0.0686077031068791,-0.698406885185863,-0.74,-1.15,9.7
1.1730432,0,0,0,0.98,0,88.8125,4.21805903270087,6.80941511780935,0.712323750228896,-0.0156259537325276,0.0686077031068791,-0.698406885185863,-0.74,-1.15,9.7
1.1933205,0,0,0,0.98,0,88.8125,4.21805903270087,6.80941511780935,0.712323750228896,-0.0156259537325276,0.0686077031068791,-0.698406885185863,-0.74,-1.15,9.7
1.209078,0,0,0,0.98,0,88.8125,4.21805903270087,6.80941511780935,0.712323750228896,-0.0156259537325276,0.0686077031068791,-0.698406885185863,-0.74,-1.15,9.7
1.3162485,0,0,0,0.98,0,88.8125,4.21805903270087,6.80941511780935,0.712323750228896,-0.0156259537325276,0.0686077031068791,-0.698406885185863,-0.74,-1.15,9.7
1.3414239,0,0,0,0.98,0,88.8125,4.21805903270087,6.80941511780935,0.712323750228896,-0.0156259537325276,0.0686077031068791,-0.698406885185863,-0.74,-1.15,9.7
1.4579606,0,0,0,0.98,0,88.8125,4.21805903270087,6.80941511780935,0.712323750228896,-0.0156259537325276,0.0686077031068791,-0.698406885185863,-0.74,-1.15,9.7
1.4772349,0,0,0,0.98,0,88.8125,4.21805903270087,6.80941511780935,0.712323750228896,-0.0156259537325276,0.0686077031068791,-0.698406885185863,-0.74,-1.15,9.7
1.4930417,0,0,0,0.98,0,88.8125,4.21805903270087,6.80941511780935,0.712323750228896,-0.0156259537325276,0.0686077031068791,-0.698406885185863,-0.74,-1.15,9.7
1.5890243,0,0,0,0.98,0,88.8125,4.21805903270087,6.80941511780935,0.712323750228896,-0.0156259537325276,0.0686077031068791,-0.698406885185863,-0.74,-1.15,9.7
1.6123077,0,0,0,0.98,0,88.8125,4.21805903270087,6.80941511780935,0.712323750228896,-0.0156259537325276,0.0686077031068791,-0.698406885185863,-0.74,-1.15,9.7
1.6282761,0,0,0,0.9702,0,88.8125,4.21805903270087,6.80941511780935,0.712323750228896,-0.0156259537325276,0.0686077031068791,-0.698406885185863,-0.74,-1.15,9.7
1.7550764,0,0,0,0.9702,0,88.8125,4.21805903270087,6.80941511780935,0.712323750228896,-0.0156259537325276,0.0686077031068791,-0.698406885185863,-0.74,-1.15,9.7
1.7730411,0,0,0,0.9702,0,88.8125,4.21805903270087,6.80941511780935,0.712323750228896,-0.0156259537325276,0.0686077031068791,-0.698406885185863,-0.74,-1.15,9.7
1.7902863,0,0,0,0.9702,0,88.8125,4.21805903270087,6.80941511780935,0.712323750228896,-0.0156259537325276,0.0686077031068791,-0.698406885185863,-0.74,-1.15,9.7
1.9040749,0,0,0,0.9702,0,88.8125,4.21805903270087,6.80941511780935,0.712323750228896,-0.0156259537325276,0.0686077031068791,-0.698406885185863,-0.74,-1.15,9.7
1.9231446,0,0,0,0.9702,0,88.8125,4.21805903270087,6.80941511780935,0.712323750228896,-0.0156259537325276,0.0686077031068791,-0.698406885185863,-0.74,-1.15,9.7
1.9389533,0,0,0,0.9702,0,88.8125,4.21805903270087,6.80941511780935,0.712323750228896,-0.0156259537325276,0.0686077031068791,-0.698406885185863,-0.74,-1.15,9.7
2.0350162,0,0,0,0.9604,0,88.8125,4.21805903270087,6.80941511780935,0.712323750228896,-0.0156259537325276,0.0686077031068791,-0.698406885185863,-0.74,-1.15,9.7
2.0540419,0,0,0,0.9604,0,88.8125,4.21805903270087,6.80941511780935,0.712323750228896,-0.0156259537325276,0.0686077031068791,-0.698406885185863,-0.74,-1.15,9.7
2.0700916,0,0,0,0.9604,0,88.8125,4.21805903270087,6.80941511780935,0.712323750228896,-0.0156259537325276,0.0686077031068791,-0.698406885185863,-0.74,-1.15,9.7
2.1671079,0,0,0,0.9604,0,88.8125,4.21805903270087,6.80941511780935,0.712323750228896,-0.0156259537325276,0.0686077031068791,-0.698406885185863,-0.74,-1.15,9.7
2.1862959,0,0,0,0.9604,0,88.8125,4.21805903270087,6.80941511780935,0.712323750228896,-0.0156259537325276,0.0686077031068791,-0.698406885185863,-0.74,-1.15,9.7
2.2125854,0,0,0,0.9604,0,88.8125,4.21805903270087,6.80941511780935,0.712323750228896,-0.0156259537325276,0.0686077031068791,-0.698406885185863,-0.74,-1.15,9.7
2.3232557,0,0,0,0.9604,0,88.8125,4.21805903270087,6.80941511780935,0.712323750228896,-0.0156259537325276,0.0686077031068791,-0.698406885185863,-0.74,-1.15,9.7
2.3504116,0,0,0,0.9604,0,88.8125,4.21805903270087,6.80941511780935,0.712323750228896,-0.0156259537325276,0.0686077031068791,-0.698406885185863,-0.74,-1.15,9.7
2.3721112,0,0,0,0.9604,0,88.8125,4.21805903270087,6.80941511780935,0.712323750228896,-0.0156259537325276,0.0686077031068791,-0.698406885185863,-0.74,-1.15,9.7
2.4671681,0,0,0,0.9604,0,88.8125,4.21805903270087,6.80941511780935,0.712323750228896,-0.0156259537325276,0.0686077031068791,-0.698406885185863,-0.74,-1.15,9.7
2.4860344,0,0,0,0.9604,0,88.8125,4.21805903270087,6.80941511780935,0.712323750228896,-0.0156259537325276,0.0686077031068791,-0.698406885185863,-0.74,-1.15,9.7
2.5021009,0,0,0,0.9604,0,88.8125,4.21805903270087,6.80941511780935,0.712323750228896,-0.0156259537325276,0.0686077031068791,-0.698406885185863,-0.74,-1.15,9.7
2.598078,0,0,0,0.9604,0,88.8125,4.21805903270087,6.80941511780935,0.712323750228896,-0.0156259537325276,0.0686077031068791,-0.698406885185863,-0.74,-1.15,9.7
2.6172574,0,0,0,0.9604,0,88.8125,4.21805903270087,6.80941511780935,0.712323750228896,-0.0156259537325276,0.0686077031068791,-0.698406885185863,-0.74,-1.15,9.7
2.6364164,0,0,0,0.9604,0,88.8125,4.21805903270087,6.80941511780935,0.712323750228896,-0.0156259537325276,0.0686077031068791,-0.698406885185863,-0.74,-1.15,9.7
2.7534097,0,0,0,0.9702,0,88.8125,4.21805903270087,6.80941511780935,0.712323750228896,-0.0156259537325276,0.0686077031068791,-0.698406885185863,-0.74,-1.15,9.7
2.7720904,0,0,0,0.9604,0,88.8125,4.21805903270087,6.80941511780935,0.712323750228896,-0.0156259537325276,0.0686077031068791,-0.698406885185863,-0.74,-1.15,9.7
2.7880456,0,0,0,0.9702,0,88.8125,4.21805903270087,6.80941511780935,0.712323750228896,-0.0156259537325276,0.0686077031068791,-0.698406885185863,-0.74,-1.15,9.7
2.8863361,0,0,0,0.9702,0,88.8125,4.21805903270087,6.80941511780935,0.712323750228896,-0.0156259537325276,0.0686077031068791,-0.698406885185863,-0.74,-1.15,9.7
2.9142197,0,0,0,0.9702,0,88.8125,4.21805903270087,6.80941511780935,0.712323750228896,-0.0156259537325276,0.0686077031068791,-0.698406885185863,-0.74,-1.15,9.7
3.020076,180,0,0,0.9702,0,88.8125,4.21805903270087,6.80941511780935,0.712323750228896,-0.0156259537325276,0.0686077031068791,-0.698406885185863,-0.74,-1.15,9.7
3.0390293,180,1.35,0,0.9702,0,88.8125,4.21805903270087,6.80941511780935,0.712323750228896,-0.0156259537325276,0.0686077031068791,-0.698406885185863,-0.74,-1.15,9.7
3.0565836,180,3.15,0,0.98,0,88.8125,4.21805903270087,6.80941511780935,0.712323750228896,-0.0156259537325276,0.0686077031068791,-0.698406885185863,-0.74,-1.15,9.7
3.1700597,180,39.15,0,1.3524,0,88.8125,4.21805903270087,6.80941511780935,0.712323750228896,-0.0156259537325276,0.0686077031068791,-0.698406885185863,-0.74,-1.15,9.7
3.1904674,180,49.95,0,1.5092,0,88.8125,4.21805903270087,6.80941511780935,0.712323750228896,-0.0156869926142953,0.0686077031068791,-0.698406885185863,-0.74,-1.15,9.7
3.2114462,180,62.55,0,1.6954,0,88.8125,4.27439997752039,6.83646965415438,0.712323750228896,-0.0158090703778307,0.0687297808704145,-0.698406885185863,-0.74,-1.16,9.7
3.3322218,180,141.75,0,2.989,0,88.8125,4.36002733081439,6.94691967166395,0.712262711347128,-0.0161142647866691,0.0698895196240005,-0.698345846304096,-0.75,-1.18,9.7
3.3533017,180,151.65,0,3.1066,0,88.8125,4.36002733081439,6.94691967166395,0.71220167246536,-0.0161142647866691,0.0700726362693035,-0.698345846304096,-0.75,-1.18,9.7
3.3761094,180,160.65,0,3.3124,0,88.875,4.36002733081439,6.94691967166395,0.71220167246536,-0.0162363425502045,0.0701336751510712,-0.698345846304096,-0.75,-1.18,9.7
3.4750122,180,180,0,3.7828,0,88.875,4.47494109258289,7.14076517033806,0.712018555820057,-0.0167856924861137,0.0719038027223341,-0.698345846304096,-0.77,-1.21,9.69
3.4943189,180,180,0,3.8024,0,88.875,4.50422750105738,7.2241606515026,0.712018555820057,-0.0168467313678813,0.0724531526582433,-0.698345846304096,-0.78,-1.22,9.69
3.5263194,180,180,0,3.7534,0,88.875,4.58985485435138,7.33461066901216,0.711896478056522,-0.0170298480131844,0.0736128914118293,-0.698284807422328,-0.79,-1.24,9.69
3.6362963,180,180,0,3.3712,0,88.875,4.99316895660584,8.08293812736357,0.711408167002381,-0.0180064701214674,0.0812427516327901,-0.697918574131722,-0.88,-1.36,9.67
3.6554419,180,180,0,3.3222,0,88.875,5.02245536508033,8.16633360852811,0.711225050357078,-0.0183727034120735,0.0839284624305683,-0.697796496368187,-0.91,-1.4,9.66
3.6795726,180,180,0,3.234,0,88.875,5.13960099897829,8.49991553318628,0.71116401147531,-0.0184947811756089,0.0848440456570836,-0.697735457486419,-0.94,-1.43,9.65
3.7911545,180,180,0,2.7636,0,88.875,5.7749744968992,9.77567041486996,0.71037050601233,-0.0199597143380333,0.0970518220106208,-0.696941952023439,-1.07,-1.6,9.61
3.8102991,180,180,0,2.6558,0,88.875,5.86060185019321,9.88612043237953,0.710248428248795,-0.0201428309833364,0.0981505218824391,-0.696819874259904,-1.1,-1.63,9.6
3.8303911,180,180,0,2.5578,0,88.875,5.9755156119617,10.0799659310536,0.710004272721724,-0.0205090642739425,0.101446621497894,-0.696636757614601,-1.13,-1.67,9.59
3.9450541,180,180,0,2.0972,0,88.875,6.72580287165111,11.5495663114114,0.709027650613441,-0.02215711408167,0.114142708905573,-0.69559909662455,-1.28,-1.86,9.54
3.9664396,180,180,0,2.009,0,88.875,6.81366209707458,11.799752754905,0.70878349508637,-0.0224623084905085,0.116767380821583,-0.695415979979247,-1.31,-1.9,9.52
3.991227,180,180,0,1.911,0,88.875,7.04348962061157,12.1874437522533,0.708417261795764,-0.0228285417811146,0.120307635964109,-0.695171824452176,-1.36,-1.95,9.51
4.1031554,180,180,0,1.5288,0,88.875,7.70814952700697,13.5465941151015,0.70719648416041,-0.0244155527070744,0.133492034425929,-0.693951046816822,-1.51,-2.15,9.44
4.1211048,180,180,0,1.47,0,88.875,7.79600875243044,13.7967805585951,0.707013367515107,-0.0245376304706098,0.135689434169566,-0.693706891289752,-1.54,-2.18,9.43
4.137283,180,180,0,1.4406,0,88.875,7.88163610572445,13.9072305761047,0.706891289751572,-0.0245986693523775,0.136727095159617,-0.693645852407984,-1.57,-2.21,9.42
4.2383052,180,180,0,1.2446,0,88.875,8.40209584187687,14.9891399591142,0.705853628761521,-0.0256363303424281,0.146981627296588,-0.692547152536166,-1.68,-2.35,9.37
4.257163,180,180,0,1.225,0,88.875,8.46066865882585,15.1559309214433,0.705731550997986,-0.0256973692241958,0.148263443813709,-0.69242507477263,-1.7,-2.36,9.36
4.2735404,180,180,0,1.2152,0,88.875,8.46066865882585,15.1559309214433,0.705670512116218,-0.0256363303424281,0.148812793749619,-0.692364035890862,-1.71,-2.38,9.35
4.3921834,180,180,0,1.2348,0,88.875,8.60710070119829,15.572908327266,0.705243239943844,-0.0256973692241958,0.152536165537447,-0.691997802600256,-1.76,-2.42,9.33
4.4103223,180,180,0,1.2642,0,88.875,8.60710070119829,15.572908327266,0.705243239943844,-0.0255752914606604,0.152353048892144,-0.691997802600256,-1.76,-2.42,9.33
4.4343572,180,180,0,1.3034,0,88.875,8.60710070119829,15.572908327266,0.705304278825612,-0.0253921748153574,0.152047854483306,-0.692058841482024,-1.75,-2.41,9.34
4.5390467,180,180,0,1.5288,0,88.875,8.32093223284179,15.1581627935728,0.705670512116218,-0.0246597082341452,0.148324482695477,-0.692486113654398,-1.71,-2.34,9.36
4.5581608,180,180,0,1.6072,0,88.875,8.20601847107329,14.9643172948987,0.705914667643289,-0.024293474943539,0.146371238478911,-0.692669230299701,-1.69,-2.32,9.37
4.5752564,180,180,0,1.6464,0,88.875,8.1767320625988,14.8809218137341,0.705975706525056,-0.0241713971800037,0.145699810779467,-0.692730269181469,-1.68,-2.31,9.37
4.684263,180,180,0,2.0384,0,88.875,7.65850419857585,13.9387488567086,0.706952328633339,-0.0227064640175792,0.136605017396081,-0.693645852407984,-1.58,-2.17,9.43
4.7164546,180,180,0,2.1854,0,88.875,7.42867667503886,13.5510578593604,0.707318561923946,-0.02215711408167,0.13294268449002,-0.69401208569859,-1.54,-2.11,9.45
4.8192396,180,180,0,2.6166,0,88.875,6.88116240254141,12.5254894211704,0.708234145150461,-0.0203259476286394,0.122810230116584,-0.694988707806873,-1.42,-1.95,9.5
4.8385067,180,180,0,2.6656,0,88.875,6.79553504924741,12.4150394036608,0.708478300677532,-0.0199597143380333,0.120429713727645,-0.695171824452176,-1.4,-1.91,9.51
4.8552869,180,180,0,2.7538,0,88.875,6.65133487900443,12.1377984238221,0.708600378441067,-0.019837636574498,0.119147897210523,-0.695293902215711,-1.37,-1.88,9.52
4.9522521,180,180,0,3.1262,0,88.9375,6.07453419803249,11.0288345044675,0.709515961667582,-0.0181895867667704,0.106390770921077,-0.696453640969297,-1.23,-1.7,9.57
4.9724732,180,180,0,3.1752,0,88.875,5.93033402778951,10.7515935246289,0.70957700054935,-0.0181285478850027,0.105536226576329,-0.696514679851065,-1.22,-1.69,9.58
4.9891521,180,180,0,3.2536,0,88.9375,5.81542026602101,10.5577480259548,0.70957700054935,-0.0177623145943966,0.103582982359763,-0.696819874259904,-1.19,-1.66,9.59
5.0850865,180,180,0,3.5476,0,88.9375,5.18227864022956,9.42172957025516,0.710309467130562,-0.0159921870231337,0.0923518281145089,-0.697735457486419,-1.05,-1.46,9.63
5.1054692,180,180,0,3.577,0,88.9375,5.03807846998658,9.14448859041651,0.710431544894098,-0.0156259537325276,0.0896661173167308,-0.697918574131722,-1.03,-1.44,9.64
5.1345875,180,180,0,3.6652,0,88.9375,4.8645918912691,8.78385212941332,0.710736739302936,-0.0149545260330831,0.085332356711225,-0.69822376854056,-0.98,-1.37,9.65
5.2430951,180,180,0,3.822,0,88.9375,4.37341856359117,7.78533822756829,0.71116401147531,-0.0139168650430324,0.0767258743819813,-0.69877311847647,-0.87,-1.23,9.68
5.2612064,180,180,0,3.8318,0,88.9375,4.3148457466422,7.6185472652392,0.711286089238845,-0.0137337483977294,0.0753219801013245,-0.698834157358237,-0.86,-1.22,9.69
5.2761865,180,180,0,3.8318,0,88.9375,4.22921839334819,7.50809724772964,0.711286089238845,-0.0136727095159617,0.0742232802295062,-0.698895196240005,-0.84,-1.2,9.69
5.2934631,180,180,0,3.8416,0,88.9375,4.1999319848737,7.4247017665651,0.711347128120613,-0.013611670634194,0.0737349691753647,-0.698895196240005,-0.83,-1.19,9.69
5.4102642,180,180,0,3.822,0,88.9375,4.08278635097574,7.09111984190693,0.711469205884148,-0.0134895928706586,0.070377830678142,-0.699139351767076,-0.79,-1.15,9.7
5.4292108,180,180,0,3.8024,0,88.9375,4.08278635097574,7.09111984190693,0.711469205884148,-0.0135506317524263,0.0704999084416773,-0.699139351767076,-0.79,-1.15,9.7
5.4461842,180,180,0,3.7828,0,88.9375,4.13912729579526,7.11817437825196,0.711469205884148,-0.0136727095159617,0.0707440639687481,-0.699078312885308,-0.79,-1.16,9.7
5.5423409,180,180,0,3.626,0,88.9375,4.33966841085776,7.42246989443563,0.711286089238845,-0.0144662149789416,0.0737960080571324,-0.698956235121773,-0.83,-1.21,9.69
5.5612729,180,180,0,3.5672,0,88.9375,4.36895481933225,7.50586537560017,0.711286089238845,-0.014588292742477,0.0743453579930416,-0.698895196240005,-0.84,-1.23,9.69
5.5772917,180,180,0,3.5378,0,88.9375,4.39824122780674,7.58926085676472,0.71116401147531,-0.0148934871513154,0.0755661356283953,-0.698834157358237,-0.85,-1.24,9.69
5.6783069,180,180,0,3.2046,0,88.9375,4.85789627488071,8.36464285146115,0.710736739302936,-0.0162973814319722,0.0827687236769822,-0.698467924067631,-0.93,-1.36,9.66
5.6997419,180,180,0,3.1654,0,88.9375,4.94352362817472,8.47509286897072,0.710675700421168,-0.0166636147225783,0.0845388512482451,-0.698345846304096,-0.95,-1.38,9.66
5.8212649,180,180,0,2.7048,0,88.9375,5.63300619878568,9.63816586101537,0.709821156076421,-0.0189830922297504,0.0964414331929439,-0.697552340841116,-1.08,-1.58,9.61
5.8415225,180,180,0,2.6068,0,88.9375,5.66229260726017,9.72156134217991,0.709699078312885,-0.0194103644021242,0.0985777940548129,-0.697369224195813,-1.1,-1.61,9.6
5.8583627,180,180,0,2.5186,0,88.9375,5.86283372232267,10.0258568583636,0.709638039431118,-0.0196545199291949,0.0996764939266313,-0.697308185314045,-1.11,-1.63,9.6
5.9541352,180,180,0,2.205,0,89,6.52302988445915,11.1055343692437,0.70878349508637,-0.0217298419092962,0.110114142708906,-0.696514679851065,-1.23,-1.8,9.55
5.9722662,180,180,0,2.1168,0,89,6.60865723775315,11.2159843867533,0.708600378441067,-0.0222181529634377,0.112494659097845,-0.696331563205762,-1.26,-1.84,9.54
5.9881509,180,180,0,2.0678,0,89,6.61088910988262,11.3557208127373,0.708478300677532,-0.0224012696087408,0.113776475614967,-0.696209485442227,-1.27,-1.86,9.54
6.0043327,180,180,0,1.9894,0,89,6.86777116976463,11.687070865266,0.708295184032229,-0.0228895806628823,0.116034914240371,-0.696026368796924,-1.29,-1.9,9.53
6.10124,180,180,0,1.6758,0,89,7.50091279555608,12.8230893209656,0.707257523042178,-0.0248428248794482,0.127021912958555,-0.695049746688641,-1.42,-2.07,9.47
6.1226055,180,180,0,1.6464,0,89,7.58654014885009,12.9335393384752,0.707135445278642,-0.0250259415247513,0.128181651712141,-0.694988707806873,-1.44,-2.11,9.46
6.1484299,180,180,0,1.5582,0,89,7.76002672756756,13.2941757994784,0.706830250869804,-0.0255752914606604,0.131294634682293,-0.694683513398035,-1.47,-2.14,9.45
6.2502016,180,180,0,1.3818,0,89,8.24896818311603,14.1529532753394,0.705914667643289,-0.0271623023866203,0.140816700238052,-0.693767930171519,-1.57,-2.29,9.4
6.2693661,180,180,0,1.3524,0,89,8.36388194488452,14.3467987740135,0.705731550997986,-0.0273454190319233,0.142159555636941,-0.693584813526216,-1.59,-2.31,9.39
6.2914282,180,180,0,1.3426,0,89,8.44950929817853,14.457248791523,0.70560947323445,-0.0274674967954587,0.143197216626991,-0.693523774644448,-1.6,-2.32,9.38
6.4023386,180,180,0,1.3524,0,89,8.67933682171551,14.8449397888713,0.705243239943844,-0.0280168467313679,0.146615394005982,-0.693157541353842,-1.64,-2.38,9.36
6.4212202,180,180,0,1.3622,0,89,8.67933682171551,14.8449397888713,0.705243239943844,-0.0280168467313679,0.146615394005982,-0.693157541353842,-1.64,-2.38,9.36
6.4372727,180,180,0,1.372,0,89,8.622995876896,14.8178852525262,0.705304278825612,-0.0279558078496002,0.146493316242446,-0.693157541353842,-1.64,-2.37,9.37
6.533245,180,180,0,1.5386,0,89,8.50808211512751,14.6240397538521,0.705548434352683,-0.0275895745589941,0.144112799853507,-0.693401696880913,-1.61,-2.34,9.38
6.5523263,180,180,0,1.5974,0,89,8.47879570665302,14.5406442726876,0.70560947323445,-0.0274674967954587,0.143624488799365,-0.693462735762681,-1.61,-2.33,9.38
6.5683006,180,180,0,1.6268,0,89,8.39316835335901,14.430194255178,0.705731550997986,-0.0272843801501556,0.142525788927547,-0.693584813526216,-1.6,-2.31,9.39
6.6702427,180,180,0,1.96,0,89,8.01914065957904,13.7652622779912,0.70640297869743,-0.0261856802783373,0.135994628578404,-0.694195202343893,-1.52,-2.21,9.43
6.6891205,180,180,0,1.9992,0,89,7.90422689781055,13.571416779317,0.706586095342733,-0.0258804858694989,0.134346578770677,-0.694378318989196,-1.5,-2.18,9.43
6.7042042,180,180,0,2.0384,0,89,7.84565408086157,13.404625816988,0.706708173106269,-0.0255752914606604,0.132698528962949,-0.694561435634499,-1.49,-2.16,9.44
6.8062392,180,180,0,2.4206,0,89,7.32965808896807,12.6021892859465,0.707501678569249,-0.0239272416529329,0.124580357687847,-0.695354941097479,-1.4,-2.03,9.49
6.8253488,180,180,0,2.5088,0,89,7.21474432719958,12.4083437872724,0.707684795214552,-0.0234999694805591,0.122688152353049,-0.695477018861014,-1.38,-1.99,9.5
6.8412571,180,180,0,2.5578,0,89,7.04348962061157,12.1874437522533,0.707867911859855,-0.0230116584264176,0.120673869254715,-0.695721174388085,-1.36,-1.96,9.51
6.9382856,180,180,0,2.891,0,89,6.5545481650631,11.3286662763923,0.708600378441067,-0.0213025697369224,0.111029725935421,-0.696575718732833,-1.25,-1.81,9.55
6.9572538,180,180,0,2.9302,0,89,6.46668893963963,11.0784798328987,0.708661417322835,-0.021180491973387,0.109808948300067,-0.696697796496368,-1.23,-1.79,9.56
6.9742369,180,180,0,3.0184,0,89,6.29543423305162,10.8575797978795,0.708722456204602,-0.0206921809192456,0.107733626319966,-0.696941952023439,-1.21,-1.76,9.57
7.080256,180,180,0,3.3418,0,89.0625,5.72086542420915,9.88835230450899,0.709332845022279,-0.0186168589391442,0.0979063663553684,-0.697918574131722,-1.1,-1.59,9.61
7.0994907,180,180,0,3.381,0,89.0625,5.54961071762114,9.66745226948986,0.709454922785815,-0.0180675090032351,0.0955868888481963,-0.698101690777025,-1.08,-1.55,9.62
7.1196208,180,180,0,3.4398,0,89.0625,5.40541054737816,9.39021128965121,0.709638039431118,-0.0175181590673259,0.0931453335774889,-0.698284807422328,-1.05,-1.51,9.63
7.2213115,180,180,0,3.6162,0,89.0625,4.94575550030418,8.61482929495477,0.710004272721724,-0.015931148141366,0.0855154733565281,-0.698895196240005,-0.97,-1.39,9.65
7.2405541,180,180,0,3.6554,0,89.0625,4.77450079371617,8.39392925993564,0.710187389367027,-0.0153817982054569,0.0829518403222853,-0.69901727400354,-0.94,-1.35,9.66
7.2626184,180,180,0,3.675,0,89.0625,4.74521438524168,8.3105337787711,0.710248428248795,-0.0150766037966184,0.0813648293963255,-0.699139351767076,-0.92,-1.32,9.67
7.3594317,180,180,0,3.7142,0,89.0625,4.42975950841069,7.81239276391331,0.710553622657633,-0.0142220594518708,0.0772752243178905,-0.699322468412379,-0.88,-1.25,9.68
7.3805932,180,180,0,3.7142,0,89.0625,4.4004730999362,7.72899728274877,0.710553622657633,-0.0140999816883355,0.0766037966184459,-0.699383507294146,-0.87,-1.24,9.68
7.3973893,180,180,0,3.7044,0,89.0625,4.34413215511668,7.70194274640374,0.710614661539401,-0.0139168650430324,0.0760544466825368,-0.699444546175914,-0.86,-1.23,9.68
7.4953568,180,180,0,3.6162,0,89.0625,4.34413215511668,7.70194274640374,0.710553622657633,-0.0137337483977294,0.0762375633278398,-0.699444546175914,-0.87,-1.24,9.68
7.5161998,180,180,0,3.5868,0,89.0625,4.37341856359117,7.78533822756829,0.710553622657633,-0.0136727095159617,0.0768479521455167,-0.699383507294146,-0.88,-1.24,9.68
7.5333495,180,180,0,3.5672,0,89.0625,4.37341856359117,7.78533822756829,0.710492583775865,-0.0136727095159617,0.0772752243178905,-0.699383507294146,-0.88,-1.25,9.68
7.6292515,180,180,0,3.3516,0,89.0625,4.60547795925763,8.31276565090056,0.710248428248795,-0.0142220594518708,0.0816700238051639,-0.699139351767076,-0.94,-1.31,9.67
7.6484462,180,180,0,3.2928,0,89.0625,4.66405077620661,8.47955661322964,0.710126350485259,-0.0144662149789416,0.0835011902581945,-0.69901727400354,-0.96,-1.34,9.66
7.6655882,180,180,0,3.2536,0,89.0625,4.69333718468109,8.56295209439418,0.710065311603491,-0.0145272538607093,0.0841115790758713,-0.69901727400354,-0.97,-1.35,9.66
7.7623335,180,180,0,2.9498,0,89.0625,5.15299223175507,9.33833408909062,0.70957700054935,-0.015748031496063,0.0917414392968321,-0.698528962949399,-1.06,-1.47,9.63
7.7836341,180,180,0,2.8714,0,89.0625,5.21156504870405,9.5051250514197,0.709454922785815,-0.0159921870231337,0.0932674113410242,-0.698406885185863,-1.07,-1.5,9.63
7.8006035,180,180,0,2.8224,0,89.0625,5.26790599352357,9.53217958776473,0.709454922785815,-0.0161142647866691,0.0940609168040041,-0.698345846304096,-1.09,-1.52,9.62
7.8976002,180,180,0,2.4892,0,89.0625,5.78613385754652,10.4743525447902,0.708844533968138,-0.0176402368308613,0.103033632423854,-0.697674418604651,-1.19,-1.65,9.59
7.9163632,180,180,0,2.4108,0,89.0625,5.90104761931502,10.6681980434644,0.708722456204602,-0.0180064701214674,0.104559604468046,-0.697552340841116,-1.2,-1.68,9.58
7.9323631,180,180,0,2.3716,0,89.0625,5.98667497260902,10.7786480609739,0.708600378441067,-0.0183116645303058,0.106146615394006,-0.69743026307758,-1.22,-1.7,9.57
8.0282889,180,180,0,2.0482,0,89.0625,6.50490283663198,11.7208210179994,0.707806872978087,-0.0202038698651041,0.116156992003906,-0.696575718732833,-1.33,-1.86,9.53
8.0473729,180,180,0,1.9796,0,89.0625,6.61981659840047,11.9146665166735,0.707745834096319,-0.0203259476286394,0.117133614112189,-0.696453640969297,-1.35,-1.89,9.52
8.0643322,180,180,0,1.9502,0,89.0625,6.73473036016897,12.1085120153476,0.707623756332784,-0.0206311420374779,0.118781663919917,-0.696331563205762,-1.36,-1.9,9.52
8.1622541,180,180,0,1.6856,0,89.0625,7.30929916901144,13.0777395087182,0.706708173106269,-0.0224623084905085,0.128669962766282,-0.695415979979247,-1.47,-2.06,9.47
8.1822454,180,180,0,1.6366,0,89.0625,7.42421293077993,13.2715850073923,0.706586095342733,-0.0227675028993469,0.130256973692242,-0.695232863333944,-1.49,-2.09,9.46
8.1976211,180,180,0,1.617,0,89.0625,7.50984028407394,13.3820350249019,0.706464017579198,-0.0230116584264176,0.131660867972899,-0.695110785570408,-1.51,-2.11,9.45
8.3163404,180,180,0,1.4602,0,89.0625,8.02583627596743,14.1844715559433,0.705670512116218,-0.0246597082341452,0.13953488372093,-0.694317280107428,-1.59,-2.24,9.41
8.3354284,180,180,0,1.4504,0,89.0625,7.9987817396224,14.2408125007628,0.70560947323445,-0.0247817859976805,0.140206311420375,-0.694195202343893,-1.6,-2.25,9.4
8.3527069,180,180,0,1.4406,0,89.0625,8.05512268444192,14.2678670371079,0.70560947323445,-0.0248428248794482,0.140511505829213,-0.694195202343893,-1.6,-2.25,9.4
8.4734135,180,180,0,1.4994,0,89,8.22637739102993,14.488767072127,0.705487395470915,-0.0255142525788928,0.142159555636941,-0.693951046816822,-1.61,-2.28,9.39
8.4921857,180,180,0,1.519,0,89,8.19709098255544,14.4053715909625,0.705487395470915,-0.0254532136971251,0.141854361228102,-0.69401208569859,-1.61,-2.28,9.39
8.5097275,180,180,0,1.5582,0,89,8.19709098255544,14.4053715909625,0.705548434352683,-0.0255142525788928,0.141488127937496,-0.69401208569859,-1.61,-2.27,9.4
8.6042996,180,180,0,1.7542,0,89,8.02360440383797,14.0447351299593,0.705975706525056,-0.0253921748153574,0.137642678386132,-0.694317280107428,-1.56,-2.22,9.42
8.623425,180,180,0,1.7836,0,89,7.96503158688899,13.8779441676302,0.706036745406824,-0.0253311359335897,0.137093328450223,-0.694378318989196,-1.55,-2.21,9.42
8.6398518,180,180,0,1.8424,0,89,7.90869064206947,13.8508896312852,0.706097784288592,-0.025270097051822,0.136543978514314,-0.694439357870964,-1.54,-2.2,9.42
8.7396062,180,180,0,2.1364,0,89,7.61805842945404,13.1566712456238,0.706830250869804,-0.0246597082341452,0.129890740401636,-0.695049746688641,-1.46,-2.11,9.46
8.7584538,180,180,0,2.1756,0,89,7.44680372286603,12.9357712106047,0.707013367515107,-0.024293474943539,0.127693340657999,-0.695232863333944,-1.43,-2.07,9.47
8.7743325,180,180,0,2.2442,0,89,7.41751731439154,12.8523757294401,0.707074406396875,-0.0242324360617713,0.126960874076787,-0.695354941097479,-1.43,-2.06,9.47
8.7894089,180,180,0,2.2834,0,89,7.38823090591705,12.7689802482756,0.707135445278642,-0.0241713971800037,0.126289446377342,-0.695415979979247,-1.42,-2.05,9.48
8.8854053,180,180,0,2.597,0,89,6.9556303951881,11.9372573087596,0.707806872978087,-0.0230116584264176,0.11817127510224,-0.696148446560459,-1.32,-1.93,9.52
8.9042842,180,180,0,2.6754,0,89,6.84071663341961,11.7434118100855,0.707928950741622,-0.0225843862540438,0.11554660318623,-0.696453640969297,-1.29,-1.89,9.53
8.9215021,180,180,0,2.7048,0,89.0625,6.81143022494512,11.660016328921,0.70798998962339,-0.0224623084905085,0.11499725325032,-0.696514679851065,-1.29,-1.88,9.53
9.0334286,180,180,0,3.0478,0,89.0625,6.29320236092216,10.7178433718955,0.708539339559299,-0.021180491973387,0.106207654275774,-0.697369224195813,-1.18,-1.74,9.57
9.0523163,180,180,0,3.1164,0,89.0625,6.23462954397318,10.5510524095664,0.708600378441067,-0.0208752975645486,0.104803759995117,-0.697552340841116,-1.16,-1.71,9.58
9.0683815,180,180,0,3.1458,0,89.0625,6.14900219067918,10.4406023920568,0.708661417322835,-0.0206921809192456,0.103155710187389,-0.697735457486419,-1.15,-1.69,9.58
9.1663289,180,180,0,3.381,0,89.125,5.63077432665622,9.49842943503131,0.709088689495208,-0.0194103644021242,0.0945492278581456,-0.698590001831166,-1.03,-1.55,9.62
9.1864132,180,180,0,3.4202,0,89.125,5.57220150970724,9.33163847270223,0.709210767258744,-0.0191662088750534,0.0928401391686504,-0.698712079594702,-1.02,-1.53,9.63
9.2023475,180,180,0,3.4398,0,89.125,5.51362869275826,9.16484751037314,0.709271806140512,-0.0189220533479827,0.0914972837697613,-0.698834157358237,-1.01,-1.51,9.63
9.3096093,180,180,0,3.577,0,89.125,5.1103145905038,8.41652005202174,0.709699078312885,-0.017884392357932,0.0842336568394067,-0.699322468412379,-0.92,-1.4,9.66
9.3283889,180,180,0,3.5868,0,89.125,5.0246872372098,8.30607003451217,0.709760117194653,-0.0176402368308613,0.0829518403222853,-0.699444546175914,-0.91,-1.38,9.66
9.3443615,180,180,0,3.5868,0,89.125,4.96834629239028,8.27901549816714,0.709760117194653,-0.0176402368308613,0.0826466459134469,-0.699444546175914,-0.9,-1.37,9.66
9.4404012,180,180,0,3.5868,0,89.125,4.8241461221473,8.00177451832849,0.709943233839956,-0.0171519257767198,0.0798388573521333,-0.699627662821217,-0.87,-1.33,9.67
9.4596468,180,180,0,3.577,0,89.125,4.8241461221473,8.00177451832849,0.709943233839956,-0.0171519257767198,0.079899896233901,-0.699627662821217,-0.87,-1.33,9.67
9.4764872,180,180,0,3.5574,0,89.125,4.8241461221473,8.00177451832849,0.709882194958188,-0.0170908868949521,0.0800830128792041,-0.699627662821217,-0.87,-1.33,9.67
9.5723622,180,180,0,3.4398,0,89.125,4.88271893909628,8.16856548065758,0.709760117194653,-0.0170298480131844,0.0815479460416285,-0.699566623939449,-0.9,-1.35,9.67
9.5924277,180,180,0,3.4104,0,89.125,4.91200534757077,8.25196096182212,0.709699078312885,-0.0170908868949521,0.0823414515046084,-0.699505585057682,-0.91,-1.36,9.66
9.6087147,180,180,0,3.3614,0,89.125,4.99763270086477,8.36241097933168,0.709638039431118,-0.0172129646584875,0.0833180736128914,-0.699444546175914,-0.92,-1.38,9.66
9.7053735,180,180,0,3.136,0,89.125,5.22969209653122,8.88983840266396,0.709271806140512,-0.0176402368308613,0.0886894952084478,-0.699200390648843,-0.99,-1.46,9.64
9.7253497,180,180,0,3.1066,0,89.125,5.25897850500571,8.9732338838285,0.709210767258744,-0.0177623145943966,0.0900933894891046,-0.699078312885308,-1,-1.48,9.64
9.7414623,180,180,0,3.0282,0,89.125,5.31755132195469,9.14002484615758,0.709149728376976,-0.017884392357932,0.0908258560703168,-0.699078312885308,-1.01,-1.49,9.63
9.8453555,180,180,0,2.744,0,89.125,5.75015183268364,9.97174778567353,0.708600378441067,-0.0187999755844473,0.0986388329365806,-0.698528962949399,-1.11,-1.61,9.6
9.8653617,180,180,0,2.6656,0,89.125,5.80872464963262,10.1385387480026,0.708478300677532,-0.0189830922297504,0.10022584386254,-0.698406885185863,-1.13,-1.63,9.6
9.8812532,180,180,0,2.6264,0,89.125,5.89435200292663,10.2489887655122,0.708417261795764,-0.0191051699932857,0.101080388207288,-0.698345846304096,-1.14,-1.64,9.59
9.9773592,180,180,0,2.3422,0,89.125,6.29766610518109,10.9973162238636,0.707867911859855,-0.0201428309833364,0.108771287310016,-0.697735457486419,-1.23,-1.76,9.56
9.9964314,180,180,0,2.2638,0,89.125,6.41257986694958,11.1911617225377,0.707684795214552,-0.0203869865104071,0.110602453763047,-0.697552340841116,-1.25,-1.79,9.55
10.0135095,180,180,0,2.2246,0,89.125,6.44409814755354,11.4142936296863,0.707562717451016,-0.0205090642739425,0.112494659097845,-0.69743026307758,-1.28,-1.82,9.55
10.1123822,180,180,0,1.96,0,89.125,6.847412249808,12.1626210880377,0.706891289751572,-0.0215467252639932,0.120612830372948,-0.696697796496368,-1.37,-1.94,9.51
10.1320314,180,180,0,1.9012,0,89.125,6.96232601157649,12.3564665867118,0.706708173106269,-0.0217298419092962,0.122443996825978,-0.696575718732833,-1.39,-1.97,9.5
10.1605653,180,180,0,1.8424,0,89.125,7.10652618181948,12.6337075665505,0.706525056460966,-0.021973997436367,0.124397241042544,-0.69639260208753,-1.43,-2.01,9.48
10.2883719,180,180,0,1.617,0,89.125,7.62475404584243,13.575880523576,0.705670512116218,-0.0230726973081853,0.133553073307697,-0.695538057742782,-1.53,-2.14,9.44
10.307626,180,180,0,1.5876,0,89.125,7.68332686279141,13.7426714859051,0.705548434352683,-0.0232558139534884,0.134834889824818,-0.695415979979247,-1.54,-2.16,9.43
10.3363873,180,180,0,1.568,0,89.125,7.76895421608542,13.8531215034146,0.705426356589147,-0.0234389305987914,0.13611670634194,-0.695293902215711,-1.56,-2.18,9.43
10.4324105,180,180,0,1.5582,0,89.125,7.9131543863284,14.1303624832533,0.705182201062077,-0.0237441250076299,0.138680339376183,-0.694988707806873,-1.59,-2.21,9.41
10.452455,180,180,0,1.568,0,89.125,7.9131543863284,14.1303624832533,0.705182201062077,-0.0238051638893975,0.138924494903253,-0.694988707806873,-1.59,-2.22,9.41
10.4683095,180,180,0,1.5778,0,89.125,7.9131543863284,14.1303624832533,0.705182201062077,-0.0238051638893975,0.138924494903253,-0.694988707806873,-1.59,-2.22,9.41
10.5634051,180,180,0,1.6856,0,89.125,7.8275270330344,14.0199124657437,0.705304278825612,-0.0235610083623268,0.137764756149667,-0.695110785570408,-1.58,-2.2,9.42
10.5844151,180,180,0,1.7346,0,89.125,7.77118608821488,13.9928579293987,0.70536531770738,-0.0234999694805591,0.137276445095526,-0.695110785570408,-1.57,-2.19,9.42
10.6034327,180,180,0,1.7542,0,89.125,7.74189967974039,13.9094624482341,0.705426356589147,-0.0234389305987914,0.136605017396081,-0.695171824452176,-1.56,-2.17,9.43
10.6993813,180,180,0,1.9796,0,89.125,7.48278574772891,13.4383759697214,0.705914667643289,-0.0226454251358115,0.131721906854666,-0.695660135506318,-1.51,-2.11,9.45
10.7194852,180,180,0,2.0384,0,89.125,7.42421293077993,13.2715850073923,0.706036745406824,-0.0225843862540438,0.130501129219313,-0.695782213269853,-1.49,-2.09,9.46
10.7449999,180,180,0,2.107,0,89.125,7.33858557748593,13.1611349898827,0.706158823170359,-0.0224012696087408,0.129219312702191,-0.695904291033388,-1.48,-2.07,9.46
10.8624925,180,180,0,2.45,0,89.125,6.90598506675698,12.3294120503668,0.706769211988036,-0.021180491973387,0.12134529695416,-0.696697796496368,-1.38,-1.93,9.51
10.8917323,180,180,0,2.5284,0,89.125,6.79107130498848,12.1355665516927,0.706952328633339,-0.0208142586827809,0.119086858328755,-0.696941952023439,-1.36,-1.91,9.52
11.0023076,180,180,0,2.8224,0,89.1875,6.32918438578504,11.2204481310122,0.707562717451016,-0.0195324421656595,0.109931026063603,-0.697857535249954,-1.25,-1.77,9.56
11.0223662,180,180,0,2.891,0,89.1875,6.21427062401655,11.0266026323381,0.707806872978087,-0.0194103644021242,0.107855704083501,-0.697918574131722,-1.23,-1.74,9.57
11.0386073,180,180,0,2.9302,0,89.1875,6.09935686224805,10.832757133664,0.707806872978087,-0.0192272477568211,0.106879081975218,-0.698101690777025,-1.22,-1.73,9.57
11.1544252,180,180,0,3.2144,0,89.1875,5.60818353457012,9.83424323181894,0.708356222913996,-0.0180675090032351,0.0974790941829946,-0.698956235121773,-1.1,-1.58,9.61
11.1734248,180,180,0,3.2438,0,89.1875,5.54961071762114,9.66745226948986,0.708539339559299,-0.0178233534761643,0.0955868888481963,-0.69901727400354,-1.08,-1.55,9.62
11.1894077,180,180,0,3.2928,0,89.1875,5.46398336432714,9.55700225198029,0.708600378441067,-0.0177012757126289,0.0947323445034487,-0.699078312885308,-1.07,-1.54,9.62
11.2873792,180,180,0,3.4202,0,89.1875,5.17558302384117,9.00252029230299,0.708844533968138,-0.0169688091314167,0.0889946896172862,-0.699627662821217,-1,-1.45,9.64
11.3065663,180,180,0,3.43,0,89.1875,5.11701020689219,8.83572932997391,0.708966611731673,-0.0167856924861137,0.0877739119819325,-0.699627662821217,-0.98,-1.43,9.65
11.3257613,180,180,0,3.4594,0,89.1875,5.03138285359819,8.72527931246434,0.709027650613441,-0.0166636147225783,0.0866752121101141,-0.699688701702985,-0.97,-1.42,9.65
11.4294389,180,180,0,3.479,0,89.1875,4.94352362817472,8.47509286897072,0.709210767258744,-0.0162973814319722,0.0837453457852652,-0.699932857230055,-0.94,-1.37,9.66
11.4474237,180,180,0,3.479,0,89.1875,4.91423721970023,8.39169738780618,0.709210767258744,-0.0162973814319722,0.0835622291399622,-0.699932857230055,-0.93,-1.37,9.66
11.4645311,180,180,0,3.479,0,89.1875,4.91423721970023,8.39169738780618,0.709210767258744,-0.0162973814319722,0.0832570347311237,-0.699932857230055,-0.93,-1.36,9.66
11.5603637,180,180,0,3.4006,0,89.1875,4.94352362817472,8.47509286897072,0.709149728376976,-0.0166636147225783,0.0842336568394067,-0.699871818348288,-0.94,-1.38,9.66
11.5805548,180,180,0,3.3712,0,89.1875,4.99986457299423,8.50214740531574,0.709149728376976,-0.016724653604346,0.0845998901300128,-0.699871818348288,-0.94,-1.39,9.66
11.6048624,180,180,0,3.332,0,89.1875,5.02915098146872,8.58554288648028,0.709088689495208,-0.0168467313678813,0.085149240065922,-0.69981077946652,-0.95,-1.4,9.65
11.7135127,180,180,0,3.1164,0,89.1875,5.31531944982523,9.00028842017353,0.70878349508637,-0.0177623145943966,0.0899713117255692,-0.699505585057682,-1,-1.48,9.64
11.7324673,180,180,0,3.0576,0,89.1875,5.37389226677421,9.16707938250261,0.708722456204602,-0.0180064701214674,0.0911310504791552,-0.699444546175914,-1.01,-1.5,9.63
11.7497367,180,180,0,3.0282,0,89.1875,5.4031786752487,9.25047486366715,0.708600378441067,-0.0182506256485381,0.0923518281145089,-0.699383507294146,-1.03,-1.51,9.63
11.8453273,180,180,0,2.7734,0,89.1875,5.74791996055418,9.83201135968947,0.708356222913996,-0.0192272477568211,0.0978453274736007,-0.698895196240005,-1.09,-1.6,9.61
11.8644594,180,180,0,2.744,0,89.1875,5.77720636902867,9.91540684085401,0.708295184032229,-0.0193493255203565,0.0985167551730452,-0.698834157358237,-1.11,-1.62,9.6
11.8826923,180,180,0,2.6754,0,89.1875,5.94846107561668,10.1363068758731,0.708173106268693,-0.0197155588109626,0.100531038271379,-0.698651040712934,-1.12,-1.65,9.6
11.9864916,180,180,0,2.3814,0,89.1875,6.32248876939665,10.80123885306,0.707684795214552,-0.0210584142098517,0.10736739302936,-0.698101690777025,-1.2,-1.77,9.56
12.0105406,180,180,0,2.3226,0,89.1875,6.43740253116515,10.9950843517341,0.707562717451016,-0.0213025697369224,0.108710248428249,-0.69797961301349,-1.22,-1.79,9.56
12.0300422,180,180,0,2.2834,0,89.1875,6.55231629293364,11.1889298504082,0.707379600805713,-0.0216688030275285,0.111090764817189,-0.697796496368187,-1.24,-1.82,9.55
12.1315621,180,180,0,2.0188,0,89.1875,6.9556303951881,11.9372573087596,0.706830250869804,-0.0229506195446499,0.118232313984008,-0.697125068668742,-1.32,-1.93,9.52
12.152547,180,180,0,1.9992,0,89.1875,7.04125774848211,12.0477073262692,0.706708173106269,-0.0230726973081853,0.119636208264665,-0.697002990905207,-1.34,-1.95,9.51
12.1688075,180,180,0,1.9404,0,89.1875,7.07054415695659,12.1311028074337,0.706647134224501,-0.023133736189953,0.120429713727645,-0.696941952023439,-1.35,-1.96,9.51
12.2905092,180,180,0,1.7444,0,89.1875,7.55948561250506,12.9898802832947,0.705853628761521,-0.0243545138253067,0.128547885002747,-0.696270524323994,-1.44,-2.09,9.47
12.3084884,180,180,0,1.7248,0,89.1875,7.58877202097955,13.0732757644593,0.705792589879753,-0.0244155527070744,0.129097234938656,-0.696209485442227,-1.45,-2.1,9.46
12.3237437,180,180,0,1.715,0,89.1875,7.61805842945404,13.1566712456238,0.705670512116218,-0.0245986693523775,0.13031801257401,-0.696087407678691,-1.47,-2.12,9.45
12.3416392,180,180,0,1.6856,0,89.1875,7.70368578274805,13.2671212631334,0.70560947323445,-0.0247817859976805,0.131416712445828,-0.695965329915156,-1.48,-2.13,9.45
12.4394552,180,180,0,1.666,0,89.1875,7.84788595299103,13.544362242972,0.705304278825612,-0.0252090581700543,0.134041384361838,-0.695721174388085,-1.5,-2.17,9.44
12.4575665,180,180,0,1.666,0,89.1875,7.90422689781055,13.571416779317,0.705304278825612,-0.025270097051822,0.134285539888909,-0.695721174388085,-1.51,-2.18,9.44
12.4735342,180,180,0,1.666,0,89.1875,7.87717236146552,13.6277577241366,0.705243239943844,-0.0253311359335897,0.134712812061283,-0.695660135506318,-1.51,-2.18,9.43
12.5694546,180,180,0,1.7542,0,89.1875,7.820831416646,13.6007031877915,0.705304278825612,-0.0250259415247513,0.134163462125374,-0.695721174388085,-1.51,-2.17,9.44
12.5878123,180,180,0,1.7738,0,89.1875,7.79154500817151,13.517307706627,0.70536531770738,-0.0249038637612159,0.133675151071232,-0.695782213269853,-1.5,-2.16,9.44
12.6035929,180,180,0,1.8032,0,89.1875,7.79154500817151,13.517307706627,0.70536531770738,-0.0248428248794482,0.133492034425929,-0.695782213269853,-1.5,-2.16,9.44
12.7005621,180,180,0,1.9894,0,89.1875,7.56171748463453,13.1296167092788,0.705731550997986,-0.0239882805347006,0.12952450711103,-0.696209485442227,-1.46,-2.09,9.46
12.7195039,180,180,0,2.0188,0,89.1875,7.50537653981501,13.1025621729338,0.705792589879753,-0.0238662027711652,0.129036196056888,-0.696270524323994,-1.46,-2.09,9.46
12.7347988,180,180,0,2.0384,0,89.1875,7.47609013134052,13.0191666917692,0.705853628761521,-0.0238051638893975,0.128608923884514,-0.696270524323994,-1.44,-2.07,9.47
12.831565,180,180,0,2.2736,0,89.1875,7.07500790121552,12.4105756594019,0.70640297869743,-0.0224623084905085,0.122443996825978,-0.696880913141671,-1.38,-1.98,9.5
12.8519742,180,180,0,2.3422,0,89.1875,6.98938054792152,12.3001256418923,0.706464017579198,-0.0222181529634377,0.12134529695416,-0.697064029786974,-1.37,-1.96,9.5
12.879509,180,180,0,2.401,0,89.1875,6.98714867579205,12.1603892159082,0.706525056460966,-0.0219129585545993,0.119575169382897,-0.697247146432277,-1.35,-1.93,9.51
12.9874138,180,180,0,2.6754,0,89.25,6.50043909237305,11.4413481660313,0.707013367515107,-0.0203869865104071,0.113105047915522,-0.697918574131722,-1.28,-1.82,9.54
13.0074153,180,180,0,2.7244,0,89.25,6.47115268389856,11.3579526848668,0.707074406396875,-0.0201428309833364,0.112128425807239,-0.69797961301349,-1.27,-1.8,9.55
13.0234527,180,180,0,2.7636,0,89.25,6.32918438578504,11.2204481310122,0.70719648416041,-0.019837636574498,0.11078557040835,-0.698101690777025,-1.26,-1.79,9.55
13.1205868,180,180,0,2.9988,0,89.25,5.89881574718555,10.5284616174803,0.707623756332784,-0.0184947811756089,0.103705060123299,-0.69877311847647,-1.18,-1.67,9.58
13.1394451,180,180,0,3.038,0,89.25,5.86952933871106,10.4450661363158,0.707684795214552,-0.0182506256485381,0.10260636025148,-0.698895196240005,-1.17,-1.65,9.59
13.155507,180,180,0,3.0674,0,89.25,5.84024293023657,10.3616706551512,0.707745834096319,-0.0181285478850027,0.102057010315571,-0.698956235121773,-1.16,-1.65,9.59
13.252545,180,180,0,3.234,0,89.25,5.40987429163709,9.66968414161932,0.708173106268693,-0.016724653604346,0.0954648110846609,-0.699444546175914,-1.09,-1.54,9.62
13.272723,180,180,0,3.2634,0,89.25,5.3805878831626,9.58628866045478,0.708173106268693,-0.0165415369590429,0.094671305621681,-0.699566623939449,-1.08,-1.52,9.62
13.2898489,180,180,0,3.283,0,89.25,5.29496052986859,9.47583864294521,0.708234145150461,-0.0163584203137399,0.0937557223951657,-0.699627662821217,-1.07,-1.51,9.62
13.4045501,180,180,0,3.3712,0,89.25,5.00879206151209,9.06109310925197,0.708539339559299,-0.0153817982054569,0.0889336507355185,-0.699932857230055,-1.02,-1.43,9.64
13.4225138,180,180,0,3.3712,0,89.25,5.03584659785711,9.00475216443245,0.708539339559299,-0.0153817982054569,0.0887505340902155,-0.699932857230055,-1.02,-1.43,9.64
13.4396586,180,180,0,3.3712,0,89.25,4.9795056530376,8.97769762808743,0.708600378441067,-0.0153207593236892,0.0883843007996093,-0.699993896111823,-1.01,-1.42,9.64
13.536409,180,180,0,3.3418,0,89.25,4.95021924456311,8.89430214692289,0.708661417322835,-0.0151986815601538,0.0875907953366294,-0.700054934993591,-1,-1.41,9.65
13.5556256,180,180,0,3.332,0,89.25,4.95021924456311,8.89430214692289,0.708661417322835,-0.0152597204419215,0.0877128731001648,-0.700054934993591,-1.01,-1.41,9.65
13.5726314,180,180,0,3.3124,0,89.25,4.95021924456311,8.89430214692289,0.708600378441067,-0.0152597204419215,0.0878349508637002,-0.699993896111823,-1.01,-1.41,9.65
13.6685859,180,180,0,3.185,0,89.25,5.09441941480609,9.17154312676153,0.708478300677532,-0.0156259537325276,0.0900323506073369,-0.699871818348288,-1.03,-1.45,9.64
13.6878432,180,180,0,3.1556,0,89.25,5.12370582328058,9.25493860792607,0.708417261795764,-0.0158701092595984,0.0911920893609229,-0.69981077946652,-1.04,-1.47,9.63
13.7045896,180,180,0,3.1164,0,89.25,5.1800467681001,9.2819931442711,0.708356222913996,-0.015931148141366,0.0916193615332967,-0.699749740584752,-1.05,-1.47,9.63
13.801584,180,180,0,2.9106,0,89.25,5.49550164493109,9.78013415912889,0.708051028505158,-0.0167856924861137,0.0964414331929439,-0.699444546175914,-1.1,-1.55,9.61
13.822636,180,180,0,2.8812,0,89.25,5.46844710858607,9.8364751039484,0.70798998962339,-0.016907770249649,0.0970518220106208,-0.699383507294146,-1.12,-1.58,9.61
13.8385378,180,180,0,2.8224,0,89.25,5.58336087035456,10.0303206026225,0.707867911859855,-0.0172129646584875,0.0986998718183483,-0.699261429530611,-1.13,-1.59,9.6
13.9336136,180,180,0,2.5872,0,89.25,5.86952933871106,10.4450661363158,0.707562717451016,-0.0184337422938412,0.104437526704511,-0.69877311847647,-1.19,-1.68,9.58
13.9536239,180,180,0,2.5578,0,89.25,5.98444310047956,10.6389116349899,0.707501678569249,-0.0185558200573765,0.105047915522188,-0.698712079594702,-1.2,-1.69,9.58
13.9705181,180,180,0,2.5088,0,89.25,6.01372950895405,10.7223071161544,0.707379600805713,-0.0187999755844473,0.106329732039309,-0.698590001831166,-1.21,-1.71,9.57
14.0691345,180,180,0,2.2736,0,89.25,6.41481173907905,11.3308981485218,0.707013367515107,-0.0201428309833364,0.112311542452542,-0.69797961301349,-1.28,-1.81,9.55
14.0934076,180,180,0,2.2148,0,89.25,6.52972550084754,11.5247436471959,0.706830250869804,-0.0205701031557102,0.114447903314411,-0.697796496368187,-1.3,-1.85,9.54
14.1097296,180,180,0,2.1952,0,89.25,6.55901190932203,11.6081391283604,0.706830250869804,-0.0207532198010132,0.115058292132088,-0.697735457486419,-1.31,-1.86,9.53
14.2106183,180,180,0,1.9796,0,89.1875,6.96009413944703,12.2167301607278,0.706464017579198,-0.021973997436367,0.120734908136483,-0.697125068668742,-1.37,-1.95,9.51
14.23085,180,180,0,1.96,0,89.1875,6.98938054792152,12.3001256418923,0.70640297869743,-0.0220960751999023,0.121406335835927,-0.697064029786974,-1.39,-1.98,9.5
14.2475475,180,180,0,1.9208,0,89.1875,7.13134884603504,12.4376301957469,0.706219862052127,-0.0225233473722761,0.123237502288958,-0.696880913141671,-1.39,-1.99,9.49
14.3436508,180,180,0,1.8032,0,89.1875,7.39046277804652,12.9087166742596,0.705853628761521,-0.0234999694805591,0.127388146249161,-0.696514679851065,-1.44,-2.07,9.47
14.3638377,180,180,0,1.7934,0,89.1875,7.47609013134052,13.0191666917692,0.705731550997986,-0.0236830861258622,0.128364768357444,-0.69639260208753,-1.45,-2.08,9.47
14.380537,180,180,0,1.7738,0,89.1875,7.47609013134052,13.0191666917692,0.705731550997986,-0.0238051638893975,0.128792040529817,-0.69639260208753,-1.46,-2.1,9.46
14.4794491,180,180,0,1.7542,0,89.1875,7.64734483792853,13.2400667267883,0.705487395470915,-0.0244155527070744,0.130989440273454,-0.696148446560459,-1.48,-2.13,9.45
14.4984876,180,180,0,1.764,0,89.1875,7.67663124640302,13.3234622079529,0.705426356589147,-0.0245986693523775,0.131538790209363,-0.696087407678691,-1.48,-2.13,9.45
14.5164557,180,180,0,1.764,0,89.1875,7.67663124640302,13.3234622079529,0.705426356589147,-0.0246597082341452,0.131599829091131,-0.696087407678691,-1.48,-2.13,9.45
14.6125636,180,180,0,1.8522,0,89.1875,7.64734483792853,13.2400667267883,0.705548434352683,-0.0247817859976805,0.130806323628151,-0.696148446560459,-1.47,-2.12,9.45
14.6315885,180,180,0,1.862,0,89.1875,7.67439937427356,13.1837257819688,0.705548434352683,-0.0247817859976805,0.130440090337545,-0.696148446560459,-1.46,-2.12,9.46
14.6476655,180,180,0,1.9012,0,89.1875,7.64511296579907,13.1003303008043,0.70560947323445,-0.0247817859976805,0.129951779283404,-0.696209485442227,-1.45,-2.11,9.46
14.7435559,180,180,0,2.0678,0,89.1875,7.44457185073657,12.7960347846206,0.705975706525056,-0.0243545138253067,0.126655679667948,-0.696514679851065,-1.41,-2.06,9.48
14.7628772,180,180,0,2.0874,0,89.1875,7.41528544226208,12.7126393034561,0.706036745406824,-0.024293474943539,0.125801135323201,-0.696575718732833,-1.4,-2.04,9.48
14.7796654,180,180,0,2.1462,0,89.1875,7.38599903378759,12.6292438222915,0.706097784288592,-0.0241713971800037,0.124885552096686,-0.696636757614601,-1.39,-2.04,9.48
14.8786503,180,180,0,2.352,0,89.1875,7.09759869330162,12.0747618626142,0.706586095342733,-0.0231947750717207,0.119880363791735,-0.697125068668742,-1.34,-1.96,9.51
14.9035786,180,180,0,2.4108,0,89.1875,7.01197134000762,11.9643118451047,0.706647134224501,-0.0230726973081853,0.118781663919917,-0.697247146432277,-1.32,-1.93,9.52
14.9226636,180,180,0,2.4402,0,89.1875,6.9556303951881,11.9372573087596,0.706769211988036,-0.0227675028993469,0.117133614112189,-0.697369224195813,-1.31,-1.91,9.52
15.0184853,180,180,0,2.646,0,89.1875,6.66723005470213,11.3827753490823,0.707074406396875,-0.0217298419092962,0.112860892388451,-0.697796496368187,-1.26,-1.83,9.54
15.0398536,180,180,0,2.7048,0,89.1875,6.52526175658861,11.2452707952277,0.70719648416041,-0.0214856863822255,0.111395959226027,-0.69797961301349,-1.25,-1.82,9.55
15.0565846,180,180,0,2.7538,0,89.1875,6.49597534811412,11.1618753140632,0.707257523042178,-0.0213025697369224,0.11078557040835,-0.69797961301349,-1.23,-1.8,9.55
15.1536243,180,180,0,2.9596,0,89.25,6.15123406280864,10.5803388180409,0.707562717451016,-0.0201428309833364,0.104803759995117,-0.698651040712934,-1.17,-1.7,9.58
15.1724475,180,180,0,2.9792,0,89.25,6.09266124585966,10.4135478557118,0.707623756332784,-0.0198986754562656,0.103338826832692,-0.69877311847647,-1.16,-1.69,9.58
15.1895617,180,180,0,3.0282,0,89.25,6.03632030104015,10.3864933193668,0.707684795214552,-0.0197765976927303,0.102728438015016,-0.698834157358237,-1.14,-1.67,9.59
15.293891,180,180,0,3.1752,0,89.25,5.63523807091515,9.77790228699942,0.708112067386925,-0.0185558200573765,0.09680766648355,-0.699322468412379,-1.09,-1.58,9.61
15.3136892,180,180,0,3.1948,0,89.25,5.66229260726017,9.72156134217991,0.708112067386925,-0.0184337422938412,0.0964414331929439,-0.699322468412379,-1.08,-1.57,9.61
15.3306904,180,180,0,3.2144,0,89.25,5.60595166244066,9.69450680583488,0.708234145150461,-0.0181895867667704,0.0950985777940548,-0.699383507294146,-1.07,-1.55,9.62
15.426531,180,180,0,3.2732,0,89.25,5.37612413890367,9.30681580848666,0.708417261795764,-0.0173960813037905,0.0920466337056705,-0.699627662821217,-1.03,-1.5,9.63
15.4547071,180,180,0,3.283,0,89.25,5.31978319408415,9.27976127214164,0.708478300677532,-0.0173350424220228,0.0917414392968321,-0.699627662821217,-1.03,-1.49,9.63
15.4706206,180,180,0,3.283,0,89.25,5.34683773042918,9.22342032732212,0.708478300677532,-0.0173350424220228,0.0911920893609229,-0.699688701702985,-1.02,-1.49,9.63
15.5676709,180,180,0,3.2536,0,89.25,5.23415584079015,9.16931125463207,0.708478300677532,-0.0169688091314167,0.0906427394250137,-0.699749740584752,-1.02,-1.47,9.63
15.5867793,180,180,0,3.2438,0,89.25,5.23415584079015,9.16931125463207,0.708478300677532,-0.0169688091314167,0.0907037783067814,-0.699749740584752,-1.02,-1.48,9.63
15.60352,180,180,0,3.2242,0,89.25,5.23415584079015,9.16931125463207,0.708478300677532,-0.0169688091314167,0.0908868949520845,-0.699749740584752,-1.03,-1.48,9.63
15.699885,180,180,0,3.1164,0,89.25,5.32201506621362,9.4194976981257,0.708295184032229,-0.0169688091314167,0.0929011780504181,-0.699627662821217,-1.05,-1.51,9.63
15.7196989,180,180,0,3.0968,0,89.25,5.37835601103313,9.44655223447072,0.708234145150461,-0.0170298480131844,0.0936336446316303,-0.699627662821217,-1.06,-1.52,9.62
15.7376098,180,180,0,3.0576,0,89.25,5.40764241950762,9.52994771563526,0.708234145150461,-0.0170908868949521,0.0942440334493072,-0.699566623939449,-1.07,-1.53,9.62
15.8409375,180,180,0,2.8714,0,89.25,5.61041540669959,9.973979657803,0.707867911859855,-0.0175181590673259,0.0986388329365806,-0.699261429530611,-1.12,-1.59,9.6
15.859689,180,180,0,2.8224,0,89.25,5.69604275999359,10.0844296753126,0.707806872978087,-0.0176402368308613,0.0996154550448636,-0.699200390648843,-1.14,-1.61,9.6
15.8756871,180,180,0,2.8028,0,89.25,5.72532916846808,10.1678251564771,0.707745834096319,-0.0177623145943966,0.100592077153147,-0.699139351767076,-1.15,-1.62,9.6
15.9716467,180,180,0,2.5872,0,89.25,5.95738856413453,10.6952525798094,0.707440639687481,-0.0183727034120735,0.105292071049258,-0.698712079594702,-1.2,-1.69,9.58
15.9923526,180,180,0,2.5382,0,89.25,6.04301591742854,10.8057025973189,0.707379600805713,-0.0185558200573765,0.106390770921077,-0.698651040712934,-1.22,-1.72,9.57
16.0237588,180,180,0,2.4696,0,89.25,6.10158873437752,10.972493559648,0.707257523042178,-0.018861014466215,0.108221937374107,-0.698467924067631,-1.24,-1.74,9.56
16.141513,180,180,0,2.2344,0,89.25,6.47561642815749,11.6374255368349,0.706769211988036,-0.019837636574498,0.11499725325032,-0.697796496368187,-1.32,-1.84,9.53
16.1635838,180,180,0,2.1854,0,89.25,6.56124378145149,11.7478755543445,0.706769211988036,-0.020020753219801,0.115912836476836,-0.697674418604651,-1.33,-1.86,9.53
16.1816224,180,180,0,2.1462,0,89.25,6.59053018992598,11.831271035509,0.706647134224501,-0.0202038698651041,0.116889458585119,-0.697613379722884,-1.34,-1.87,9.53
16.2775133,180,180,0,1.9894,0,89.25,6.87893053041195,12.3857529951863,0.706219862052127,-0.0209363364463163,0.121772569126534,-0.69718610755051,-1.39,-1.95,9.5
16.2987688,180,180,0,1.9698,0,89.25,6.96455788370595,12.4962030126959,0.706158823170359,-0.0211194530916194,0.122627113471281,-0.697125068668742,-1.41,-1.97,9.5
16.3156851,180,180,0,1.9404,0,89.25,6.99384429218044,12.5795984938604,0.706097784288592,-0.0212415308551547,0.123420618934261,-0.697064029786974,-1.41,-1.98,9.49
16.4127194,180,180,0,1.8522,0,89.25,7.25072635206246,12.9109485463891,0.705792589879753,-0.021973997436367,0.12714399072209,-0.696697796496368,-1.45,-2.04,9.48
16.4329328,180,180,0,1.8522,0,89.25,7.22367181571743,12.9672894912086,0.705731550997986,-0.0220350363181347,0.127510224012696,-0.696636757614601,-1.46,-2.04,9.47
16.4499177,180,180,0,1.8424,0,89.25,7.28001276053695,12.9943440275537,0.705670512116218,-0.0220960751999023,0.127815418421535,-0.696636757614601,-1.46,-2.05,9.47
16.5506088,180,180,0,1.8424,0,89.25,7.36564011383095,13.1047940450632,0.70560947323445,-0.0224012696087408,0.129097234938656,-0.696514679851065,-1.48,-2.07,9.47
16.569856,180,180,0,1.862,0,89.25,7.36564011383095,13.1047940450632,0.70560947323445,-0.0224623084905085,0.128975157175121,-0.696514679851065,-1.47,-2.07,9.47
16.5868017,180,180,0,1.8718,0,89.25,7.36564011383095,13.1047940450632,0.70560947323445,-0.0224623084905085,0.128853079411585,-0.696514679851065,-1.47,-2.07,9.47
16.6837184,180,180,0,1.96,0,89.25,7.30706729688197,12.9380030827341,0.705731550997986,-0.0224012696087408,0.127510224012696,-0.696636757614601,-1.45,-2.05,9.47
16.7025393,180,180,0,1.9894,0,89.25,7.30706729688197,12.9380030827341,0.705792589879753,-0.0224012696087408,0.127205029603858,-0.696636757614601,-1.45,-2.04,9.47
16.7206037,180,180,0,2.009,0,89.25,7.22143994358797,12.8275530652246,0.705914667643289,-0.0222791918452054,0.126228407495575,-0.696697796496368,-1.44,-2.03,9.48
16.8176998,180,180,0,2.1756,0,89.1875,7.0479533648705,12.4669166042214,0.706219862052127,-0.021973997436367,0.122993346761887,-0.697002990905207,-1.4,-1.98,9.5
16.8366343,180,180,0,2.2148,0,89.1875,7.01866695639601,12.3835211230568,0.706280900933895,-0.0219129585545993,0.122077763535372,-0.697064029786974,-1.38,-1.96,9.5
16.8547214,180,180,0,2.2442,0,89.1875,6.96232601157649,12.3564665867118,0.706341939815663,-0.0217908807910639,0.121162180308857,-0.697125068668742,-1.38,-1.95,9.5
16.9525711,180,180,0,2.4304,0,89.1875,6.73026661591004,11.8290391633795,0.706769211988036,-0.021180491973387,0.116523225294513,-0.697552340841116,-1.32,-1.88,9.53
