Time (s),Setpoint (deg),Motor Position (deg),Tension 1 (N),Tension 2 (N),Tension 3 (N),Heading (deg),Pitch (deg),Roll (deg),Quaternion W,Quaternion X,Quaternion Y,Quaternion Z,Gravity X,Gravity Y,Gravity Z
0,0,0,0,0,0,0,0,0,0,0,0,0,0,0,0
0.0252434,0,0,0,0.9898,0,85.4375,4.57423174944514,6.35645568712377,0.732954892266374,-0.021973997436367,0.0650674479643533,-0.676921198803638,-0.64,-1.17,9.71
0.0613093,0,0,0,0.98,0,85.4375,4.57423174944514,6.35645568712377,0.732954892266374,-0.021973997436367,0.0650674479643533,-0.676921198803638,-0.64,-1.17,9.71
0.1673907,0,0,0,0.9702,0,85.4375,4.57423174944514,6.35645568712377,0.732954892266374,-0.021973997436367,0.0650674479643533,-0.676921198803638,-0.64,-1.17,9.71
0.1892387,0,0,0,0.9702,0,85.4375,4.57423174944514,6.35645568712377,0.732954892266374,-0.021973997436367,0.0650674479643533,-0.676921198803638,-0.64,-1.17,9.71
0.2114569,0,0,0,0.98,0,85.4375,4.57423174944514,6.35645568712377,0.732954892266374,-0.021973997436367,0.0650674479643533,-0.676921198803638,-0.64,-1.17,9.71
0.5269274,0,0,0,0.9996,0,85.4375,4.57423174944514,6.35645568712377,0.732954892266374,-0.021973997436367,0.0650674479643533,-0.676921198803638,-0.64,-1.17,9.71
0.5479565,0,0,0,0.9996,0,85.4375,4.57423174944514,6.35645568712377,0.732954892266374,-0.021973997436367,0.0650674479643533,-0.676921198803638,-0.64,-1.17,9.71
0.6538938,0,0,0,1.0094,0,85.4375,4.57423174944514,6.35645568712377,0.732954892266374,-0.021973997436367,0.0650674479643533,-0.676921198803638,-0.64,-1.17,9.71
0.6718894,0,0,0,1.0094,0,85.4375,4.57423174944514,6.35645568712377,0.732954892266374,-0.021973997436367,0.0650674479643533,-0.676921198803638,-0.64,-1.17,9.71
0.6878905,0,0,0,1.0094,0,85.4375,4.57423174944514,6.35645568712377,0.732954892266374,-0.021973997436367,0.0650674479643533,-0.676921198803638,-0.64,-1.17,9.71
0.7880799,0,0,0,0.9996,0,85.4375,4.57423174944514,6.35645568712377,0.732954892266374,-0.021973997436367,0.0650674479643533,-0.676921198803638,-0.64,-1.17,9.71
0.8070934,0,0,0,0.9996,0,85.4375,4.57423174944514,6.35645568712377,0.732954892266374,-0.021973997436367,0.0650674479643533,-0.676921198803638,-0.64,-1.17,9.71
0.8262745,0,0,0,0.9996,0,85.4375,4.57423174944514,6.35645568712377,0.732954892266374,-0.021973997436367,0.0650674479643533,-0.676921198803638,-0.64,-1.17,9.71
0.9240078,0,0,0,0.9898,0,85.4375,4.57423174944514,6.35645568712377,0.732954892266374,-0.021973997436367,0.0650674479643533,-0.676921198803638,-0.64,-1.17,9.71
0.9431798,0,0,0,0.9898,0,85.4375,4.57423174944514,6.35645568712377,0.732954892266374,-0.021973997436367,0.0650674479643533,-0.676921198803638,-0.64,-1.17,9.71
0.9610093,0,0,0,0.9898,0,85.4375,4.57423174944514,6.35645568712377,0.732954892266374,-0.021973997436367,0.0650674479643533,-0.676921198803638,-0.64,-1.17,9.71
1.0569543,0,0,0,0.98,0,85.4375,4.57423174944514,6.35645568712377,0.732954892266374,-0.021973997436367,0.0650674479643533,-0.676921198803638,-0.64,-1.17,9.71
1.0790008,0,0,0,0.98,0,85.4375,4.57423174944514,6.35645568712377,0.732954892266374,-0.021973997436367,0.0650674479643533,-0.676921198803638,-0.64,-1.17,9.71
1.0972978,0,0,0,0.98,0,85.4375,4.57423174944514,6.35645568712377,0.732954892266374,-0.021973997436367,0.0650674479643533,-0.676921198803638,-0.64,-1.17,9.71
1.19798,0,0,0,0.9702,0,85.4375,4.57423174944514,6.35645568712377,0.732954892266374,-0.021973997436367,0.0650674479643533,-0.676921198803638,-0.64,-1.17,9.71
1.2193486,0,0,0,0.9702,0,85.4375,4.57423174944514,6.35645568712377,0.732954892266374,-0.021973997436367,0.0650674479643533,-0.676921198803638,-0.64,-1.17,9.71
1.2481766,0,0,0,0.9604,0,85.4375,4.57423174944514,6.35645568712377,0.732954892266374,-0.021973997436367,0.0650674479643533,-0.676921198803638,-0.64,-1.17,9.71
1.3560227,0,0,0,0.9506,0,85.4375,4.57423174944514,6.35645568712377,0.732954892266374,-0.021973997436367,0.0650674479643533,-0.676921198803638,-0.64,-1.17,9.71
1.37512,0,0,0,0.9506,0,85.4375,4.57423174944514,6.35645568712377,0.732954892266374,-0.021973997436367,0.0650674479643533,-0.676921198803638,-0.64,-1.17,9.71
1.3919039,0,0,0,0.9506,0,85.4375,4.57423174944514,6.35645568712377,0.732954892266374,-0.021973997436367,0.0650674479643533,-0.676921198803638,-0.64,-1.17,9.71
1.4893311,0,0,0,0.9408,0,85.4375,4.57423174944514,6.35645568712377,0.732954892266374,-0.021973997436367,0.0650674479643533,-0.676921198803638,-0.64,-1.17,9.71
1.5080063,0,0,0,0.9408,0,85.4375,4.57423174944514,6.35645568712377,0.732954892266374,-0.021973997436367,0.0650674479643533,-0.676921198803638,-0.64,-1.17,9.71
1.5251118,0,0,0,0.9408,0,85.4375,4.57423174944514,6.35645568712377,0.732954892266374,-0.021973997436367,0.0650674479643533,-0.676921198803638,-0.64,-1.17,9.71
1.6220119,0,0,0,0.9408,0,85.4375,4.57423174944514,6.35645568712377,0.732954892266374,-0.021973997436367,0.0650674479643533,-0.676921198803638,-0.64,-1.17,9.71
1.6411696,0,0,0,0.9408,0,85.4375,4.57423174944514,6.35645568712377,0.732954892266374,-0.021973997436367,0.0650674479643533,-0.676921198803638,-0.64,-1.17,9.71
1.6572492,0,0,0,0.9408,0,85.4375,4.57423174944514,6.35645568712377,0.732954892266374,-0.021973997436367,0.0650674479643533,-0.676921198803638,-0.64,-1.17,9.71
1.7729938,0,0,0,0.9408,0,85.4375,4.57423174944514,6.35645568712377,0.732954892266374,-0.021973997436367,0.0650674479643533,-0.676921198803638,-0.64,-1.17,9.71
1.7919402,0,0,0,0.9408,0,85.4375,4.57423174944514,6.35645568712377,0.732954892266374,-0.021973997436367,0.0650674479643533,-0.676921198803638,-0.64,-1.17,9.71
1.8080222,0,0,0,0.9408,0,85.4375,4.57423174944514,6.35645568712377,0.732954892266374,-0.021973997436367,0.0650674479643533,-0.676921198803638,-0.64,-1.17,9.71
1.905074,0,0,0,0.9506,0,85.4375,4.57423174944514,6.35645568712377,0.732954892266374,-0.021973997436367,0.0650674479643533,-0.676921198803638,-0.64,-1.17,9.71
1.9240259,0,0,0,0.9506,0,85.4375,4.57423174944514,6.35645568712377,0.732954892266374,-0.021973997436367,0.0650674479643533,-0.676921198803638,-0.64,-1.17,9.71
1.9409918,0,0,0,0.9506,0,85.4375,4.57423174944514,6.35645568712377,0.732954892266374,-0.021973997436367,0.0650674479643533,-0.676921198803638,-0.64,-1.17,9.71
2.0370717,0,0,0,0.9604,0,85.4375,4.57423174944514,6.35645568712377,0.732954892266374,-0.021973997436367,0.0650674479643533,-0.676921198803638,-0.64,-1.17,9.71
2.0560357,0,0,0,0.9604,0,85.4375,4.57423174944514,6.35645568712377,0.732954892266374,-0.021973997436367,0.0650674479643533,-0.676921198803638,-0.64,-1.17,9.71
2.074348,0,0,0,0.9604,0,85.4375,4.57423174944514,6.35645568712377,0.732954892266374,-0.021973997436367,0.0650674479643533,-0.676921198803638,-0.64,-1.17,9.71
2.1709119,0,0,0,0.98,0,85.4375,4.57423174944514,6.35645568712377,0.732954892266374,-0.021973997436367,0.0650674479643533,-0.676921198803638,-0.64,-1.17,9.71
2.1890518,0,0,0,0.98,0,85.4375,4.57423174944514,6.35645568712377,0.732954892266374,-0.021973997436367,0.0650674479643533,-0.676921198803638,-0.64,-1.17,9.71
2.2095635,0,0,0,0.98,0,85.4375,4.57423174944514,6.35645568712377,0.732954892266374,-0.021973997436367,0.0650674479643533,-0.676921198803638,-0.64,-1.17,9.71
2.3270214,0,0,0,0.9898,0,85.4375,4.57423174944514,6.35645568712377,0.732954892266374,-0.021973997436367,0.0650674479643533,-0.676921198803638,-0.64,-1.17,9.71
2.3469849,0,0,0,0.9898,0,85.4375,4.57423174944514,6.35645568712377,0.732954892266374,-0.021973997436367,0.0650674479643533,-0.676921198803638,-0.64,-1.17,9.71
2.364015,0,0,0,0.9898,0,85.4375,4.57423174944514,6.35645568712377,0.732954892266374,-0.021973997436367,0.0650674479643533,-0.676921198803638,-0.64,-1.17,9.71
2.4679998,0,0,0,0.9996,0,85.4375,4.57423174944514,6.35645568712377,0.732954892266374,-0.021973997436367,0.0650674479643533,-0.676921198803638,-0.64,-1.17,9.71
2.4880235,0,0,0,0.9996,0,85.4375,4.57423174944514,6.35645568712377,0.732954892266374,-0.021973997436367,0.0650674479643533,-0.676921198803638,-0.64,-1.17,9.71
2.5050995,0,0,0,0.9996,0,85.4375,4.57423174944514,6.35645568712377,0.732954892266374,-0.021973997436367,0.0650674479643533,-0.676921198803638,-0.64,-1.17,9.71
2.60201,0,0,0,1.0094,0,85.4375,4.57423174944514,6.35645568712377,0.732954892266374,-0.021973997436367,0.0650674479643533,-0.676921198803638,-0.64,-1.17,9.71
2.6235385,0,0,0,1.0094,0,85.4375,4.57423174944514,6.35645568712377,0.732954892266374,-0.021973997436367,0.0650674479643533,-0.676921198803638,-0.64,-1.17,9.71
2.64922,0,0,0,1.0094,0,85.4375,4.57423174944514,6.35645568712377,0.732954892266374,-0.021973997436367,0.0650674479643533,-0.676921198803638,-0.64,-1.17,9.71
2.7500535,0,0,0,0.9996,0,85.4375,4.57423174944514,6.35645568712377,0.732954892266374,-0.021973997436367,0.0650674479643533,-0.676921198803638,-0.64,-1.17,9.71
2.7690024,0,0,0,0.9996,0,85.4375,4.57423174944514,6.35645568712377,0.732954892266374,-0.021973997436367,0.0650674479643533,-0.676921198803638,-0.64,-1.17,9.71
2.7852253,0,0,0,0.9996,0,85.4375,4.57423174944514,6.35645568712377,0.732954892266374,-0.021973997436367,0.0650674479643533,-0.676921198803638,-0.64,-1.17,9.71
2.8831187,0,0,0,0.9996,0,85.4375,4.57423174944514,6.35645568712377,0.732954892266374,-0.021973997436367,0.0650674479643533,-0.676921198803638,-0.64,-1.17,9.71
2.9023114,0,0,0,0.9996,0,85.4375,4.57423174944514,6.35645568712377,0.732954892266374,-0.021973997436367,0.0650674479643533,-0.676921198803638,-0.64,-1.17,9.71
2.9264063,0,0,0,0.9898,0,85.4375,4.57423174944514,6.35645568712377,0.732954892266374,-0.021973997436367,0.0650674479643533,-0.676921198803638,-0.64,-1.17,9.71
3.041961,180,0,0,0.98,0,85.4375,4.57423174944514,6.35645568712377,0.732954892266374,-0.021973997436367,0.0650674479643533,-0.676921198803638,-0.64,-1.17,9.71
3.0603093,180,0.9,0,0.98,0,85.4375,4.57423174944514,6.35645568712377,0.732954892266374,-0.021973997436367,0.0650674479643533,-0.676921198803638,-0.64,-1.17,9.71
3.0839127,180,3.6,0,0.9996,0,85.4375,4.57423174944514,6.35645568712377,0.732954892266374,-0.021973997436367,0.0650674479643533,-0.676921198803638,-0.64,-1.17,9.71
3.211002,180,49.05,0,1.4406,0,85.4375,4.63057269426465,6.38351022346879,0.732893853384606,-0.0220960751999023,0.0654336812549594,-0.67686015992187,-0.64,-1.18,9.71
3.2304016,180,60.75,0,1.617,0,85.4375,4.63057269426465,6.38351022346879,0.732893853384606,-0.0220960751999023,0.0657388756637978,-0.67686015992187,-0.65,-1.19,9.71
3.2565753,180,78.3,0,1.8228,0,85.4375,4.65985910273914,6.46690570463334,0.732893853384606,-0.02215711408167,0.0659830311908686,-0.67686015992187,-0.65,-1.19,9.71
3.3723979,180,150.3,0,3.1164,0,85.4375,4.71843191968812,6.63369666696242,0.732771775621071,-0.02215711408167,0.0678752365256668,-0.676799121040103,-0.68,-1.21,9.7
3.3911552,180,157.95,0,3.2242,0,85.4375,4.71843191968812,6.63369666696242,0.732771775621071,-0.0220960751999023,0.0679973142892022,-0.676799121040103,-0.68,-1.22,9.7
3.4084997,180,163.8,0,3.4202,0,85.4375,4.69137738334309,6.69003761178193,0.732710736739303,-0.0220960751999023,0.068241469816273,-0.676799121040103,-0.68,-1.22,9.7
3.5081495,180,180,0,3.7142,0,85.4375,4.83557755358608,6.96727859162058,0.732527620094,-0.0222181529634377,0.0708051028505158,-0.676738082158335,-0.72,-1.25,9.69
3.5271642,180,180,0,3.7044,0,85.4375,4.86486396206057,7.05067407278512,0.732466581212232,-0.0222181529634377,0.071537569431728,-0.676738082158335,-0.73,-1.26,9.69
3.5442008,180,180,0,3.6652,0,85.4375,4.89415037053506,7.13406955394967,0.732466581212232,-0.0222791918452054,0.0724531526582433,-0.676677043276567,-0.74,-1.28,9.69
3.6462786,180,180,0,3.3516,0,85.4375,5.21406899162498,7.91168342077556,0.731978270158091,-0.0230116584264176,0.0794115851797595,-0.676371848867729,-0.83,-1.38,9.67
3.6652594,180,180,0,3.2634,0,85.4375,5.27264180857396,8.07847438310464,0.731856192394555,-0.0232558139534884,0.081059634987487,-0.676310809985961,-0.85,-1.4,9.66
3.6823067,180,180,0,3.2144,0,85.4375,5.38755557034245,8.27231988177875,0.73173411463102,-0.0234999694805591,0.0828297625587499,-0.676249771104193,-0.87,-1.43,9.66
3.778292,180,180,0,2.8224,0,85.4375,5.84944248954589,9.18743830245924,0.731001648049808,-0.0247817859976805,0.0926570225233474,-0.675700421168284,-0.99,-1.58,9.62
3.797209,180,180,0,2.7244,0,85.4375,5.90801530649487,9.35422926478833,0.73094060916804,-0.0249038637612159,0.0936336446316303,-0.675578343404749,-1.02,-1.61,9.61
3.8147617,180,180,0,2.6754,0,85.4375,5.99587453191834,9.60441570828195,0.730818531404505,-0.0252090581700543,0.095647927729964,-0.675456265641213,-1.03,-1.62,9.61
3.9171822,180,180,0,2.2344,0,85.4375,6.57267521289027,10.7133796276365,0.730086064823292,-0.0266129524507111,0.10657388756638,-0.674601721296466,-1.18,-1.8,9.56
3.9372306,180,180,0,2.1854,0,85.4375,6.66053443831374,10.9635660711302,0.729963987059757,-0.0269181468595495,0.108771287310016,-0.674296526887627,-1.21,-1.84,9.55
3.9542606,180,180,0,2.0874,0,85.4375,6.80473460855673,11.2408070509688,0.729780870414454,-0.027223341268388,0.111090764817189,-0.674113410242324,-1.23,-1.85,9.55
4.0511273,180,180,0,1.7542,0,85.375,7.32742621683861,12.4624528599625,0.728926326069706,-0.0281999633766709,0.122566074589514,-0.673075749252274,-1.38,-2.02,9.49
4.0714985,180,180,0,1.715,0,85.375,7.41528544226208,12.7126393034561,0.728682170542636,-0.0285661966672771,0.124885552096686,-0.672831593725203,-1.4,-2.05,9.48
4.0881959,180,180,0,1.6366,0,85.375,7.58654014885009,12.9335393384752,0.728499053897333,-0.0289324299578832,0.127205029603858,-0.672587438198132,-1.43,-2.09,9.47
4.1881823,180,180,0,1.3916,0,85.375,8.02360440383797,14.0447351299593,0.727583470670817,-0.0296648965390954,0.137215406213758,-0.671610816089849,-1.56,-2.23,9.42
4.2073375,180,180,0,1.3524,0,85.375,8.05289081231246,14.1281306111238,0.727461392907282,-0.0297869743026308,0.138924494903253,-0.671366660562778,-1.58,-2.25,9.41
4.2241479,180,180,0,1.3328,0,85.375,8.11146362926143,14.2949215734529,0.727400354025514,-0.0299090520661661,0.139779039248001,-0.671305621681011,-1.6,-2.26,9.4
4.3192836,180,180,0,1.2446,0,85.375,8.37280943340238,14.9057444779497,0.72672892632607,-0.0301532075932369,0.145699810779467,-0.670695232863334,-1.67,-2.34,9.37
4.3384577,180,180,0,1.2446,0,85.375,8.40209584187687,14.9891399591142,0.726667887444302,-0.0302142464750046,0.146432277360679,-0.670634193981566,-1.68,-2.35,9.36
4.3551348,180,180,0,1.2446,0,85.375,8.43138225035135,15.0725354402788,0.726606848562534,-0.0302752853567723,0.147103705060123,-0.670573155099799,-1.69,-2.36,9.36
4.4521898,180,180,0,1.3328,0,85.375,8.40432771400633,15.1288763850983,0.726545809680767,-0.0297869743026308,0.147408899468962,-0.670573155099799,-1.7,-2.36,9.36
4.4704916,180,180,0,1.3524,0,85.375,8.34798676918681,15.1018218487533,0.726606848562534,-0.0296038576573277,0.146981627296588,-0.670573155099799,-1.7,-2.35,9.36
4.4911821,180,180,0,1.4014,0,85.375,8.31870036071232,15.0184263675887,0.726667887444302,-0.0294817798937923,0.146432277360679,-0.670634193981566,-1.69,-2.34,9.36
4.5922184,180,180,0,1.6856,0,85.375,8.00324548388133,14.520285352731,0.727217237380211,-0.0281389244949033,0.141305011292193,-0.671183543917475,-1.64,-2.26,9.39
4.6114891,180,180,0,1.7248,0,85.375,7.97395907540684,14.4368898715664,0.727400354025514,-0.0278947689678325,0.139962155893304,-0.671305621681011,-1.62,-2.24,9.4
4.628299,180,180,0,1.8032,0,85.375,7.85904531363835,14.2430443728923,0.72752243178905,-0.0275895745589941,0.138558261612647,-0.671427699444546,-1.61,-2.21,9.41
4.7251719,180,180,0,2.1364,0,85.375,7.31376291327036,13.3572123606863,0.728376976133797,-0.0259415247512666,0.130134895928707,-0.672282243789294,-1.51,-2.08,9.46
4.7455031,180,180,0,2.1854,0,85.375,7.28447650479588,13.2738168795218,0.7285600927791,-0.0256973692241958,0.128608923884514,-0.672404321552829,-1.49,-2.06,9.46
4.7620834,180,180,0,2.2736,0,85.375,7.25519009632139,13.1904213983572,0.728743209424403,-0.0253311359335897,0.126838796313252,-0.672587438198132,-1.47,-2.03,9.47
4.8584706,180,180,0,2.6362,0,85.375,6.6242803426594,12.1941393686417,0.729475676005616,-0.0235610083623268,0.118659586156382,-0.673319904779344,-1.37,-1.88,9.52
4.8792375,180,180,0,2.6852,0,85.375,6.50713470876144,11.8605574439835,0.729719831532686,-0.0229506195446499,0.115668680949765,-0.673564060306415,-1.35,-1.85,9.53
4.8972191,180,180,0,2.7734,0,85.375,6.39222094699295,11.6667119453094,0.729902948177989,-0.0226454251358115,0.113898553378502,-0.673747176951718,-1.33,-1.82,9.54
4.9940787,180,180,0,3.1262,0,85.375,5.87399308296999,10.7245389882839,0.730513336995666,-0.0207532198010132,0.103888176768602,-0.674662760178234,-1.21,-1.67,9.58
5.0141727,180,180,0,3.1556,0,85.4375,5.7590793212015,10.5306934896098,0.730635414759202,-0.0205090642739425,0.102789476896783,-0.674784837941769,-1.2,-1.65,9.59
5.0317863,180,180,0,3.234,0,85.4375,5.67345196790749,10.4202434721002,0.730757492522737,-0.0200817921015687,0.100592077153147,-0.674967954587072,-1.16,-1.6,9.6
5.1321451,180,180,0,3.4986,0,85.4375,5.01102393364155,9.20082953523602,0.731673075749252,-0.0176402368308613,0.0877128731001648,-0.67582249893182,-1.02,-1.41,9.64
5.1525166,180,180,0,3.5476,0,85.4375,4.89387829974359,8.86724761057786,0.73173411463102,-0.0174571201855582,0.0867362509918818,-0.675883537813587,-1.01,-1.4,9.65
5.1693461,180,180,0,3.5672,0,85.4375,4.80825094644959,8.75679759306829,0.73173411463102,-0.0173350424220228,0.0858206677653665,-0.676005615577123,-1,-1.38,9.65
5.267195,180,180,0,3.7142,0,85.4375,4.37565043572064,7.92507465355234,0.732283464566929,-0.0159921870231337,0.0772752243178905,-0.676493926631264,-0.89,-1.25,9.68
5.285296,180,180,0,3.724,0,85.4375,4.28779121029717,7.67488821005872,0.732405542330465,-0.015748031496063,0.0753830189830922,-0.6766160043948,-0.87,-1.22,9.69
5.3021909,180,180,0,3.7338,0,85.4375,4.23145026547765,7.64783367371369,0.732405542330465,-0.0156869926142953,0.0748947079289507,-0.6766160043948,-0.86,-1.21,9.69
5.4002198,180,180,0,3.7338,0,85.4375,4.08501822310521,7.23085626789099,0.732649697857535,-0.0154428370872246,0.0712934139046573,-0.676799121040103,-0.81,-1.16,9.7
5.4190982,180,180,0,3.724,0,85.4375,4.08501822310521,7.23085626789099,0.732649697857535,-0.0155038759689922,0.0710492583775865,-0.676799121040103,-0.81,-1.16,9.7
5.4351057,180,180,0,3.7142,0,85.4375,4.08501822310521,7.23085626789099,0.732649697857535,-0.0155649148507599,0.0709882194958188,-0.676799121040103,-0.81,-1.16,9.7
5.5530645,180,180,0,3.5476,0,85.4375,4.25627292969322,7.45175630291012,0.732527620094,-0.0162363425502045,0.0730635414759202,-0.676677043276567,-0.83,-1.2,9.69
5.5711635,180,180,0,3.4888,0,85.4375,4.31261387451273,7.47881083925515,0.732466581212232,-0.0164804980772752,0.0739791247024355,-0.6766160043948,-0.84,-1.21,9.69
5.5872105,180,180,0,3.4594,0,85.4375,4.37118669146171,7.64560180158423,0.732405542330465,-0.0167856924861137,0.0750778245742538,-0.676554965513032,-0.85,-1.23,9.69
5.6852058,180,180,0,3.1948,0,85.4375,4.71592797676719,8.22713829760655,0.732039309039858,-0.0181285478850027,0.0808154794604163,-0.676249771104193,-0.92,-1.33,9.67
5.7075135,180,180,0,3.1164,0,85.4375,4.8015553300612,8.33758831511612,0.731917231276323,-0.0186778978209119,0.0832570347311237,-0.676127693340658,-0.94,-1.37,9.66
5.7242789,180,180,0,3.0772,0,85.4375,4.91646909182969,8.53143381379023,0.731856192394555,-0.018861014466215,0.0840505401941036,-0.67606665445889,-0.95,-1.38,9.66
5.8212817,180,180,0,2.7342,0,85.4375,5.40541054737816,9.39021128965121,0.731306842458646,-0.0207532198010132,0.0924739058780443,-0.675578343404749,-1.05,-1.52,9.63
5.843084,180,180,0,2.646,0,85.4375,5.52032430914665,9.58405678832531,0.731184764695111,-0.021180491973387,0.0943050723310749,-0.675395226759446,-1.08,-1.56,9.61
5.8591348,180,180,0,2.597,0,85.4375,5.63523807091515,9.77790228699942,0.731062686931575,-0.0216688030275285,0.0961972776658732,-0.67527314899591,-1.09,-1.58,9.61
5.9560872,180,180,0,2.2638,0,85.4375,6.20980687975762,10.74712978037,0.730330220350363,-0.0238662027711652,0.1057803821034,-0.674540682414698,-1.19,-1.74,9.57
5.9754376,180,180,0,2.1756,0,85.4375,6.38106158634563,10.9680298153891,0.73014710370506,-0.0243545138253067,0.107855704083501,-0.674357565769395,-1.22,-1.77,9.56
5.9971846,180,180,0,2.0972,0,85.4375,6.49597534811412,11.1618753140632,0.729963987059757,-0.0248428248794482,0.10999206494537,-0.674174449124092,-1.24,-1.8,9.55
6.0931809,180,180,0,1.8032,0,85.4375,7.01420321213708,12.1040482710887,0.729170481596777,-0.0267960690960142,0.120063480437038,-0.673319904779344,-1.36,-1.96,9.5
6.1121821,180,180,0,1.764,0,85.375,7.18768979085455,12.4646847320919,0.728926326069706,-0.0273454190319233,0.122260880180675,-0.673075749252274,-1.38,-2,9.49
6.1282488,180,180,0,1.6954,0,85.375,7.27331714414856,12.5751347496015,0.728865287187939,-0.0276506134407618,0.123481657816029,-0.672953671488738,-1.4,-2.02,9.49
6.2253047,180,180,0,1.4896,0,85.375,7.73297219122253,13.3505167442979,0.728132820606726,-0.0291765854849539,0.13111151803699,-0.672221204907526,-1.48,-2.14,9.45
6.2487477,180,180,0,1.4504,0,85.375,7.84788595299103,13.544362242972,0.728010742843191,-0.0294817798937923,0.132759567844717,-0.672038088262223,-1.5,-2.17,9.44
6.2763202,180,180,0,1.421,0,85.375,8.01914065957904,13.7652622779912,0.72776658731612,-0.0300921687114692,0.135201123115425,-0.671793932735152,-1.53,-2.21,9.43
6.3832314,180,180,0,1.3622,0,85.375,8.25120005524549,14.2926897013234,0.727217237380211,-0.0310077519379845,0.140206311420375,-0.671305621681011,-1.59,-2.28,9.4
6.401181,180,180,0,1.372,0,85.375,8.28048646371998,14.376085182488,0.727156198498443,-0.0311908685832876,0.140877739119819,-0.671183543917475,-1.59,-2.29,9.39
6.4171631,180,180,0,1.372,0,85.375,8.3368274085395,14.403139718833,0.727156198498443,-0.0312519074650552,0.14112189464689,-0.671183543917475,-1.6,-2.3,9.39
6.513339,180,180,0,1.47,0,85.375,8.28048646371998,14.376085182488,0.727156198498443,-0.0310077519379845,0.140633583592749,-0.671244582799243,-1.59,-2.29,9.4
6.5322202,180,180,0,1.5092,0,85.375,8.25120005524549,14.2926897013234,0.727278276261979,-0.0309467130562168,0.140084233656839,-0.671305621681011,-1.59,-2.28,9.4
6.5486306,180,180,0,1.5386,0,85.375,8.27825459159052,14.2363487565039,0.727278276261979,-0.0309467130562168,0.139779039248001,-0.671305621681011,-1.58,-2.27,9.4
6.6592088,180,180,0,1.8326,0,85.375,7.93351330628503,13.6548122604816,0.727888665079656,-0.0297259354208631,0.134102423243606,-0.67185497161692,-1.52,-2.19,9.43
6.6784848,180,180,0,1.8718,0,85.375,7.84788595299103,13.544362242972,0.728010742843191,-0.0294817798937923,0.132881645608252,-0.671977049380455,-1.5,-2.16,9.44
6.6982253,180,180,0,1.9404,0,85.375,7.76225859969702,13.4339122254625,0.728193859488494,-0.0292986632484893,0.131477751327596,-0.672099127143991,-1.49,-2.15,9.45
6.7932714,180,180,0,2.254,0,85.375,7.30260355262305,12.658530230766,0.728865287187939,-0.0275895745589941,0.124153085515473,-0.672831593725203,-1.41,-2.03,9.48
6.8122955,180,180,0,2.2932,0,85.375,7.27331714414856,12.5751347496015,0.728926326069706,-0.027406457913691,0.123420618934261,-0.672892632606971,-1.4,-2.02,9.49
6.8272567,180,180,0,2.3324,0,85.375,7.18768979085455,12.4646847320919,0.728987364951474,-0.027223341268388,0.122627113471281,-0.672953671488738,-1.37,-1.97,9.5
6.8422593,180,180,0,2.4108,0,85.375,7.12911697390557,12.2978937697628,0.729231520478545,-0.0265519135689434,0.120002441555271,-0.673197827015809,-1.36,-1.96,9.51
6.9393633,180,180,0,2.7342,0,85.375,6.55678003719257,11.4684027023763,0.729902948177989,-0.0248428248794482,0.112677775743148,-0.673869254715254,-1.27,-1.82,9.55
6.971467,180,180,0,2.8126,0,85.375,6.41257986694958,11.1911617225377,0.73014710370506,-0.024110358298236,0.109869987181835,-0.674113410242324,-1.25,-1.79,9.55
7.0745322,180,180,0,3.1458,0,85.4375,5.83801105810711,10.2219342291672,0.730757492522737,-0.0220350363181347,0.100592077153147,-0.674906915705304,-1.14,-1.64,9.59
7.1043244,180,180,0,3.2144,0,85.4375,5.60818353457012,9.83424323181894,0.731001648049808,-0.0211194530916194,0.0969297442470854,-0.675212110114143,-1.1,-1.58,9.61
7.1203137,180,180,0,3.2732,0,85.4375,5.57889712609563,9.7508477506544,0.731001648049808,-0.0208752975645486,0.0959531221388024,-0.675334187877678,-1.09,-1.56,9.61
7.2223219,180,180,0,3.4692,0,85.4375,4.97727378090814,8.83796120210337,0.731673075749252,-0.0186778978209119,0.0868583287554172,-0.675944576695355,-0.99,-1.41,9.65
7.2455664,180,180,0,3.5084,0,85.4375,4.86236001913964,8.64411570342926,0.731795153512788,-0.0180675090032351,0.0847219678935482,-0.676127693340658,-0.97,-1.38,9.65
7.3552918,180,180,0,3.5966,0,85.4375,4.48833232535967,7.9791837262424,0.732161386803394,-0.0164804980772752,0.0784349630714765,-0.676493926631264,-0.9,-1.27,9.68
7.3733522,180,180,0,3.6064,0,85.4375,4.43199138054015,7.95212918989737,0.732222425685161,-0.0162973814319722,0.077763535372032,-0.676554965513032,-0.9,-1.26,9.68
7.3901229,180,180,0,3.6064,0,85.4375,4.40270497206566,7.86873370873283,0.732222425685161,-0.0161753036684368,0.0773973020814259,-0.676554965513032,-0.89,-1.25,9.68
7.4881632,180,180,0,3.5672,0,85.4375,4.26073667395214,7.73122915487824,0.732283464566929,-0.0155038759689922,0.0759323689190014,-0.676677043276567,-0.88,-1.23,9.68
7.5073452,180,180,0,3.5378,0,85.4375,4.29002308242663,7.81462463604278,0.732283464566929,-0.0155038759689922,0.0761765244460721,-0.676677043276567,-0.88,-1.23,9.68
7.5232563,180,180,0,3.5182,0,85.4375,4.29002308242663,7.81462463604278,0.732222425685161,-0.0155038759689922,0.0764206799731429,-0.6766160043948,-0.89,-1.23,9.68
7.6191721,180,180,0,3.3614,0,85.4375,4.43422325266962,8.09186561588143,0.732039309039858,-0.0158090703778307,0.0797778184703656,-0.676493926631264,-0.93,-1.28,9.67
7.6382571,180,180,0,3.3026,0,85.4375,4.43645512479908,8.23160204186548,0.731978270158091,-0.0159921870231337,0.0807544405786486,-0.676432887749496,-0.94,-1.3,9.67
7.6532584,180,180,0,3.2732,0,85.4375,4.52208247809309,8.34205205937505,0.731917231276323,-0.0160532259049014,0.0813037905145578,-0.676371848867729,-0.95,-1.3,9.67
7.7502389,180,180,0,3.0184,0,85.4375,4.89611017187306,9.00698403656192,0.731489959103949,-0.0170908868949521,0.0878349508637002,-0.676005615577123,-1.03,-1.41,9.64
7.769786,180,180,0,2.9792,0,85.4375,4.92539658034755,9.09037951772646,0.731428920222182,-0.0173960813037905,0.0892998840261246,-0.675944576695355,-1.05,-1.43,9.64
7.7974173,180,180,0,2.8714,0,85.4375,5.04031034211604,9.28422501640057,0.731306842458646,-0.0176402368308613,0.0907037783067814,-0.67582249893182,-1.07,-1.46,9.63
7.8983041,180,180,0,2.5578,0,85.4375,5.47291085284499,10.1159479559165,0.730757492522737,-0.0193493255203565,0.0994933772813282,-0.675151071232375,-1.16,-1.59,9.6
7.917204,180,180,0,2.4794,0,85.4375,5.58782461461349,10.3097934545906,0.730635414759202,-0.0196545199291949,0.101202465970823,-0.67502899346884,-1.18,-1.62,9.59
7.9346972,180,180,0,2.4402,0,85.4375,5.64639743156247,10.4765844169197,0.730574375877434,-0.019837636574498,0.101995971433803,-0.674967954587072,-1.19,-1.63,9.59
8.0492915,180,180,0,2.0678,0,85.4375,6.30659359369894,11.5562619277998,0.729719831532686,-0.0220960751999023,0.112494659097845,-0.674174449124092,-1.31,-1.8,9.54
8.0683551,180,180,0,2.0286,0,85.4375,6.36516641064792,11.7230528901289,0.729597753769151,-0.0224623084905085,0.114203747787341,-0.673991332478789,-1.33,-1.83,9.54
8.0842036,180,180,0,1.9992,0,85.4375,6.45079376394193,11.8335029076385,0.729536714887383,-0.0226454251358115,0.115058292132088,-0.673930293597021,-1.34,-1.84,9.53
8.182373,180,180,0,1.7346,0,85.4375,6.99607616430991,12.7193349198445,0.728743209424403,-0.0244765915888421,0.12396996887017,-0.673136788134041,-1.44,-1.98,9.49
8.2014987,180,180,0,1.7052,0,85.4375,7.05464898125889,12.8861258821735,0.7285600927791,-0.0249038637612159,0.125740096441433,-0.672953671488738,-1.46,-2.01,9.48
8.2223209,180,180,0,1.6562,0,85.4375,7.16956274302738,13.0799713808477,0.728438015015565,-0.025270097051822,0.127266068485625,-0.672831593725203,-1.48,-2.04,9.47
8.3182319,180,180,0,1.519,0,85.4375,7.54359043680735,13.7449033580345,0.72776658731612,-0.0267350302142465,0.133736189953,-0.672221204907526,-1.55,-2.14,9.44
8.337286,180,180,0,1.5092,0,85.4375,7.62921779010136,13.8553533755441,0.727705548434353,-0.0270402246230849,0.134773850943051,-0.672099127143991,-1.56,-2.16,9.43
8.3543234,180,180,0,1.4896,0,85.4375,7.68555873492087,13.8824079118891,0.727644509552585,-0.027223341268388,0.135201123115425,-0.672038088262223,-1.57,-2.16,9.43
8.4503101,180,180,0,1.4896,0,85.4375,7.82975890516386,14.1596488917278,0.727400354025514,-0.0278337300860648,0.137764756149667,-0.671793932735152,-1.59,-2.21,9.41
8.469316,180,180,0,1.4896,0,85.4375,7.88609984998337,14.1867034280728,0.727400354025514,-0.0280778856131356,0.138008911676738,-0.671732893853385,-1.59,-2.21,9.41
8.485461,180,180,0,1.5092,0,85.4375,7.88609984998337,14.1867034280728,0.727400354025514,-0.0281999633766709,0.13794787279497,-0.671732893853385,-1.59,-2.21,9.41
8.5982093,180,180,0,1.666,0,85.375,7.79824062455991,13.9365169845792,0.727644509552585,-0.0282610022584386,0.135994628578404,-0.67185497161692,-1.56,-2.19,9.42
8.6192087,180,180,0,1.7052,0,85.375,7.76895421608542,13.8531215034146,0.727705548434353,-0.0282610022584386,0.135201123115425,-0.671916010498688,-1.55,-2.18,9.43
8.6342566,180,180,0,1.7346,0,85.375,7.73966780761093,13.7697260222501,0.727888665079656,-0.0281389244949033,0.133797228834768,-0.672038088262223,-1.53,-2.16,9.44
8.7363036,180,180,0,1.9796,0,85.375,7.47832200346998,13.1589031177533,0.728499053897333,-0.0274674967954587,0.128120612830373,-0.672526399316364,-1.46,-2.08,9.47
8.7563877,180,180,0,2.0482,0,85.375,7.41974918652101,12.9921121554242,0.7285600927791,-0.027406457913691,0.127388146249161,-0.672587438198132,-1.45,-2.07,9.47
8.7744885,180,180,0,2.1168,0,85.375,7.39046277804652,12.9087166742596,0.728743209424403,-0.0271623023866203,0.125251785387292,-0.672770554843435,-1.43,-2.04,9.48
8.8723507,180,180,0,2.3912,0,85.375,7.01643508426654,12.2437846970728,0.729231520478545,-0.0263077580418727,0.120124519318806,-0.673197827015809,-1.35,-1.93,9.51
8.8903645,180,180,0,2.4304,0,85.375,6.87223491402356,11.9665437172341,0.729475676005616,-0.0259415247512666,0.117744002929866,-0.67344198254288,-1.34,-1.92,9.52
8.9073456,180,180,0,2.5088,0,85.375,6.84294850554907,11.8831482360696,0.729597753769151,-0.0256973692241958,0.116095953122139,-0.673564060306415,-1.32,-1.9,9.52
9.0053118,180,180,0,2.7832,0,85.4375,6.43963440329461,11.1348207777182,0.729902948177989,-0.0243545138253067,0.109625831654764,-0.674357565769395,-1.23,-1.78,9.56
9.0252825,180,180,0,2.8224,0,85.4375,6.32472064152612,10.9409752790441,0.73014710370506,-0.0241713971800037,0.107794665201734,-0.674418604651163,-1.21,-1.75,9.57
9.0413953,180,180,0,2.9008,0,85.4375,6.26614782457714,10.774184316715,0.730208142586828,-0.0239272416529329,0.106085576512238,-0.674601721296466,-1.2,-1.74,9.57
9.140391,180,180,0,3.136,0,85.4375,5.80649277750316,9.99880232201856,0.73094060916804,-0.0225233473722761,0.0985167551730452,-0.67502899346884,-1.11,-1.62,9.6
9.1593238,180,180,0,3.1654,0,85.4375,5.74791996055418,9.83201135968947,0.73094060916804,-0.0222181529634377,0.0966855887200146,-0.67527314899591,-1.09,-1.59,9.61
9.1753687,180,180,0,3.2242,0,85.4375,5.66006073513071,9.58182491619585,0.731062686931575,-0.0219129585545993,0.0947323445034487,-0.675456265641213,-1.06,-1.56,9.62
9.2722923,180,180,0,3.3908,0,85.5,5.28603304135074,8.91689293900899,0.731306842458646,-0.0207532198010132,0.0883232619178417,-0.67606665445889,-0.99,-1.46,9.64
9.2916389,180,180,0,3.4006,0,85.4375,5.20040568805673,8.80644292149942,0.731428920222182,-0.0205090642739425,0.0869193676371849,-0.676127693340658,-0.96,-1.43,9.65
9.3145931,180,180,0,3.43,0,85.4375,5.14183287110775,8.63965195917033,0.731612036867485,-0.0201428309833364,0.0846609290117805,-0.676249771104193,-0.94,-1.41,9.65
9.4133345,180,180,0,3.4888,0,85.5,4.85566440275125,8.22490642547709,0.731795153512788,-0.0192272477568211,0.0808154794604163,-0.676554965513032,-0.9,-1.34,9.67
9.4344511,180,180,0,3.4888,0,85.5,4.82637799427676,8.14151094431255,0.731795153512788,-0.0191662088750534,0.0802050906427394,-0.676554965513032,-0.89,-1.33,9.67
9.4568729,180,180,0,3.4888,0,85.5,4.79709158580227,8.05811546314801,0.731856192394555,-0.0189830922297504,0.0795336629432949,-0.6766160043948,-0.88,-1.32,9.67
9.5745383,180,180,0,3.3908,0,85.5,4.77003704945725,8.11445640796753,0.731795153512788,-0.0187999755844473,0.0800219739974364,-0.6766160043948,-0.89,-1.33,9.67
9.6045872,180,180,0,3.3614,0,85.5,4.77003704945725,8.11445640796753,0.731795153512788,-0.0187999755844473,0.0804492461698102,-0.6766160043948,-0.9,-1.33,9.67
9.6233067,180,180,0,3.3222,0,85.5,4.82860986640622,8.28124737029661,0.73173411463102,-0.018861014466215,0.0814869071598608,-0.676554965513032,-0.91,-1.35,9.66
9.7193393,180,180,0,3.1262,0,85.5,5.0020964451237,8.6418838312998,0.731428920222182,-0.0192272477568211,0.0850882011841543,-0.676371848867729,-0.96,-1.4,9.65
9.7383556,180,180,0,3.0968,0,85.5,5.06066926207268,8.80867479362888,0.731306842458646,-0.0193493255203565,0.0867362509918818,-0.676310809985961,-0.98,-1.42,9.65
9.7545374,180,180,0,3.038,0,85.5,5.08995567054717,8.89207027479342,0.731306842458646,-0.0194103644021242,0.0873466398095587,-0.676249771104193,-0.99,-1.43,9.64
9.8693561,180,180,0,2.744,0,85.5,5.4662152364566,9.69673867796434,0.730696453640969,-0.0204480253921748,0.0950985777940548,-0.67582249893182,-1.09,-1.55,9.62
9.8884559,180,180,0,2.6754,0,85.5,5.52478805340558,9.86352964029343,0.730574375877434,-0.0206311420374779,0.0965635109564793,-0.675700421168284,-1.11,-1.57,9.61
9.9087403,180,180,0,2.6362,0,85.5,5.6667563515191,10.001034194148,0.730452298113899,-0.0208752975645486,0.0980894830006714,-0.675639382286517,-1.12,-1.59,9.6
10.0263558,180,180,0,2.2932,0,85.5,6.12864327072254,10.9161526148285,0.729780870414454,-0.0222181529634377,0.106818043093451,-0.67502899346884,-1.23,-1.73,9.57
10.0467094,180,180,0,2.2246,0,85.5,6.18721608767152,11.0829435771576,0.729597753769151,-0.0224623084905085,0.108466092901178,-0.674906915705304,-1.25,-1.75,9.56
10.0766859,180,180,0,2.156,0,85.5,6.30212984944002,11.2767890758317,0.729414637123848,-0.0228285417811146,0.111029725935421,-0.674723799060001,-1.28,-1.79,9.55
10.1813263,180,180,0,1.9012,0,85.5,6.73473036016897,12.1085120153476,0.728743209424403,-0.0239882805347006,0.118415430629311,-0.674174449124092,-1.37,-1.9,9.52
10.19931,180,180,0,1.8718,0,85.5,6.79330317711795,12.2753029776767,0.7285600927791,-0.024110358298236,0.120063480437038,-0.673991332478789,-1.39,-1.93,9.51
10.2153569,180,180,0,1.8228,0,85.5,6.90821693888644,12.4691484763508,0.728438015015565,-0.0243545138253067,0.121650491362998,-0.673869254715254,-1.41,-1.95,9.5
10.2304098,180,180,0,1.8032,0,85.5,6.93750334736093,12.5525439575154,0.728376976133797,-0.0244765915888421,0.122443996825978,-0.673808215833486,-1.42,-1.96,9.5
10.3273805,180,180,0,1.6562,0,85.5,7.25519009632139,13.1904213983572,0.72776658731612,-0.0253921748153574,0.128547885002747,-0.673258865897577,-1.49,-2.05,9.46
10.3454456,180,180,0,1.6268,0,85.5,7.31376291327036,13.3572123606863,0.727644509552585,-0.0255142525788928,0.1297686626381,-0.673197827015809,-1.51,-2.07,9.46
10.3623581,180,180,0,1.617,0,85.5,7.31376291327036,13.3572123606863,0.727583470670817,-0.0255752914606604,0.13031801257401,-0.673136788134041,-1.52,-2.09,9.45
10.4583517,180,180,0,1.5876,0,85.5,7.48724949198784,13.7178488216895,0.727278276261979,-0.0261856802783373,0.133369956662394,-0.672831593725203,-1.55,-2.13,9.44
10.4783538,180,180,0,1.5876,0,85.5,7.54359043680735,13.7449033580345,0.727217237380211,-0.026246719160105,0.133919306598303,-0.672770554843435,-1.56,-2.14,9.44
10.4976712,180,180,0,1.5974,0,85.5,7.51653590046233,13.801244302854,0.727217237380211,-0.0263077580418727,0.134224501007142,-0.672709515961668,-1.56,-2.14,9.43
10.6104083,180,180,0,1.6954,0,85.5,7.48724949198784,13.7178488216895,0.727339315143747,-0.0261246413965696,0.133186840017091,-0.672831593725203,-1.55,-2.12,9.44
10.6294126,180,180,0,1.7346,0,85.5,7.45796308351335,13.634453340525,0.727400354025514,-0.0260025636330342,0.132759567844717,-0.672831593725203,-1.55,-2.12,9.44
10.6467267,180,180,0,1.7542,0,85.5,7.42867667503886,13.5510578593604,0.727461392907282,-0.0259415247512666,0.132088140145273,-0.672892632606971,-1.54,-2.11,9.45
10.7574365,180,180,0,2.009,0,85.5,7.16956274302738,13.0799713808477,0.727949703961423,-0.0251480192882866,0.127205029603858,-0.673319904779344,-1.48,-2.03,9.47
10.7764154,180,180,0,2.0384,0,85.5,7.1109899260784,12.9131804185186,0.728071781724959,-0.0250259415247513,0.126045290850272,-0.67344198254288,-1.46,-2.02,9.48
10.7912738,180,180,0,2.0678,0,85.5,7.0253625727844,12.802730401009,0.728193859488494,-0.0249038637612159,0.124885552096686,-0.673503021424647,-1.45,-2,9.48
10.8874044,180,180,0,2.3128,0,85.5,6.73696223229843,12.2482484413317,0.728682170542636,-0.0238051638893975,0.119514130501129,-0.674052371360557,-1.39,-1.92,9.51
10.9073588,180,180,0,2.3814,0,85.5,6.67838941534945,12.0814574790026,0.728743209424403,-0.0236830861258622,0.118110236220472,-0.67423548800586,-1.37,-1.9,9.52
10.9234115,180,180,0,2.4108,0,85.5,6.59276206205545,11.9710074614931,0.728804248306171,-0.0235610083623268,0.116828419703351,-0.674357565769395,-1.35,-1.88,9.52
11.01945,180,180,0,2.6656,0,85.5625,6.24802077674996,11.3894709654707,0.729109442715009,-0.0223402307269731,0.110236220472441,-0.675151071232375,-1.28,-1.77,9.55
11.0383245,180,180,0,2.7244,0,85.5625,6.18944795980098,11.2226800031416,0.729170481596777,-0.0222181529634377,0.109442715009461,-0.67527314899591,-1.26,-1.75,9.56
11.0542993,180,180,0,2.7636,0,85.5625,6.1601615513265,11.1392845219771,0.729231520478545,-0.02215711408167,0.108771287310016,-0.675334187877678,-1.25,-1.74,9.56
11.0694229,180,180,0,2.793,0,85.5625,6.10158873437752,10.972493559648,0.729475676005616,-0.0220350363181347,0.106207654275774,-0.675456265641213,-1.22,-1.72,9.57
11.1654358,180,180,0,3.0184,0,85.5625,5.72532916846808,10.1678251564771,0.729780870414454,-0.0209363364463163,0.0998596105719343,-0.67606665445889,-1.15,-1.62,9.6
11.1843937,180,180,0,3.0772,0,85.5625,5.63970181517408,10.0573751389675,0.729963987059757,-0.0207532198010132,0.0983946774095099,-0.676127693340658,-1.13,-1.6,9.6
11.2002821,180,180,0,3.0968,0,85.5625,5.61041540669959,9.973979657803,0.729963987059757,-0.0206921809192456,0.0976622108282976,-0.676249771104193,-1.12,-1.59,9.61
11.2984926,180,180,0,3.2634,0,85.5625,5.23638771291961,9.30904768061613,0.730452298113899,-0.0195324421656595,0.0911310504791552,-0.6766160043948,-1.04,-1.48,9.63
11.3185135,180,180,0,3.2928,0,85.5625,5.23415584079015,9.16931125463207,0.730574375877434,-0.0194714032838918,0.0900933894891046,-0.676677043276567,-1.02,-1.46,9.64
11.3355149,180,180,0,3.3026,0,85.5625,5.14852848749615,9.0588612371225,0.730696453640969,-0.0193493255203565,0.0889946896172862,-0.676738082158335,-1.01,-1.45,9.64
11.4324273,180,180,0,3.3712,0,85.5625,4.91870096395916,8.67117023977429,0.730879570286272,-0.0186168589391442,0.085149240065922,-0.677043276567173,-0.97,-1.39,9.65
11.4524091,180,180,0,3.381,0,85.5625,4.94575550030418,8.61482929495477,0.730879570286272,-0.0186778978209119,0.0846609290117805,-0.677043276567173,-0.96,-1.39,9.65
11.4684608,180,180,0,3.381,0,85.5625,4.88941455548467,8.58777475860975,0.73094060916804,-0.0186168589391442,0.084172617957639,-0.677104315448941,-0.95,-1.38,9.66
11.5663669,180,180,0,3.332,0,85.5625,4.8871826833552,8.44803833262569,0.73094060916804,-0.0187389367026796,0.0835011902581945,-0.677104315448941,-0.94,-1.37,9.66
11.5899544,180,180,0,3.3222,0,85.5625,4.94352362817472,8.47509286897072,0.73094060916804,-0.0189220533479827,0.0836843069034975,-0.677104315448941,-0.94,-1.38,9.66
11.6167449,180,180,0,3.2928,0,85.5625,4.94352362817472,8.47509286897072,0.73094060916804,-0.019044131111518,0.083989501312336,-0.677104315448941,-0.95,-1.38,9.66
11.7233536,180,180,0,3.1164,0,85.5625,5.17335115171171,8.86278386631893,0.730696453640969,-0.0198986754562656,0.087285600927791,-0.676921198803638,-0.98,-1.44,9.64
11.7423031,180,180,0,3.0968,0,85.5625,5.17335115171171,8.86278386631893,0.730635414759202,-0.0199597143380333,0.0877128731001648,-0.67686015992187,-0.99,-1.45,9.64
11.7583825,180,180,0,3.0674,0,85.5625,5.25897850500571,8.9732338838285,0.730574375877434,-0.0200817921015687,0.0885674174449124,-0.676799121040103,-1,-1.47,9.64
11.8605026,180,180,0,2.8224,0,85.5625,5.54737884549168,9.5277158435058,0.730208142586828,-0.0213025697369224,0.0939998779222365,-0.676493926631264,-1.06,-1.55,9.62
11.8804987,180,180,0,2.7636,0,85.5625,5.66229260726017,9.72156134217991,0.73014710370506,-0.0216077641457608,0.0957089666117317,-0.676310809985961,-1.08,-1.57,9.61
11.8972999,180,180,0,2.7342,0,85.5625,5.69157901573466,9.80495682334445,0.730086064823292,-0.0217298419092962,0.0963193554294085,-0.676310809985961,-1.09,-1.58,9.61
11.9943939,180,180,0,2.4794,0,85.5625,6.00926576469512,10.4428342641863,0.729597753769151,-0.0230116584264176,0.102667399133248,-0.67582249893182,-1.16,-1.69,9.58
12.0135634,180,180,0,2.4304,0,85.5625,6.06560670951464,10.4698888005313,0.729536714887383,-0.023133736189953,0.103338826832692,-0.675761460050052,-1.17,-1.7,9.58
12.0306232,180,180,0,2.401,0,85.5625,6.18052047128313,10.6637342992054,0.729475676005616,-0.0235610083623268,0.105169993285723,-0.675578343404749,-1.19,-1.73,9.57
12.1275148,180,180,0,2.156,0,85.5625,6.5545481650631,11.3286662763923,0.728926326069706,-0.0247207471159128,0.111395959226027,-0.675090032350607,-1.26,-1.82,9.55
12.1495534,180,180,0,2.107,0,85.5625,6.61312098201208,11.4954572387214,0.728804248306171,-0.0249649026429836,0.112799853506684,-0.67502899346884,-1.28,-1.86,9.54
12.1664472,180,180,0,2.0776,0,85.5625,6.69874833530609,11.6059072562309,0.728682170542636,-0.0252090581700543,0.114020631142037,-0.674906915705304,-1.29,-1.86,9.53
12.2645181,180,180,0,1.9012,0,85.5625,7.01643508426654,12.2437846970728,0.728132820606726,-0.026246719160105,0.120063480437038,-0.674418604651163,-1.36,-1.96,9.51
12.2834661,180,180,0,1.8522,0,85.5625,7.10206243756055,12.3542347145823,0.728010742843191,-0.0265519135689434,0.121467374717695,-0.674296526887627,-1.38,-1.98,9.5
12.3004657,180,180,0,1.8326,0,85.5625,7.18768979085455,12.4646847320919,0.727888665079656,-0.0267960690960142,0.122505035707746,-0.67423548800586,-1.39,-2,9.49
12.4016264,180,180,0,1.715,0,85.5625,7.41974918652101,12.9921121554242,0.727400354025514,-0.0275285356772264,0.127205029603858,-0.673808215833486,-1.45,-2.07,9.47
12.4214691,180,180,0,1.7052,0,85.5625,7.44903559499549,13.0755076365887,0.727339315143747,-0.0275895745589941,0.127998535066838,-0.673747176951718,-1.46,-2.08,9.47
12.4383719,180,180,0,1.6954,0,85.5625,7.50537653981501,13.1025621729338,0.727278276261979,-0.0277726912042971,0.128608923884514,-0.673686138069951,-1.46,-2.09,9.46
12.5334201,180,180,0,1.6954,0,85.5625,7.62029030158351,13.2964076716079,0.727095159616676,-0.0279558078496002,0.130256973692242,-0.673564060306415,-1.48,-2.11,9.45
12.5544544,180,180,0,1.7052,0,85.5625,7.62029030158351,13.2964076716079,0.727095159616676,-0.0280168467313679,0.130440090337545,-0.673564060306415,-1.49,-2.12,9.45
12.571601,180,180,0,1.715,0,85.5625,7.62029030158351,13.2964076716079,0.727095159616676,-0.0280168467313679,0.130501129219313,-0.673564060306415,-1.49,-2.12,9.45
12.6684668,180,180,0,1.8228,0,85.625,7.47832200346998,13.1589031177533,0.727217237380211,-0.027406457913691,0.129219312702191,-0.673686138069951,-1.48,-2.09,9.46
12.6887542,180,180,0,1.8424,0,85.625,7.47832200346998,13.1589031177533,0.727278276261979,-0.0272843801501556,0.128669962766282,-0.673747176951718,-1.47,-2.08,9.46
12.7066253,180,180,0,1.8816,0,85.5625,7.42198105865047,13.1318485814082,0.727278276261979,-0.027223341268388,0.128364768357444,-0.673747176951718,-1.46,-2.07,9.47
12.8285712,180,180,0,2.1168,0,85.625,7.07723977334499,12.5503120853859,0.727827626197888,-0.0258804858694989,0.122871268998352,-0.674296526887627,-1.41,-1.99,9.49
12.8477642,180,180,0,2.1658,0,85.625,7.0479533648705,12.4669166042214,0.727888665079656,-0.0257584081059635,0.121955685771837,-0.674357565769395,-1.4,-1.98,9.5
12.8754568,180,180,0,2.2246,0,85.625,6.96232601157649,12.3564665867118,0.728010742843191,-0.0254532136971251,0.120856985900018,-0.67447964353293,-1.38,-1.95,9.51
12.9735707,180,180,0,2.45,0,85.625,6.61758472627101,11.7749300906895,0.728499053897333,-0.0239882805347006,0.115363486540927,-0.674967954587072,-1.33,-1.86,9.53
12.9924993,180,180,0,2.5088,0,85.625,6.531957372977,11.6644800731799,0.7285600927791,-0.0237441250076299,0.114203747787341,-0.675090032350607,-1.31,-1.85,9.53
13.0084764,180,180,0,2.5382,0,85.625,6.446330019683,11.5540300556703,0.728621131660868,-0.0233778917170237,0.113044009033755,-0.675212110114143,-1.3,-1.83,9.54
13.1084779,180,180,0,2.7538,0,85.625,6.045247789558,10.945439023303,0.729109442715009,-0.0217908807910639,0.106818043093451,-0.675761460050052,-1.23,-1.72,9.57
13.1294886,180,180,0,2.8126,0,85.625,5.98667497260902,10.7786480609739,0.729170481596777,-0.0214246475004578,0.105536226576329,-0.675883537813587,-1.22,-1.7,9.57
13.1466656,180,180,0,2.842,0,85.625,5.93033402778951,10.7515935246289,0.729231520478545,-0.0212415308551547,0.104925837758652,-0.675944576695355,-1.21,-1.69,9.58
13.2505502,180,180,0,3.0576,0,85.625,5.55630633400953,10.086661547442,0.729597753769151,-0.0197765976927303,0.0988829884636513,-0.676493926631264,-1.15,-1.59,9.6
13.2785311,180,180,0,3.0968,0,85.625,5.38505162742152,9.86576151242289,0.729780870414454,-0.0192272477568211,0.0963803943111762,-0.676677043276567,-1.12,-1.55,9.61
13.2945401,180,180,0,3.1262,0,85.625,5.35576521894703,9.78236603125835,0.729780870414454,-0.019044131111518,0.095831044375267,-0.676738082158335,-1.11,-1.54,9.61
13.3986438,180,180,0,3.234,0,85.625,5.09665128693556,9.31127955274559,0.73014710370506,-0.0180675090032351,0.0909479338338522,-0.677043276567173,-1.05,-1.45,9.63
13.4186882,180,180,0,3.2536,0,85.625,5.01102393364155,9.20082953523602,0.730208142586828,-0.0177012757126289,0.0897271561984984,-0.677165354330709,-1.05,-1.44,9.64
13.4353518,180,180,0,3.2634,0,85.625,4.95468298882204,9.173774998891,0.730269181468596,-0.0175791979490936,0.0894830006714277,-0.677165354330709,-1.04,-1.43,9.64
13.5305066,180,180,0,3.283,0,85.6875,4.86682376339857,8.92358855539737,0.730330220350363,-0.0170908868949521,0.0874076786913264,-0.677409509857779,-1.02,-1.4,9.65
13.5516738,180,180,0,3.2732,0,85.6875,4.86682376339857,8.92358855539737,0.730330220350363,-0.0170908868949521,0.0872245620460233,-0.677409509857779,-1.02,-1.39,9.65
13.5685941,180,180,0,3.2634,0,85.6875,4.81048281857905,8.89653401905235,0.730330220350363,-0.016907770249649,0.0870414454007203,-0.677409509857779,-1.02,-1.39,9.65
13.6676629,180,180,0,3.1948,0,85.6875,4.83976922705354,8.97992950021689,0.730269181468596,-0.0170908868949521,0.0875297564548617,-0.677348470976012,-1.02,-1.4,9.65
13.6866934,180,180,0,3.1654,0,85.6875,4.89611017187306,9.00698403656192,0.730269181468596,-0.0171519257767198,0.0878959897454679,-0.677348470976012,-1.03,-1.41,9.64
13.718665,180,180,0,3.1164,0,85.6875,4.92539658034755,9.09037951772646,0.730208142586828,-0.0172740035402551,0.0886894952084478,-0.677287432094244,-1.04,-1.42,9.64
13.8174186,180,180,0,2.9498,0,85.6875,5.15522410388454,9.47807051507468,0.729963987059757,-0.0181895867667704,0.0927180614051151,-0.677043276567173,-1.08,-1.49,9.63
13.8375816,180,180,0,2.9302,0,85.6875,5.18451051235903,9.56146599623922,0.729902948177989,-0.0183727034120735,0.0936336446316303,-0.676982237685406,-1.09,-1.5,9.62
13.8537032,180,180,0,2.8812,0,85.6875,5.27013786565303,9.67191601374878,0.729841909296222,-0.0184947811756089,0.0941219556857718,-0.676921198803638,-1.1,-1.51,9.62
13.9504254,180,180,0,2.6656,0,85.6875,5.58559274248402,10.1700570286066,0.729475676005616,-0.0196545199291949,0.0993102606360251,-0.676554965513032,-1.15,-1.59,9.6
13.9685487,180,180,0,2.6362,0,85.6875,5.61487915095851,10.2534525097711,0.729414637123848,-0.0199597143380333,0.100347921626076,-0.676493926631264,-1.17,-1.61,9.6
13.9866618,180,180,0,2.5872,0,85.6875,5.644165559433,10.3368479909356,0.729292559360313,-0.0202649087468718,0.101446621497894,-0.676432887749496,-1.18,-1.63,9.59
14.0864142,180,180,0,2.3716,0,85.625,6.01596138108351,10.8620435421385,0.728926326069706,-0.0216688030275285,0.106879081975218,-0.675944576695355,-1.24,-1.72,9.57
14.1058223,180,180,0,2.3226,0,85.625,6.10158873437752,10.972493559648,0.728865287187939,-0.021973997436367,0.108099859610572,-0.67582249893182,-1.25,-1.74,9.56
14.1226557,180,180,0,2.2932,0,85.625,6.1601615513265,11.1392845219771,0.728804248306171,-0.02215711408167,0.108710248428249,-0.675761460050052,-1.26,-1.76,9.56
14.2194528,180,180,0,2.0972,0,85.625,6.531957372977,11.6644800731799,0.72831593725203,-0.0236220472440945,0.114447903314411,-0.67527314899591,-1.32,-1.85,9.53
14.2387988,180,180,0,2.058,0,85.625,6.61758472627101,11.7749300906895,0.728193859488494,-0.0239272416529329,0.115485564304462,-0.675212110114143,-1.33,-1.87,9.53
14.255621,180,180,0,2.0384,0,85.625,6.67615754321999,11.9417210530186,0.728132820606726,-0.0242324360617713,0.11658426417628,-0.675090032350607,-1.34,-1.88,9.52
14.3538322,180,180,0,1.8914,0,85.625,6.96232601157649,12.3564665867118,0.727644509552585,-0.0253921748153574,0.121528413599463,-0.674662760178234,-1.39,-1.97,9.5
14.374832,180,180,0,1.862,0,85.625,7.0479533648705,12.4669166042214,0.727583470670817,-0.0256363303424281,0.122443996825978,-0.674601721296466,-1.4,-1.98,9.49
14.3917499,180,180,0,1.8522,0,85.625,7.07723977334499,12.5503120853859,0.727583470670817,-0.0258194469877312,0.122871268998352,-0.674540682414698,-1.41,-2,9.49
14.4886176,180,180,0,1.7836,0,85.625,7.334121833227,12.8816621379146,0.727278276261979,-0.0267350302142465,0.126106329732039,-0.67423548800586,-1.44,-2.04,9.48
14.5078161,180,180,0,1.7836,0,85.625,7.334121833227,12.8816621379146,0.727217237380211,-0.0269181468595495,0.126533601904413,-0.674174449124092,-1.44,-2.05,9.47
14.5245245,180,180,0,1.7836,0,85.625,7.36340824170149,12.9650576190792,0.727156198498443,-0.0270402246230849,0.126899835195019,-0.674174449124092,-1.45,-2.06,9.47
14.6205547,180,180,0,1.8032,0,85.625,7.41974918652101,12.9921121554242,0.727095159616676,-0.0272843801501556,0.127510224012696,-0.674113410242324,-1.45,-2.07,9.47
14.6404996,180,180,0,1.8228,0,85.625,7.41974918652101,12.9921121554242,0.727156198498443,-0.0273454190319233,0.127327107367393,-0.674113410242324,-1.45,-2.07,9.47
14.6575998,180,180,0,1.8326,0,85.625,7.41974918652101,12.9921121554242,0.727156198498443,-0.027406457913691,0.12714399072209,-0.674113410242324,-1.45,-2.07,9.47
14.7545746,180,180,0,1.9502,0,85.625,7.33188996109754,12.7419257119306,0.727400354025514,-0.0271012635048526,0.124946590978453,-0.674296526887627,-1.42,-2.03,9.48
14.7749704,180,180,0,1.9894,0,85.625,7.30260355262305,12.658530230766,0.727461392907282,-0.0270402246230849,0.124336202160776,-0.674357565769395,-1.41,-2.03,9.48
14.803619,180,180,0,2.0286,0,85.625,7.21697619932904,12.5480802132565,0.72752243178905,-0.0269791857413172,0.123298541170726,-0.674418604651163,-1.4,-2.01,9.49
14.9106288,180,180,0,2.2246,0,85.625,7.01420321213708,12.1040482710887,0.727949703961423,-0.0261856802783373,0.119025819446988,-0.674784837941769,-1.34,-1.94,9.51
14.9305878,180,180,0,2.2834,0,85.625,6.92857585884308,11.9935982535792,0.728071781724959,-0.0258194469877312,0.117560886284563,-0.674906915705304,-1.33,-1.92,9.52
14.9474195,180,180,0,2.303,0,85.625,6.87223491402356,11.9665437172341,0.728071781724959,-0.0258194469877312,0.117560886284563,-0.674906915705304,-1.33,-1.91,9.52
15.0454929,180,180,0,2.5088,0,85.625,6.61312098201208,11.4954572387214,0.728499053897333,-0.0247207471159128,0.112738814624916,-0.675334187877678,-1.27,-1.83,9.54
15.0644351,180,180,0,2.548,0,85.625,6.49820722024359,11.3016117400473,0.7285600927791,-0.024293474943539,0.111151803698956,-0.675517304522981,-1.26,-1.81,9.55
15.0825409,180,180,0,2.5774,0,85.625,6.44186627542407,11.2745572037022,0.728621131660868,-0.0241713971800037,0.110724531526582,-0.675578343404749,-1.25,-1.8,9.55
15.1815564,180,180,0,2.8028,0,85.625,6.1534659349381,10.7200752440249,0.728987364951474,-0.023133736189953,0.105169993285723,-0.67606665445889,-1.19,-1.71,9.58
15.2017389,180,180,0,2.8224,0,85.625,6.12417952646361,10.6366797628604,0.729109442715009,-0.0227064640175792,0.103705060123299,-0.676188732222426,-1.18,-1.69,9.58
15.2205055,180,180,0,2.8714,0,85.6875,6.03855217316961,10.5262297453508,0.729170481596777,-0.0224623084905085,0.102728438015016,-0.676310809985961,-1.17,-1.68,9.58
15.3318895,180,180,0,3.038,0,85.6875,5.63746994304461,9.91763871298348,0.729597753769151,-0.0212415308551547,0.0974180553012269,-0.676677043276567,-1.11,-1.59,9.61
15.3576398,180,180,0,3.0772,0,85.6875,5.57889712609563,9.7508477506544,0.729658792650919,-0.0208752975645486,0.0961362387841055,-0.676799121040103,-1.09,-1.57,9.61
15.3750112,180,180,0,3.0968,0,85.6875,5.52255618127612,9.72379321430937,0.729719831532686,-0.0206921809192456,0.0954037722028932,-0.67686015992187,-1.09,-1.56,9.61
15.4720026,180,180,0,3.1752,0,85.6875,5.29272865773913,9.33610221696115,0.729963987059757,-0.0195934810474272,0.0916193615332967,-0.677104315448941,-1.05,-1.49,9.63
15.5019391,180,180,0,3.185,0,85.6875,5.23638771291961,9.30904768061613,0.729963987059757,-0.0194103644021242,0.0910700115973875,-0.677165354330709,-1.04,-1.48,9.63
15.6184923,180,180,0,3.1752,0,85.6875,5.12147395115112,9.11520218194202,0.730086064823292,-0.0187389367026796,0.0896661173167308,-0.677287432094244,-1.03,-1.45,9.64
15.6407884,180,180,0,3.1654,0,85.6875,5.09441941480609,9.17154312676153,0.730025025941525,-0.0187389367026796,0.0897271561984984,-0.677287432094244,-1.03,-1.45,9.64
15.6670087,180,180,0,3.1458,0,85.6875,5.09441941480609,9.17154312676153,0.730025025941525,-0.0186778978209119,0.0899102728438015,-0.677287432094244,-1.03,-1.46,9.64
15.7821797,180,180,0,3.0282,0,85.6875,5.18227864022956,9.42172957025516,0.729841909296222,-0.0187389367026796,0.0922907892327413,-0.677165354330709,-1.07,-1.49,9.63
15.804759,180,180,0,2.9988,0,85.6875,5.21156504870405,9.5051250514197,0.729780870414454,-0.0187999755844473,0.0928401391686504,-0.677165354330709,-1.07,-1.5,9.63
15.8206412,180,180,0,2.9596,0,85.6875,5.26790599352357,9.53217958776473,0.729780870414454,-0.0187999755844473,0.0932063724592565,-0.677104315448941,-1.08,-1.51,9.62
15.9186872,180,180,0,2.793,0,85.6875,5.47067898071553,9.97621152993246,0.729475676005616,-0.0192882866385888,0.0972959775376915,-0.67686015992187,-1.13,-1.56,9.61
15.9375326,180,180,0,2.7636,0,85.6875,5.49996538919002,10.059607011097,0.729414637123848,-0.0194103644021242,0.0982115607642068,-0.676799121040103,-1.14,-1.58,9.61
15.9535795,180,180,0,2.744,0,85.6875,5.52925179766451,10.1430024922615,0.72935359824208,-0.0195324421656595,0.0988829884636513,-0.676799121040103,-1.15,-1.59,9.6
16.0495854,180,180,0,2.548,0,85.6875,5.73202478485647,10.5870344344293,0.729048403833242,-0.0201428309833364,0.103705060123299,-0.676371848867729,-1.21,-1.66,9.58
16.0677546,180,180,0,2.499,0,85.6875,5.81765213815048,10.6974844519388,0.729109442715009,-0.0202649087468718,0.10419337117744,-0.676249771104193,-1.22,-1.67,9.58
16.0847441,180,180,0,2.4696,0,85.6875,5.84693854662497,10.7808799331034,0.728865287187939,-0.0203869865104071,0.105231032167491,-0.676310809985961,-1.23,-1.68,9.58
16.1806478,180,180,0,2.2834,0,85.6875,6.10605247863644,11.2519664116161,0.728621131660868,-0.0214246475004578,0.110175181590673,-0.675761460050052,-1.29,-1.76,9.55
16.1995682,180,180,0,2.2442,0,85.6875,6.22096624040494,11.4458119102902,0.728499053897333,-0.0216688030275285,0.111334920344259,-0.675700421168284,-1.3,-1.78,9.55
16.2180135,180,180,0,2.2148,0,85.6875,6.22096624040494,11.4458119102902,0.728438015015565,-0.0217298419092962,0.111823231398401,-0.675639382286517,-1.3,-1.79,9.55
16.3215921,180,180,0,2.0384,0,85.625,6.56570752571042,12.0273484063126,0.728071781724959,-0.0227675028993469,0.117072575230422,-0.675151071232375,-1.37,-1.87,9.52
16.3406846,180,180,0,2.009,0,85.625,6.59499393418491,12.1107438874771,0.727949703961423,-0.0230116584264176,0.118049197338705,-0.675090032350607,-1.38,-1.89,9.52
16.3566455,180,180,0,1.9894,0,85.625,6.6242803426594,12.1941393686417,0.727949703961423,-0.0230726973081853,0.118476469511079,-0.67502899346884,-1.39,-1.9,9.51
16.4556421,180,180,0,1.9012,0,85.625,6.85410786619639,12.5818303659899,0.727583470670817,-0.0238662027711652,0.122260880180675,-0.674723799060001,-1.42,-1.95,9.5
16.4756766,180,180,0,1.8816,0,85.625,6.9104488110159,12.6088849023349,0.72752243178905,-0.0240493194164683,0.123054385643655,-0.674601721296466,-1.44,-1.97,9.49
16.4915338,180,180,0,1.8718,0,85.625,6.93973521949039,12.6922803834994,0.727461392907282,-0.024110358298236,0.123420618934261,-0.674601721296466,-1.44,-1.98,9.49
16.588696,180,180,0,1.862,0,85.625,6.99830803643937,12.8590713458285,0.727339315143747,-0.0245376304706098,0.125190746505524,-0.674418604651163,-1.46,-2,9.48
16.6124912,180,180,0,1.862,0,85.625,7.05464898125889,12.8861258821735,0.727339315143747,-0.0246597082341452,0.125373863150827,-0.674418604651163,-1.46,-2,9.48
16.6313439,180,180,0,1.8718,0,85.625,7.05464898125889,12.8861258821735,0.727339315143747,-0.0247207471159128,0.125434902032595,-0.674357565769395,-1.46,-2.01,9.48
16.7496934,180,180,0,1.96,0,85.625,7.05241710912942,12.7463894561895,0.727461392907282,-0.0248428248794482,0.124336202160776,-0.67447964353293,-1.44,-1.99,9.49
16.7686894,180,180,0,1.9796,0,85.625,7.02313070065493,12.6629939750249,0.72752243178905,-0.0248428248794482,0.123603735579564,-0.67447964353293,-1.43,-1.98,9.49
16.7857598,180,180,0,1.9992,0,85.625,6.96678975583542,12.6359394386799,0.72752243178905,-0.0247817859976805,0.123298541170726,-0.674540682414698,-1.43,-1.98,9.49
16.8835911,180,180,0,2.1364,0,85.625,6.84964412193746,12.3023575140218,0.727827626197888,-0.0244765915888421,0.120246597082341,-0.674784837941769,-1.39,-1.94,9.51
16.9026713,180,180,0,2.1756,0,85.625,6.84964412193746,12.3023575140218,0.727888665079656,-0.0244765915888421,0.119880363791735,-0.674784837941769,-1.38,-1.93,9.51
16.9176076,180,180,0,2.1952,0,85.625,6.76401676864346,12.1919074965122,0.727949703961423,-0.0243545138253067,0.119025819446988,-0.674845876823537,-1.37,-1.91,9.51
17.013585,180,180,0,2.3716,0,85.625,6.56124378145149,11.7478755543445,0.728376976133797,-0.0237441250076299,0.114814136605017,-0.675212110114143,-1.31,-1.85,9.53
17.0325247,180,180,0,2.4206,0,85.625,6.531957372977,11.6644800731799,0.728438015015565,-0.0236220472440945,0.113898553378502,-0.67527314899591,-1.31,-1.84,9.54
17.0521602,180,180,0,2.4402,0,85.625,6.50267096450251,11.5810845920154,0.728499053897333,-0.0235610083623268,0.113410242324361,-0.67527314899591,-1.3,-1.83,9.54
17.1697239,180,180,0,2.6656,0,85.625,6.21427062401655,11.0266026323381,0.728865287187939,-0.0226454251358115,0.107428431911127,-0.675883537813587,-1.23,-1.74,9.57
17.190767,180,180,0,2.7146,0,85.625,6.12864327072254,10.9161526148285,0.728926326069706,-0.0226454251358115,0.106207654275774,-0.676005615577123,-1.21,-1.73,9.57
17.212429,180,180,0,2.7636,0,85.6875,6.09712499011859,10.6930207076799,0.728987364951474,-0.0224623084905085,0.105047915522188,-0.676127693340658,-1.2,-1.71,9.58
17.3256028,180,180,0,2.9302,0,85.6875,5.83801105810711,10.2219342291672,0.72935359824208,-0.0217298419092962,0.10022584386254,-0.676554965513032,-1.14,-1.64,9.6
17.3457246,180,180,0,2.9596,0,85.6875,5.75238370481311,10.1114842116576,0.72935359824208,-0.0215467252639932,0.0991271439907221,-0.676677043276567,-1.13,-1.62,9.6
17.363613,180,180,0,2.9792,0,85.6875,5.75015183268364,9.97174778567353,0.729475676005616,-0.0214246475004578,0.0981505218824391,-0.676677043276567,-1.12,-1.6,9.6
17.4606459,180,180,0,3.0674,0,85.6875,5.54961071762114,9.66745226948986,0.729597753769151,-0.0208752975645486,0.0948544222669841,-0.677043276567173,-1.07,-1.55,9.62
