Time (s),Setpoint (deg),Motor Position (deg),Tension 1 (N),Tension 2 (N),Tension 3 (N),Heading (deg),Pitch (deg),Roll (deg),Quaternion W,Quaternion X,Quaternion Y,Quaternion Z,Gravity X,Gravity Y,Gravity Z
0,0,0,0,0,0,0,0,0,0,0,0,0,0,0,0
0.0207624,0,0.45,0,0.9604,0,86.4375,3.70206304080738,6.00697858676789,0.727339315143747,-0.0148934871513154,0.0604284929500092,-0.683574436916316,-0.66,-1.02,9.73
0.0595371,0,0,0,0.9604,0,86.4375,3.70206304080738,6.00697858676789,0.727339315143747,-0.0148934871513154,0.0604284929500092,-0.683574436916316,-0.66,-1.02,9.73
0.159376,0,0,0,0.9506,0,86.4375,3.70206304080738,6.00697858676789,0.727339315143747,-0.0148934871513154,0.0604284929500092,-0.683574436916316,-0.66,-1.02,9.73
0.1804941,0,0,0,0.9604,0,86.4375,3.70206304080738,6.00697858676789,0.727339315143747,-0.0148934871513154,0.0604284929500092,-0.683574436916316,-0.66,-1.02,9.73
0.2006214,0,0,0,0.9604,0,86.4375,3.70206304080738,6.00697858676789,0.727339315143747,-0.0148934871513154,0.0604284929500092,-0.683574436916316,-0.66,-1.02,9.73
0.3045641,0,0,0,0.9604,0,86.4375,3.70206304080738,6.00697858676789,0.727339315143747,-0.0148934871513154,0.0604284929500092,-0.683574436916316,-0.66,-1.02,9.73
0.3240957,0,0,0,0.9702,0,86.4375,3.70206304080738,6.00697858676789,0.727339315143747,-0.0148934871513154,0.0604284929500092,-0.683574436916316,-0.66,-1.02,9.73
0.3413659,0,0,0,0.9702,0,86.4375,3.70206304080738,6.00697858676789,0.727339315143747,-0.0148934871513154,0.0604284929500092,-0.683574436916316,-0.66,-1.02,9.73
0.4311553,0,0,0,0.9604,0,86.4375,3.70206304080738,6.00697858676789,0.727339315143747,-0.0148934871513154,0.0604284929500092,-0.683574436916316,-0.66,-1.02,9.73
0.4453298,0,0,0,0.9604,0,86.4375,3.70206304080738,6.00697858676789,0.727339315143747,-0.0148934871513154,0.0604284929500092,-0.683574436916316,-0.66,-1.02,9.73
0.4601463,0,0,0,0.9604,0,86.4375,3.70206304080738,6.00697858676789,0.727339315143747,-0.0148934871513154,0.0604284929500092,-0.683574436916316,-0.66,-1.02,9.73
0.4764011,0,0,0,0.9604,0,86.4375,3.70206304080738,6.00697858676789,0.727339315143747,-0.0148934871513154,0.0604284929500092,-0.683574436916316,-0.66,-1.02,9.73
0.4901465,0,0,0,0.9604,0,86.4375,3.70206304080738,6.00697858676789,0.727339315143747,-0.0148934871513154,0.0604284929500092,-0.683574436916316,-0.66,-1.02,9.73
0.5051481,0,0,0,0.9506,0,86.4375,3.70206304080738,6.00697858676789,0.727339315143747,-0.0148934871513154,0.0604284929500092,-0.683574436916316,-0.66,-1.02,9.73
0.5204924,0,0,0,0.9506,0,86.4375,3.70206304080738,6.00697858676789,0.727339315143747,-0.0148934871513154,0.0604284929500092,-0.683574436916316,-0.66,-1.02,9.73
0.5362998,0,0,0,0.9506,0,86.4375,3.70206304080738,6.00697858676789,0.727339315143747,-0.0148934871513154,0.0604284929500092,-0.683574436916316,-0.66,-1.02,9.73
0.6363739,0,0,0,0.9408,0,86.4375,3.70206304080738,6.00697858676789,0.727339315143747,-0.0148934871513154,0.0604284929500092,-0.683574436916316,-0.66,-1.02,9.73
0.6542157,0,0,0,0.931,0,86.4375,3.70206304080738,6.00697858676789,0.727339315143747,-0.0148934871513154,0.0604284929500092,-0.683574436916316,-0.66,-1.02,9.73
0.670502,0,0,0,0.931,0,86.4375,3.70206304080738,6.00697858676789,0.727339315143747,-0.0148934871513154,0.0604284929500092,-0.683574436916316,-0.66,-1.02,9.73
0.7721634,0,0,0,0.9114,0,86.4375,3.70206304080738,6.00697858676789,0.727339315143747,-0.0148934871513154,0.0604284929500092,-0.683574436916316,-0.66,-1.02,9.73
0.7903204,0,0,0,0.9016,0,86.4375,3.70206304080738,6.00697858676789,0.727339315143747,-0.0148934871513154,0.0604284929500092,-0.683574436916316,-0.66,-1.02,9.73
0.8063613,0,0,0,0.9016,0,86.4375,3.7584039856269,6.03403312311292,0.727339315143747,-0.0149545260330831,0.0604284929500092,-0.683574436916316,-0.66,-1.02,9.73
0.9135053,0,0,0,0.882,0,86.4375,3.7584039856269,6.03403312311292,0.727339315143747,-0.0150155649148508,0.0604895318317768,-0.683513398034548,-0.66,-1.02,9.73
0.9304203,0,0,0,0.882,0,86.4375,3.7584039856269,6.03403312311292,0.727339315143747,-0.0150155649148508,0.0604895318317768,-0.683513398034548,-0.66,-1.02,9.73
0.9442203,0,0,0,0.8722,0,86.4375,3.7584039856269,6.03403312311292,0.727339315143747,-0.0150155649148508,0.0604895318317768,-0.683513398034548,-0.66,-1.02,9.73
0.9593623,0,0,0,0.8722,0,86.4375,3.7584039856269,6.03403312311292,0.727339315143747,-0.0150155649148508,0.0604895318317768,-0.683513398034548,-0.66,-1.02,9.73
1.0561467,0,0,0,0.8526,0,86.4375,3.73134944928187,6.09037406793244,0.727278276261979,-0.0151376426783861,0.0609168040041506,-0.683513398034548,-0.66,-1.03,9.72
1.0752341,0,0,0,0.8526,0,86.4375,3.78769039410139,6.11742860427746,0.727278276261979,-0.0151986815601538,0.0611609595312214,-0.683513398034548,-0.66,-1.03,9.72
1.0921639,0,0,0,0.8526,0,86.4375,3.78769039410139,6.11742860427746,0.727278276261979,-0.0152597204419215,0.0613440761765244,-0.683513398034548,-0.66,-1.03,9.72
1.1911923,0,0,0,0.833,0,86.4375,3.81697680257587,6.200824085442,0.727278276261979,-0.0155038759689922,0.062015503875969,-0.68345235915278,-0.67,-1.05,9.72
1.2094271,0,0,0,0.833,0,86.4375,3.81697680257587,6.200824085442,0.727278276261979,-0.0155038759689922,0.0620765427577367,-0.68345235915278,-0.67,-1.05,9.72
1.2264661,0,0,0,0.833,0,86.4375,3.87331774739539,6.22787862178703,0.727217237380211,-0.0155649148507599,0.0623206982848074,-0.68345235915278,-0.67,-1.05,9.72
1.3394495,0,0,0,0.833,0,86.4375,3.90260415586988,6.31127410295157,0.727217237380211,-0.0158090703778307,0.062992125984252,-0.68345235915278,-0.68,-1.07,9.72
1.3583294,0,0,0,0.833,0,86.4375,3.90260415586988,6.31127410295157,0.727217237380211,-0.0158090703778307,0.0630531648660197,-0.68345235915278,-0.68,-1.07,9.72
1.380519,0,0,0,0.833,0,86.4375,3.90260415586988,6.31127410295157,0.727217237380211,-0.0158701092595984,0.0632362815113227,-0.68345235915278,-0.68,-1.07,9.72
1.4773848,0,0,0,0.833,0,86.4375,3.95894510068939,6.3383286392966,0.727156198498443,-0.0161142647866691,0.0637245925654642,-0.683391320271013,-0.69,-1.08,9.72
1.4962921,0,0,0,0.8428,0,86.4375,3.95894510068939,6.3383286392966,0.727156198498443,-0.0161142647866691,0.0638466703289996,-0.683391320271013,-0.69,-1.08,9.72
1.5122554,0,0,0,0.8428,0,86.4375,3.98823150916388,6.42172412046114,0.727156198498443,-0.0161142647866691,0.0639077092107673,-0.683391320271013,-0.69,-1.08,9.72
1.6105693,0,0,0,0.8526,0,86.4375,3.98823150916388,6.42172412046114,0.727156198498443,-0.0162973814319722,0.0642739425013734,-0.683391320271013,-0.69,-1.09,9.72
1.6344468,0,0,0,0.8624,0,86.4375,3.98823150916388,6.42172412046114,0.727156198498443,-0.0162363425502045,0.0643349813831411,-0.683391320271013,-0.69,-1.09,9.72
1.6545107,0,0,0,0.8624,0,86.4375,3.98823150916388,6.42172412046114,0.727156198498443,-0.0162973814319722,0.0643349813831411,-0.683391320271013,-0.69,-1.09,9.72
1.7644491,0,0,0,0.882,0,86.4375,4.0445724539834,6.44877865680616,0.727095159616676,-0.0164804980772752,0.0645180980284441,-0.683391320271013,-0.69,-1.09,9.71
1.7835494,0,0,0,0.882,0,86.4375,4.0445724539834,6.44877865680616,0.727095159616676,-0.0164804980772752,0.0645791369102118,-0.683330281389245,-0.7,-1.1,9.71
1.8046073,0,0,0,0.8918,0,86.4375,4.0445724539834,6.44877865680616,0.727095159616676,-0.0164804980772752,0.0645791369102118,-0.683330281389245,-0.7,-1.1,9.71
1.9254272,0,0,0,0.9114,0,86.4375,4.0445724539834,6.44877865680616,0.727095159616676,-0.0165415369590429,0.0647012146737472,-0.683330281389245,-0.7,-1.1,9.71
1.9444425,0,0,0,0.9212,0,86.4375,4.0445724539834,6.44877865680616,0.727095159616676,-0.0165415369590429,0.0647012146737472,-0.683330281389245,-0.7,-1.1,9.71
1.9653444,0,0,0,0.9212,0,86.4375,4.0445724539834,6.44877865680616,0.727095159616676,-0.0166025758408106,0.0647622535555149,-0.683330281389245,-0.7,-1.1,9.71
2.0613891,0,0,0,0.9408,0,86.4375,4.0445724539834,6.44877865680616,0.727095159616676,-0.0166025758408106,0.0647622535555149,-0.683330281389245,-0.7,-1.1,9.71
2.0792266,0,0,0,0.9408,0,86.4375,4.0445724539834,6.44877865680616,0.727095159616676,-0.0166025758408106,0.0647622535555149,-0.683330281389245,-0.7,-1.1,9.71
2.0953417,0,0,0,0.9408,0,86.4375,4.0445724539834,6.44877865680616,0.727095159616676,-0.0166025758408106,0.0647622535555149,-0.683330281389245,-0.7,-1.1,9.71
2.1106272,0,0,0,0.9408,0,86.4375,4.0445724539834,6.44877865680616,0.727095159616676,-0.0166025758408106,0.0647622535555149,-0.683330281389245,-0.7,-1.1,9.71
2.2053229,0,0,0,0.9506,0,86.4375,4.0445724539834,6.44877865680616,0.727095159616676,-0.0166025758408106,0.0647622535555149,-0.683330281389245,-0.7,-1.1,9.71
2.2245798,0,0,0,0.9604,0,86.4375,4.0445724539834,6.44877865680616,0.727095159616676,-0.0166025758408106,0.0647622535555149,-0.683330281389245,-0.7,-1.1,9.71
2.2414861,0,0,0,0.9604,0,86.4375,4.0445724539834,6.44877865680616,0.727095159616676,-0.0166025758408106,0.0647622535555149,-0.683330281389245,-0.7,-1.1,9.71
2.3423338,0,0,0,0.9604,0,86.4375,4.0445724539834,6.44877865680616,0.727095159616676,-0.0166025758408106,0.0647622535555149,-0.683330281389245,-0.7,-1.1,9.71
2.3613642,0,0,0,0.9604,0,86.4375,4.0445724539834,6.44877865680616,0.727095159616676,-0.0166025758408106,0.0647622535555149,-0.683330281389245,-0.7,-1.1,9.71
2.3773753,0,0,0,0.9604,0,86.4375,4.0445724539834,6.44877865680616,0.727095159616676,-0.0166025758408106,0.0647622535555149,-0.683330281389245,-0.7,-1.1,9.71
2.4745422,0,0,0,0.9506,0,86.4375,4.0445724539834,6.44877865680616,0.727095159616676,-0.0166025758408106,0.0647622535555149,-0.683330281389245,-0.7,-1.1,9.71
2.4931787,0,0,0,0.9506,0,86.4375,4.0445724539834,6.44877865680616,0.727095159616676,-0.0166025758408106,0.0647622535555149,-0.683330281389245,-0.7,-1.1,9.71
2.5102668,0,0,0,0.9506,0,86.4375,4.0445724539834,6.44877865680616,0.727095159616676,-0.0166025758408106,0.0647622535555149,-0.683330281389245,-0.7,-1.1,9.71
2.614264,0,0,0,0.9408,0,86.4375,4.0445724539834,6.44877865680616,0.727095159616676,-0.0166025758408106,0.0647622535555149,-0.683330281389245,-0.7,-1.1,9.71
2.6332934,0,0,0,0.931,0,86.4375,4.0445724539834,6.44877865680616,0.727095159616676,-0.0166025758408106,0.0647622535555149,-0.683330281389245,-0.7,-1.1,9.71
2.6496124,0,0,0,0.931,0,86.4375,4.0445724539834,6.44877865680616,0.727095159616676,-0.0166025758408106,0.0647622535555149,-0.683330281389245,-0.7,-1.1,9.71
2.7483021,0,0,0,0.9114,0,86.4375,4.0445724539834,6.44877865680616,0.727095159616676,-0.0166025758408106,0.0647622535555149,-0.683330281389245,-0.7,-1.1,9.71
2.7672647,0,0,0,0.9114,0,86.4375,4.0445724539834,6.44877865680616,0.727095159616676,-0.0166025758408106,0.0648232924372825,-0.683330281389245,-0.7,-1.1,9.71
2.7833403,0,0,0,0.9114,0,86.4375,4.0445724539834,6.44877865680616,0.727095159616676,-0.0166025758408106,0.0648232924372825,-0.683330281389245,-0.7,-1.1,9.71
2.879646,0,0,0,0.8918,0,86.4375,4.0445724539834,6.44877865680616,0.727095159616676,-0.0166025758408106,0.0648232924372825,-0.683330281389245,-0.7,-1.1,9.71
2.8982482,0,0,0,0.8918,0,86.4375,4.0445724539834,6.44877865680616,0.727095159616676,-0.0166025758408106,0.0648232924372825,-0.683330281389245,-0.7,-1.1,9.71
2.9164888,0,0,0,0.882,0,86.4375,4.0445724539834,6.44877865680616,0.727095159616676,-0.0166025758408106,0.0648232924372825,-0.683330281389245,-0.7,-1.1,9.71
3.0115879,180,0,0,0.8722,0,86.4375,4.0445724539834,6.44877865680616,0.727095159616676,-0.0166025758408106,0.0648232924372825,-0.683330281389245,-0.7,-1.1,9.71
3.0304291,180,0.9,0,0.8624,0,86.4375,4.0445724539834,6.44877865680616,0.727095159616676,-0.0166025758408106,0.0648232924372825,-0.683330281389245,-0.7,-1.1,9.71
3.0464771,180,2.7,0,0.8624,0,86.4375,4.0445724539834,6.44877865680616,0.727095159616676,-0.0166025758408106,0.0648232924372825,-0.683330281389245,-0.7,-1.1,9.71
3.1504654,180,33.3,0,1.1564,0,86.4375,4.0445724539834,6.44877865680616,0.727095159616676,-0.0166025758408106,0.0648232924372825,-0.683330281389245,-0.7,-1.1,9.71
3.1684673,180,42.3,0,1.2152,0,86.4375,4.0445724539834,6.44877865680616,0.727095159616676,-0.0166025758408106,0.0648232924372825,-0.683330281389245,-0.7,-1.1,9.71
3.1845553,180,50.85,0,1.372,0,86.4375,4.0445724539834,6.44877865680616,0.727095159616676,-0.0166025758408106,0.0648232924372825,-0.683330281389245,-0.7,-1.1,9.71
3.2994177,180,128.25,0,2.4598,0,86.4375,4.15948621575189,6.64262415548027,0.727034120734908,-0.016907770249649,0.0662271867179393,-0.683269242507477,-0.72,-1.13,9.71
3.3183591,180,138.6,0,2.7342,0,86.4375,4.15948621575189,6.64262415548027,0.72697308185314,-0.016907770249649,0.0665934200085454,-0.683269242507477,-0.72,-1.13,9.71
3.3343978,180,146.7,0,2.8616,0,86.4375,4.13243167940687,6.69896510029979,0.72697308185314,-0.0169688091314167,0.0668986144173839,-0.683269242507477,-0.72,-1.13,9.71
3.4354809,180,176.85,0,3.5672,0,86.4375,4.27439997752039,6.83646965415438,0.726851004089605,-0.0173960813037905,0.0687297808704145,-0.68320820362571,-0.74,-1.16,9.7
3.4544867,180,179.55,0,3.5966,0,86.4375,4.30368638599488,6.91986513531892,0.726789965207837,-0.0175181590673259,0.0692791308063236,-0.68320820362571,-0.75,-1.17,9.7
3.4774315,180,180,0,3.6358,0,86.4375,4.33297279446937,7.00326061648346,0.726789965207837,-0.0175791979490936,0.0698895196240005,-0.68320820362571,-0.76,-1.19,9.7
3.5814186,180,180,0,3.381,0,86.4375,4.62137313495533,7.55774257616076,0.726423731917231,-0.0184947811756089,0.0754440578648599,-0.682964048098639,-0.82,-1.27,9.68
3.6014642,180,180,0,3.3418,0,86.4375,4.73628689672383,7.75158807483487,0.726301654153696,-0.0186778978209119,0.0769700299090521,-0.682903009216871,-0.84,-1.29,9.68
3.6164495,180,180,0,3.2536,0,86.4375,4.76557330519832,7.83498355599941,0.726240615271928,-0.018861014466215,0.0784349630714765,-0.682780931453336,-0.86,-1.31,9.67
3.7213493,180,180,0,2.9008,0,86.4375,5.19817381592727,8.66670649551536,0.725691265336019,-0.0200817921015687,0.0862479399377403,-0.682353659280962,-0.95,-1.44,9.65
3.740364,180,180,0,2.8028,0,86.4375,5.31531944982523,9.00028842017353,0.725508148690716,-0.0204480253921748,0.0891167673808216,-0.682231581517427,-0.99,-1.48,9.64
3.7578414,180,180,0,2.7538,0,86.4375,5.40094680311923,9.11073843768309,0.725447109808948,-0.0205701031557102,0.0900933894891046,-0.682170542635659,-1,-1.49,9.63
3.8595594,180,180,0,2.3128,0,86.4375,5.94846107561668,10.1363068758731,0.724714643227736,-0.0222791918452054,0.10022584386254,-0.681438076054447,-1.12,-1.65,9.59
3.8784638,180,180,0,2.2638,0,86.4375,6.12194765433415,10.4969433368763,0.724470487700665,-0.0227675028993469,0.10339986571446,-0.681193920527376,-1.16,-1.7,9.58
3.8943672,180,180,0,2.2148,0,86.4375,6.15123406280864,10.5803388180409,0.724409448818898,-0.0228895806628823,0.104498565586278,-0.681132881645608,-1.17,-1.72,9.58
3.9943619,180,180,0,1.8228,0,86.4375,6.81366209707458,11.799752754905,0.723493865592382,-0.0246597082341452,0.116095953122139,-0.680156259537325,-1.31,-1.89,9.53
4.0133618,180,180,0,1.7836,0,86.4375,6.84518037767853,12.0228846620536,0.723310748947079,-0.0247817859976805,0.118049197338705,-0.68003418177379,-1.34,-1.92,9.52
4.0302835,180,180,0,1.7052,0,86.4375,7.01643508426654,12.2437846970728,0.723066593420009,-0.0248428248794482,0.120307635964109,-0.679851065128487,-1.37,-1.95,9.51
4.1294341,180,180,0,1.4308,0,86.4375,7.56618122889345,13.4090895612469,0.722028932429958,-0.0266129524507111,0.13135567356406,-0.678813404138436,-1.5,-2.12,9.45
4.1482253,180,180,0,1.4112,0,86.4375,7.59546763736794,13.4924850424114,0.721906854666422,-0.0266739913324788,0.133125801135323,-0.678691326374901,-1.52,-2.14,9.44
4.1644594,180,180,0,1.3622,0,86.4375,7.71038139913644,13.6863305410855,0.721845815784655,-0.0267350302142465,0.133919306598303,-0.678508209729598,-1.54,-2.16,9.44
4.2602089,180,180,0,1.2348,0,86.4375,8.08664096504587,14.4909989442565,0.721052310321675,-0.0277116523225295,0.141488127937496,-0.677775743148386,-1.63,-2.27,9.39
4.2776657,180,180,0,1.225,0,86.4375,8.11592737352036,14.574394425421,0.720991271439907,-0.0277116523225295,0.142342672282244,-0.677714704266618,-1.64,-2.28,9.39
4.2933903,180,180,0,1.225,0,86.4375,8.17226831833988,14.601448961766,0.720930232558139,-0.0277116523225295,0.14270890557285,-0.67765366538485,-1.64,-2.28,9.39
4.3086492,180,180,0,1.225,0,86.4375,8.20155472681436,14.6848444429306,0.720869193676372,-0.0277726912042971,0.143441372154062,-0.677592626503082,-1.65,-2.29,9.38
4.4054551,180,180,0,1.2838,0,86.4375,8.26012754376335,14.8516354052597,0.720747115912836,-0.0278337300860648,0.144845266434719,-0.677409509857779,-1.67,-2.31,9.37
4.4236845,180,180,0,1.3034,0,86.4375,8.20378659894383,14.8245808689146,0.720747115912836,-0.0277116523225295,0.144662149789416,-0.677470548739547,-1.67,-2.31,9.38
4.439529,180,180,0,1.3426,0,86.4375,8.14744565412431,14.7975263325696,0.720808154794604,-0.0275285356772264,0.144234877617042,-0.677470548739547,-1.67,-2.3,9.38
4.5503495,180,180,0,1.5778,0,86.4375,7.91538625845786,14.2700989092373,0.721357504730513,-0.0267350302142465,0.13953488372093,-0.677958859793689,-1.61,-2.23,9.41
4.5784721,180,180,0,1.6562,0,86.4375,7.80047249668937,14.0762534105632,0.721540621375816,-0.0263077580418727,0.137459561740829,-0.678141976438992,-1.59,-2.2,9.42
4.595353,180,180,0,1.6856,0,86.4375,7.77118608821488,13.9928579293987,0.721723738021119,-0.0260636025148019,0.136055667460172,-0.678264054202527,-1.57,-2.17,9.43
4.6922462,180,180,0,2.009,0,86.4375,7.28224463266641,13.1340804535377,0.722456204602332,-0.0247817859976805,0.128547885002747,-0.678996520783739,-1.48,-2.05,9.47
4.7123056,180,180,0,2.0972,0,86.4375,7.2259036878469,13.1070259171927,0.722578282365867,-0.0245376304706098,0.126960874076787,-0.679179637429042,-1.47,-2.03,9.47
4.7284261,180,180,0,2.1364,0,86.4375,7.08170351760391,12.829784937354,0.72276139901117,-0.0242324360617713,0.125312824269059,-0.679301715192578,-1.45,-2.01,9.48
4.8222338,180,180,0,2.499,0,86.4375,6.61981659840047,11.9146665166735,0.72355490447415,-0.0226454251358115,0.116401147530977,-0.680095220655558,-1.33,-1.85,9.53
4.8404743,180,180,0,2.5774,0,86.4375,6.44856189181246,11.6937664816544,0.723676982237685,-0.0222181529634377,0.114203747787341,-0.680339376182628,-1.32,-1.83,9.54
4.8634178,180,180,0,2.6656,0,86.4375,6.41927548333797,11.6103710004899,0.723676982237685,-0.0220350363181347,0.113288164560825,-0.680461453946164,-1.29,-1.79,9.55
4.9585752,180,180,0,3.0184,0,86.4375,5.81318839389155,10.4180115999707,0.724592565464201,-0.0203259476286394,0.101934932552036,-0.681438076054447,-1.16,-1.63,9.6
4.9797101,180,180,0,3.0576,0,86.5,5.58336087035456,10.0303206026225,0.724714643227736,-0.0196545199291949,0.0985167551730452,-0.681743270463285,-1.13,-1.59,9.6
4.9956783,180,180,0,3.1262,0,86.4375,5.55407446188007,9.94692512145797,0.724836720991271,-0.0194714032838918,0.0974790941829946,-0.681804309345053,-1.12,-1.58,9.61
5.1044735,180,180,0,3.4202,0,86.5,4.91870096395916,8.67117023977429,0.725569187572484,-0.0175791979490936,0.0855154733565281,-0.6826588536898,-0.98,-1.39,9.65
5.1234033,180,180,0,3.4496,0,86.5,4.80378720219066,8.47732474110018,0.725752304217787,-0.0173350424220228,0.0836232680217298,-0.682719892571568,-0.94,-1.35,9.66
5.1395877,180,180,0,3.4888,0,86.5,4.71815984889666,8.36687472359061,0.725752304217787,-0.0170908868949521,0.0820972959775377,-0.682964048098639,-0.93,-1.34,9.66
5.2355791,180,180,0,3.6162,0,86.5,4.34190028298722,7.56220632041969,0.726179576390161,-0.0159921870231337,0.0743453579930416,-0.683391320271013,-0.84,-1.22,9.69
5.2546216,180,180,0,3.6358,0,86.5,4.31261387451273,7.47881083925515,0.726179576390161,-0.0158701092595984,0.0737349691753647,-0.68345235915278,-0.83,-1.21,9.69
5.2715397,180,180,0,3.6358,0,86.5,4.28332746603824,7.39541535809061,0.726179576390161,-0.0158701092595984,0.0732466581212232,-0.683513398034548,-0.82,-1.2,9.69
5.3754981,180,180,0,3.6456,0,86.5,4.10984088732077,7.03477889708742,0.726423731917231,-0.0155649148507599,0.0694622474516267,-0.683635475798083,-0.77,-1.15,9.7
5.403433,180,180,0,3.6358,0,86.5,4.13689542366579,6.9784379522679,0.726484770798999,-0.0155649148507599,0.0692180919245559,-0.683635475798083,-0.77,-1.14,9.7
5.4196011,180,180,0,3.6162,0,86.5,4.13689542366579,6.9784379522679,0.726484770798999,-0.0156259537325276,0.0692180919245559,-0.683635475798083,-0.77,-1.15,9.7
5.5316351,180,180,0,3.4692,0,86.5,4.25180918543429,7.17228345094201,0.726362693035464,-0.0162973814319722,0.0714154916681926,-0.683513398034548,-0.79,-1.18,9.7
5.549573,180,180,0,3.4496,0,86.5,4.33743653872829,7.28273346845158,0.726301654153696,-0.0165415369590429,0.0723921137764756,-0.68345235915278,-0.8,-1.2,9.69
5.5643034,180,180,0,3.3908,0,86.5,4.36672294720278,7.36612894961612,0.726240615271928,-0.016724653604346,0.0729414637123848,-0.68345235915278,-0.81,-1.21,9.69
5.5816505,180,180,0,3.3614,0,86.5,4.45235030049679,7.47657896712568,0.726179576390161,-0.0170298480131844,0.0741012024659708,-0.683391320271013,-0.82,-1.23,9.69
5.6765589,180,180,0,3.087,0,86.5,4.79709158580227,8.05811546314801,0.725813343099554,-0.0183116645303058,0.0805713239333455,-0.683025086980407,-0.9,-1.34,9.67
5.6955009,180,180,0,3.0478,0,86.5,4.85566440275125,8.22490642547709,0.725752304217787,-0.0185558200573765,0.0813648293963255,-0.682964048098639,-0.91,-1.36,9.66
5.7124914,180,180,0,2.9694,0,86.5,4.99763270086477,8.36241097933168,0.725630226454251,-0.0189220533479827,0.0829518403222853,-0.682903009216871,-0.92,-1.38,9.66
5.8075561,180,180,0,2.6264,0,86.5,5.43023321159372,9.19413391884763,0.72514191540011,-0.0206311420374779,0.0911920893609229,-0.682292620399194,-1.02,-1.51,9.63
5.8264565,180,180,0,2.5872,0,86.5,5.54514697336221,9.38797941752174,0.725019837636575,-0.0211194530916194,0.0930842946957212,-0.682170542635659,-1.04,-1.54,9.62
5.8425012,180,180,0,2.499,0,86.5,5.63077432665622,9.49842943503131,0.724958798754807,-0.0213636086186901,0.0940609168040041,-0.682109503753891,-1.05,-1.56,9.62
5.9365007,180,180,0,2.205,0,86.4375,6.20534313549869,10.4676569284019,0.72434840993713,-0.0233168528352561,0.103582982359763,-0.681315998290911,-1.15,-1.71,9.58
5.9536637,180,180,0,2.1266,0,86.4375,6.32025689726719,10.661502427076,0.724165293291827,-0.0238051638893975,0.105658304339864,-0.681132881645608,-1.18,-1.74,9.57
5.9685368,180,180,0,2.0874,0,86.4375,6.40588425056119,10.7719524445855,0.724104254410059,-0.0240493194164683,0.106757004211683,-0.681071842763841,-1.19,-1.76,9.57
5.984477,180,180,0,2.0482,0,86.4375,6.49374347598466,11.0221388880791,0.723860098882988,-0.0244155527070744,0.109015442837087,-0.680888726118537,-1.22,-1.8,9.56
6.0842929,180,180,0,1.7248,0,86.4375,7.09759869330162,12.0747618626142,0.723127632301776,-0.0263077580418727,0.118903741683452,-0.679973142892022,-1.33,-1.95,9.51
6.1047523,180,180,0,1.6954,0,86.4375,7.12688510177611,12.1581573437788,0.723005554538241,-0.0265519135689434,0.120002441555271,-0.679912104010254,-1.34,-1.97,9.51
6.1315421,180,180,0,1.5974,0,86.4375,7.38376716165813,12.4895073963075,0.722639321247635,-0.0275285356772264,0.124519318806079,-0.679423792956113,-1.39,-2.04,9.48
6.2276594,180,180,0,1.421,0,86.4375,7.78931313604205,13.3775712806429,0.722028932429958,-0.0286882744308124,0.131660867972899,-0.678691326374901,-1.48,-2.15,9.45
6.2465554,180,180,0,1.4014,0,86.4375,7.90199502568108,13.431680353333,0.72196789354819,-0.0288713910761155,0.132454373435879,-0.678630287493133,-1.49,-2.17,9.44
6.262697,180,180,0,1.3916,0,86.4375,7.96056784263006,13.5984713156621,0.721723738021119,-0.0294207410120247,0.134773850943051,-0.678386131966062,-1.51,-2.2,9.43
6.3595407,180,180,0,1.3426,0,86.4375,8.21968177464154,14.0695577941748,0.721357504730513,-0.0299700909479338,0.138314106085577,-0.678019898675456,-1.56,-2.26,9.41
6.3784937,180,180,0,1.3426,0,86.4375,8.24896818311603,14.1529532753394,0.721296465848746,-0.0300311298297015,0.138985533785021,-0.677958859793689,-1.56,-2.27,9.41
6.3934906,180,180,0,1.3524,0,86.4375,8.24896818311603,14.1529532753394,0.721296465848746,-0.0300921687114692,0.139229689312092,-0.677897820911921,-1.56,-2.27,9.4
6.4105231,180,180,0,1.3622,0,86.4375,8.30530912793554,14.1800078116844,0.721235426966978,-0.0302142464750046,0.139595922602698,-0.677897820911921,-1.57,-2.28,9.4
6.506446,180,180,0,1.4896,0,86.4375,8.21968177464154,14.0695577941748,0.721418543612281,-0.0298480131843985,0.138375144967344,-0.677958859793689,-1.55,-2.25,9.41
6.5254881,180,180,0,1.5092,0,86.4375,8.19039536616705,13.9861623130103,0.721479582494049,-0.0297869743026308,0.137642678386132,-0.678019898675456,-1.55,-2.25,9.41
6.5414944,180,180,0,1.5288,0,86.4375,8.13405442134753,13.9591077766653,0.721540621375816,-0.0297259354208631,0.137337483977294,-0.678080937557224,-1.54,-2.24,9.41
6.6357617,180,180,0,1.764,0,86.4375,7.78931313604205,13.3775712806429,0.722089971311726,-0.0285661966672771,0.131782945736434,-0.678569248611365,-1.48,-2.15,9.45
6.6538225,180,180,0,1.8326,0,86.4375,7.76002672756756,13.2941757994784,0.722212049075261,-0.0283220411402063,0.13056216810108,-0.678691326374901,-1.47,-2.13,9.45
6.6685081,180,180,0,1.8718,0,86.4375,7.67439937427356,13.1837257819688,0.722334126838796,-0.0282610022584386,0.129829701519868,-0.678752365256668,-1.46,-2.12,9.46
6.7693075,180,180,0,2.1658,0,86.4375,7.21474432719958,12.4083437872724,0.722944515656473,-0.0266739913324788,0.122321919062443,-0.679606909601416,-1.37,-2,9.49
6.787568,180,180,0,2.2442,0,86.4375,7.1561715102506,12.2415528249433,0.723066593420009,-0.0263687969236404,0.120734908136483,-0.679728987364951,-1.36,-1.98,9.5
6.8045414,180,180,0,2.2834,0,86.4375,7.12688510177611,12.1581573437788,0.723188671183544,-0.0260025636330342,0.119025819446988,-0.679912104010254,-1.34,-1.95,9.51
6.9007178,180,180,0,2.597,0,86.4375,6.58160270140813,11.2723253315728,0.723799060001221,-0.0240493194164683,0.110541414881279,-0.680766648355002,-1.24,-1.81,9.55
6.9195052,180,180,0,2.6754,0,86.4375,6.43963440329461,11.1348207777182,0.723799060001221,-0.0238051638893975,0.109625831654764,-0.680888726118537,-1.23,-1.8,9.55
6.9354993,180,180,0,2.7146,0,86.5,6.38106158634563,10.9680298153891,0.723921137764756,-0.0233778917170237,0.107977781847037,-0.681071842763841,-1.22,-1.77,9.56
7.033553,180,180,0,3.0184,0,86.5,5.83577918597765,10.0821978031831,0.724592565464201,-0.0214246475004578,0.0992492217542575,-0.681743270463285,-1.12,-1.63,9.6
7.0527117,180,180,0,3.087,0,86.5,5.72086542420915,9.88835230450899,0.724653604345968,-0.020997375328084,0.0976622108282976,-0.681926387108588,-1.1,-1.6,9.61
7.0685837,180,180,0,3.1164,0,86.5,5.69157901573466,9.80495682334445,0.724775682109504,-0.0208142586827809,0.0967466276017823,-0.681926387108588,-1.09,-1.58,9.61
7.1806138,180,180,0,3.3614,0,86.5,5.0877237984177,8.75233384880936,0.725386070927181,-0.0184947811756089,0.0858206677653665,-0.682780931453336,-0.97,-1.41,9.65
7.198662,180,180,0,3.4006,0,86.5,4.94575550030418,8.61482929495477,0.725508148690716,-0.0183116645303058,0.0850882011841543,-0.682780931453336,-0.95,-1.38,9.66
7.216447,180,180,0,3.4104,0,86.5,4.8871826833552,8.44803833262569,0.725569187572484,-0.0179454312396997,0.0835622291399622,-0.682903009216871,-0.94,-1.37,9.66
7.3135386,180,180,0,3.5084,0,86.5,4.4861004532302,7.83944730025834,0.725996459744857,-0.0164804980772752,0.0773973020814259,-0.68320820362571,-0.88,-1.27,9.68
7.3338001,180,180,0,3.5182,0,86.5,4.45681404475572,7.7560518190938,0.725996459744857,-0.0162973814319722,0.0767258743819813,-0.683269242507477,-0.87,-1.26,9.68
7.3507792,180,180,0,3.5182,0,86.5,4.45681404475572,7.7560518190938,0.726057498626625,-0.0161142647866691,0.0760544466825368,-0.683330281389245,-0.86,-1.24,9.68
7.4487273,180,180,0,3.4986,0,86.5,4.28555933816771,7.53515178407466,0.726118537508393,-0.0155649148507599,0.0744063968748093,-0.683391320271013,-0.85,-1.21,9.69
7.4685272,180,180,0,3.4888,0,86.5,4.28555933816771,7.53515178407466,0.726118537508393,-0.0156259537325276,0.0744674357565769,-0.683391320271013,-0.85,-1.22,9.69
7.483634,180,180,0,3.479,0,86.5,4.34190028298722,7.56220632041969,0.726118537508393,-0.0156259537325276,0.07465055240188,-0.683391320271013,-0.85,-1.22,9.69
7.5895683,180,180,0,3.3222,0,86.5,4.40270497206566,7.86873370873283,0.725996459744857,-0.0158701092595984,0.0772752243178905,-0.683269242507477,-0.88,-1.26,9.68
7.6098367,180,180,0,3.2634,0,86.5,4.45904591688518,7.89578824507785,0.725874381981322,-0.0161753036684368,0.0786791185985473,-0.68320820362571,-0.9,-1.28,9.68
7.6336384,180,180,0,3.2144,0,86.5,4.57395967865367,8.08963374375196,0.725813343099554,-0.0162973814319722,0.0796557407068302,-0.683147164743942,-0.91,-1.29,9.67
7.7335838,180,180,0,2.9498,0,86.5,4.89164642761413,8.7275111845938,0.725447109808948,-0.0174571201855582,0.0858817066471342,-0.682780931453336,-0.98,-1.39,9.65
7.7528202,180,180,0,2.8812,0,86.5,4.92093283608862,8.81090666575834,0.725386070927181,-0.0175791979490936,0.0865531343465788,-0.682719892571568,-1,-1.42,9.65
7.7676658,180,180,0,2.842,0,86.5,4.95021924456311,8.89430214692289,0.725263993163645,-0.0179454312396997,0.0886284563266801,-0.682597814808033,-1.01,-1.44,9.64
7.7836702,180,180,0,2.8028,0,86.5,5.09218754267663,9.03180670077748,0.725202954281878,-0.0180675090032351,0.0892998840261246,-0.682597814808033,-1.02,-1.45,9.64
7.8785585,180,180,0,2.499,0,86.5,5.55184258975061,9.80718869547391,0.724714643227736,-0.0195324421656595,0.0963803943111762,-0.682109503753891,-1.11,-1.57,9.61
7.8976604,180,180,0,2.4206,0,86.5,5.61041540669959,9.973979657803,0.724592565464201,-0.019837636574498,0.0980284441189037,-0.681987425990356,-1.12,-1.59,9.61
7.9134547,180,180,0,2.3912,0,86.5,5.63970181517408,10.0573751389675,0.724531526582433,-0.0199597143380333,0.0988829884636513,-0.681926387108588,-1.13,-1.6,9.6
8.011533,180,180,0,2.0972,0,86.5,6.18498421554206,10.9432071511735,0.723921137764756,-0.0218519196728316,0.107245315265824,-0.681254959409144,-1.23,-1.74,9.57
8.0314654,180,180,0,2.0188,0,86.5,6.29989797731055,11.1370526498476,0.723738021119453,-0.0222181529634377,0.109259598364158,-0.681071842763841,-1.26,-1.79,9.55
8.0475746,180,180,0,1.9894,0,86.5,6.41481173907905,11.3308981485218,0.723615943355918,-0.0225233473722761,0.111212842580724,-0.680888726118537,-1.27,-1.8,9.55
8.1438117,180,180,0,1.7444,0,86.5,6.90375319462751,12.1896756243827,0.722944515656473,-0.0242324360617713,0.119575169382897,-0.680156259537325,-1.37,-1.93,9.51
8.1625792,180,180,0,1.6856,0,86.5,6.933039603102,12.2730711055473,0.722883476774705,-0.0244155527070744,0.12055179149118,-0.68003418177379,-1.38,-1.95,9.5
8.1786493,180,180,0,1.666,0,86.5,7.0479533648705,12.4669166042214,0.722700360129402,-0.0247817859976805,0.122505035707746,-0.679851065128487,-1.4,-1.98,9.5
8.2969053,180,180,0,1.4896,0,86.4375,7.50760841194447,13.2422985989178,0.72196789354819,-0.0265519135689434,0.130684245864616,-0.679057559665507,-1.5,-2.12,9.45
8.3155149,180,180,0,1.47,0,86.4375,7.62252217371297,13.4361440975919,0.721845815784655,-0.0268571079777818,0.131966062381737,-0.678935481901972,-1.51,-2.13,9.45
8.3316855,180,180,0,1.4602,0,86.4375,7.70814952700697,13.5465941151015,0.721723738021119,-0.0271012635048526,0.132881645608252,-0.678813404138436,-1.52,-2.15,9.44
8.429535,180,180,0,1.4602,0,86.4375,7.85234969724996,13.8238350949401,0.721540621375816,-0.0278337300860648,0.135567356406031,-0.678508209729598,-1.54,-2.19,9.43
8.4496148,180,180,0,1.4602,0,86.4375,7.90869064206947,13.8508896312852,0.721479582494049,-0.0279558078496002,0.135750473051334,-0.678508209729598,-1.54,-2.2,9.42
8.4655886,180,180,0,1.4798,0,86.4375,7.90869064206947,13.8508896312852,0.721479582494049,-0.0280168467313679,0.135750473051334,-0.67844717084783,-1.54,-2.2,9.42
8.562587,180,180,0,1.6072,0,86.4375,7.85011782512049,13.6840986689561,0.721723738021119,-0.0280168467313679,0.133980345480071,-0.678569248611365,-1.52,-2.17,9.43
8.5797241,180,180,0,1.6366,0,86.4375,7.820831416646,13.6007031877915,0.721784776902887,-0.0280168467313679,0.133308917780626,-0.678630287493133,-1.51,-2.17,9.44
8.5956843,180,180,0,1.6562,0,86.4375,7.79154500817151,13.517307706627,0.721845815784655,-0.0280168467313679,0.132881645608252,-0.678691326374901,-1.5,-2.15,9.44
8.706877,180,180,0,1.9404,0,86.4375,7.44457185073657,12.7960347846206,0.722578282365867,-0.0272843801501556,0.126228407495575,-0.67924067631081,-1.42,-2.06,9.47
8.7256476,180,180,0,1.9698,0,86.4375,7.41528544226208,12.7126393034561,0.722700360129402,-0.0271012635048526,0.12476347433315,-0.679362754074345,-1.4,-2.04,9.48
8.7485988,180,180,0,2.0384,0,86.4375,7.32965808896807,12.6021892859465,0.72276139901117,-0.0270402246230849,0.124092046633706,-0.679423792956113,-1.38,-2.02,9.49
8.8429124,180,180,0,2.3128,0,86.4375,7.01197134000762,11.9643118451047,0.723188671183544,-0.0260025636330342,0.117927119575169,-0.680095220655558,-1.3,-1.91,9.52
8.8608302,180,180,0,2.352,0,86.4375,6.86777116976463,11.687070865266,0.723371787828847,-0.0256973692241958,0.11554660318623,-0.680339376182628,-1.29,-1.9,9.53
8.8758631,180,180,0,2.4206,0,86.4375,6.83848476129014,11.6036753841015,0.72355490447415,-0.0254532136971251,0.11395959226027,-0.680400415064396,-1.27,-1.88,9.53
8.8915992,180,180,0,2.4598,0,86.4375,6.80919835281565,11.5202799029369,0.72355490447415,-0.0254532136971251,0.11395959226027,-0.680400415064396,-1.27,-1.88,9.53
8.9865643,180,180,0,2.7342,0,86.5,6.34954330574168,10.7448979082405,0.724104254410059,-0.024110358298236,0.106146615394006,-0.681132881645608,-1.18,-1.76,9.57
9.0056071,180,180,0,2.7734,0,86.4375,6.34731143361221,10.6051614822564,0.724287371055362,-0.0237441250076299,0.103155710187389,-0.681438076054447,-1.14,-1.71,9.58
9.0208663,180,180,0,2.842,0,86.5,6.20311126336923,10.3279205024178,0.72434840993713,-0.0236830861258622,0.102179088079106,-0.681499114936214,-1.13,-1.7,9.59
9.1165259,180,180,0,3.0772,0,86.5,5.71416980782076,9.46914302655682,0.724775682109504,-0.0222181529634377,0.0943050723310749,-0.682292620399194,-1.04,-1.57,9.62
9.1359607,180,180,0,3.1066,0,86.5,5.68488339934627,9.38574754539228,0.724775682109504,-0.0220350363181347,0.0933894891045596,-0.682353659280962,-1.03,-1.56,9.62
9.1515784,180,180,0,3.136,0,86.5,5.56996963757778,9.19190204671817,0.724958798754807,-0.0217298419092962,0.0914972837697613,-0.682475737044497,-1,-1.53,9.63
9.2486049,180,180,0,3.3026,0,86.5,5.2252283522723,8.61036555069585,0.725202954281878,-0.0204480253921748,0.0857596288835989,-0.682964048098639,-0.93,-1.42,9.65
9.2688163,180,180,0,3.332,0,86.5,5.13960099897829,8.49991553318628,0.725325032045413,-0.0202649087468718,0.0844167734847098,-0.683025086980407,-0.92,-1.41,9.65
9.2837676,180,180,0,3.3516,0,86.5,5.08102818202931,8.33312457085719,0.725447109808948,-0.0199597143380333,0.0830739180858207,-0.683086125862174,-0.91,-1.39,9.66
9.3805179,180,180,0,3.4202,0,86.5,4.8241461221473,8.00177451832849,0.725630226454251,-0.018861014466215,0.0793505462979918,-0.683330281389245,-0.87,-1.33,9.67
9.4006037,180,180,0,3.4202,0,86.5,4.79485971367281,7.91837903716395,0.725691265336019,-0.0187389367026796,0.078740157480315,-0.683330281389245,-0.86,-1.32,9.67
9.4156723,180,180,0,3.4202,0,86.5,4.79485971367281,7.91837903716395,0.725691265336019,-0.0186778978209119,0.0784349630714765,-0.683391320271013,-0.86,-1.31,9.67
9.5108891,180,180,0,3.3712,0,86.5625,4.76557330519832,7.83498355599941,0.725691265336019,-0.0183116645303058,0.0780687297808704,-0.683391320271013,-0.86,-1.3,9.68
9.5298011,180,180,0,3.3516,0,86.5625,4.73851876885329,7.89132450081893,0.725691265336019,-0.0183116645303058,0.0781297686626381,-0.683391320271013,-0.86,-1.3,9.68
9.5487115,180,180,0,3.3418,0,86.5625,4.73851876885329,7.89132450081893,0.725691265336019,-0.0183116645303058,0.0783739241897088,-0.683391320271013,-0.86,-1.31,9.67
9.6437288,180,180,0,3.1948,0,86.5625,4.85566440275125,8.22490642547709,0.725447109808948,-0.0185558200573765,0.0813037905145578,-0.683269242507477,-0.91,-1.35,9.66
9.6616093,180,180,0,3.1458,0,86.5625,4.91200534757077,8.25196096182212,0.725386070927181,-0.0186778978209119,0.0820972959775377,-0.68320820362571,-0.91,-1.36,9.66
9.6777593,180,180,0,3.1164,0,86.5625,4.94129175604526,8.33535644298666,0.725325032045413,-0.0187999755844473,0.083012879204053,-0.68320820362571,-0.92,-1.37,9.66
9.7878732,180,180,0,2.8518,0,86.5625,5.2882649134802,9.05662936499304,0.724897759873039,-0.0195934810474272,0.0893609229078923,-0.682841970335103,-1,-1.47,9.64
9.8058872,180,180,0,2.7832,0,86.5625,5.31755132195469,9.14002484615758,0.724836720991271,-0.0197765976927303,0.0905206616614784,-0.682780931453336,-1.02,-1.49,9.63
9.8207126,180,180,0,2.744,0,86.5625,5.34683773042918,9.22342032732212,0.724775682109504,-0.0198986754562656,0.0911310504791552,-0.682719892571568,-1.02,-1.5,9.63
9.836778,180,180,0,2.7146,0,86.5625,5.43246508372319,9.33387034483169,0.724714643227736,-0.0200817921015687,0.0924739058780443,-0.6826588536898,-1.04,-1.52,9.63
9.9345819,180,180,0,2.4402,0,86.5625,5.77943824115813,10.0551432668381,0.724165293291827,-0.0211194530916194,0.0994933772813282,-0.682170542635659,-1.12,-1.63,9.6
9.9518649,180,180,0,2.3814,0,86.5625,5.86506559445214,10.1655932843476,0.724043215528292,-0.0213636086186901,0.10101934932552,-0.682048464872124,-1.14,-1.65,9.59
9.9667473,180,180,0,2.352,0,86.5625,5.92363841140112,10.3323842466767,0.724043215528292,-0.0214856863822255,0.101629738143197,-0.681987425990356,-1.15,-1.66,9.59
9.9825472,180,180,0,2.3128,0,86.5625,5.97997935622063,10.3594387830217,0.723982176646524,-0.0216077641457608,0.102240126960874,-0.681926387108588,-1.17,-1.68,9.58
10.0787427,180,180,0,2.0482,0,86.5625,6.38552533060456,11.2475026673572,0.723310748947079,-0.0227675028993469,0.110602453763047,-0.681315998290911,-1.26,-1.8,9.55
10.0956778,180,180,0,1.9894,0,86.5625,6.44409814755354,11.4142936296863,0.723249710065312,-0.0229506195446499,0.112006348043704,-0.681132881645608,-1.28,-1.82,9.55
10.1115485,180,180,0,1.9698,0,86.5625,6.50043909237305,11.4413481660313,0.723188671183544,-0.0230726973081853,0.112677775743148,-0.681071842763841,-1.28,-1.83,9.54
10.127669,180,180,0,1.9404,0,86.5625,6.61535285414155,11.6351936647054,0.723066593420009,-0.0233778917170237,0.114142708905573,-0.680949765000305,-1.3,-1.85,9.54
10.232623,180,180,0,1.715,0,86.5625,6.99161242005098,12.4398620678764,0.722334126838796,-0.0245376304706098,0.122321919062443,-0.680278337300861,-1.4,-1.98,9.5
10.2507678,180,180,0,1.6954,0,86.5625,7.0479533648705,12.4669166042214,0.722334126838796,-0.0245376304706098,0.122321919062443,-0.680278337300861,-1.41,-1.99,9.49
10.2658147,180,180,0,1.666,0,86.5625,7.16286712663899,12.6607621028955,0.722151010193493,-0.0249038637612159,0.124092046633706,-0.680095220655558,-1.42,-2,9.49
10.2808338,180,180,0,1.6464,0,86.5625,7.13581259029397,12.717103047715,0.722151010193493,-0.0249649026429836,0.124641396569615,-0.680095220655558,-1.43,-2.02,9.48
10.3798358,180,180,0,1.568,0,86.5,7.42421293077993,13.2715850073923,0.721662699139352,-0.0255752914606604,0.129585545992797,-0.679606909601416,-1.49,-2.09,9.46
10.3977867,180,180,0,1.5582,0,86.5,7.42421293077993,13.2715850073923,0.721662699139352,-0.0256973692241958,0.130134895928707,-0.679545870719648,-1.49,-2.09,9.46
10.4146437,180,180,0,1.5582,0,86.5,7.45349933925442,13.3549804885568,0.721601660257584,-0.0257584081059635,0.130623206982848,-0.679484831837881,-1.5,-2.1,9.45
10.5125483,180,180,0,1.5876,0,86.5,7.53912669254843,13.4654305060664,0.721479582494049,-0.0260025636330342,0.131905023499969,-0.679301715192578,-1.51,-2.12,9.45
10.5287466,180,180,0,1.5974,0,86.5,7.53912669254843,13.4654305060664,0.721540621375816,-0.0260025636330342,0.131782945736434,-0.679362754074345,-1.51,-2.12,9.45
10.5447442,180,180,0,1.6268,0,86.5,7.53912669254843,13.4654305060664,0.721540621375816,-0.0259415247512666,0.131599829091131,-0.679362754074345,-1.51,-2.12,9.45
10.6496683,180,180,0,1.764,0,86.5,7.39492652230544,13.1881895262278,0.721845815784655,-0.0255752914606604,0.12873100164805,-0.679545870719648,-1.48,-2.07,9.46
10.6687811,180,180,0,1.813,0,86.5,7.30929916901144,13.0777395087182,0.72196789354819,-0.0253921748153574,0.127815418421535,-0.679667948483184,-1.47,-2.06,9.47
10.6846554,180,180,0,1.8326,0,86.5,7.28001276053695,12.9943440275537,0.72196789354819,-0.0253311359335897,0.127327107367393,-0.679667948483184,-1.46,-2.05,9.47
10.7838153,180,180,0,2.058,0,86.5,6.99161242005098,12.4398620678764,0.722517243484099,-0.0245986693523775,0.121955685771837,-0.680156259537325,-1.39,-1.97,9.5
10.8016089,180,180,0,2.1168,0,86.5,6.98938054792152,12.3001256418923,0.722639321247635,-0.0244155527070744,0.120734908136483,-0.680217298419093,-1.38,-1.95,9.5
10.8168426,180,180,0,2.1462,0,86.5,6.90375319462751,12.1896756243827,0.72276139901117,-0.0241713971800037,0.119453091619362,-0.680339376182628,-1.37,-1.93,9.51
10.8315499,180,180,0,2.1756,0,86.5,6.87446678615302,12.1062801432182,0.722822437892938,-0.0240493194164683,0.118781663919917,-0.680400415064396,-1.36,-1.92,9.51
10.9287666,180,180,0,2.4304,0,86.5,6.50043909237305,11.4413481660313,0.723249710065312,-0.0230726973081853,0.112311542452542,-0.681071842763841,-1.28,-1.82,9.54
10.9534805,180,180,0,2.4892,0,86.5,6.44186627542407,11.2745572037022,0.723371787828847,-0.0228285417811146,0.110846609290118,-0.681193920527376,-1.26,-1.8,9.55
10.9688828,180,180,0,2.548,0,86.5625,6.35623892213007,11.1641071861927,0.723371787828847,-0.0225233473722761,0.109625831654764,-0.681438076054447,-1.25,-1.78,9.56
11.0778149,180,180,0,2.8322,0,86.5625,5.92363841140112,10.3323842466767,0.724104254410059,-0.0213025697369224,0.101629738143197,-0.681926387108588,-1.15,-1.66,9.59
11.0958633,180,180,0,2.8616,0,86.5625,5.89435200292663,10.2489887655122,0.724104254410059,-0.0209363364463163,0.100347921626076,-0.682170542635659,-1.14,-1.64,9.6
11.1116844,180,180,0,2.9204,0,86.5625,5.80872464963262,10.1385387480026,0.724226332173595,-0.0207532198010132,0.0990661051089544,-0.682170542635659,-1.12,-1.61,9.6
11.1276611,180,180,0,2.94,0,86.5625,5.72309729633862,10.028088730493,0.724226332173595,-0.0206311420374779,0.0984557162912775,-0.682292620399194,-1.12,-1.61,9.6
11.2227562,180,180,0,3.136,0,86.5625,5.37612413890367,9.30681580848666,0.724653604345968,-0.0198986754562656,0.0919855948239028,-0.682780931453336,-1.03,-1.5,9.63
11.2406994,180,180,0,3.1556,0,86.5625,5.34683773042918,9.22342032732212,0.724714643227736,-0.0196545199291949,0.0907648171885491,-0.682841970335103,-1.02,-1.49,9.63
11.255532,180,180,0,3.1654,0,86.5625,5.31755132195469,9.14002484615758,0.724714643227736,-0.0195324421656595,0.0902765061344076,-0.682964048098639,-1.02,-1.48,9.63
11.2707416,180,180,0,3.2046,0,86.5625,5.23192396866069,9.02957482864801,0.724714643227736,-0.0194103644021242,0.0891778062625893,-0.683025086980407,-1,-1.46,9.64
11.3795832,180,180,0,3.3026,0,86.5625,4.99986457299423,8.50214740531574,0.725080876518342,-0.0187389367026796,0.0838674235488006,-0.683391320271013,-0.94,-1.39,9.66
11.39871,180,180,0,3.3026,0,86.5625,4.97057816451975,8.4187519241512,0.72514191540011,-0.0187389367026796,0.0833791124946591,-0.683330281389245,-0.93,-1.38,9.66
11.4145879,180,180,0,3.3124,0,86.5625,4.94129175604526,8.33535644298666,0.72514191540011,-0.0187999755844473,0.0828908014405176,-0.683391320271013,-0.92,-1.37,9.66
11.509982,180,180,0,3.2928,0,86.5625,4.88271893909628,8.16856548065758,0.725263993163645,-0.0187389367026796,0.0813037905145578,-0.683513398034548,-0.9,-1.35,9.67
11.5277072,180,180,0,3.2928,0,86.5625,4.88271893909628,8.16856548065758,0.725263993163645,-0.0187999755844473,0.0813648293963255,-0.683513398034548,-0.9,-1.35,9.66
11.5458645,180,180,0,3.2732,0,86.5625,4.93905988391579,8.1956200170026,0.725263993163645,-0.0189220533479827,0.0814869071598608,-0.683513398034548,-0.9,-1.36,9.66
11.6437152,180,180,0,3.1654,0,86.5625,5.05397364568429,8.38946551567671,0.72514191540011,-0.0192882866385888,0.0832570347311237,-0.683391320271013,-0.92,-1.39,9.66
11.6597836,180,180,0,3.1458,0,86.5625,5.08326005415878,8.47286099684125,0.725080876518342,-0.0194714032838918,0.083989501312336,-0.683330281389245,-0.93,-1.4,9.66
11.6727812,180,180,0,3.1164,0,86.5625,5.08326005415878,8.47286099684125,0.725080876518342,-0.0195934810474272,0.0843557346029421,-0.683330281389245,-0.93,-1.4,9.65
11.6877129,180,180,0,3.0968,0,86.5625,5.11254646263327,8.55625647800579,0.725019837636575,-0.0196545199291949,0.0846609290117805,-0.683269242507477,-0.94,-1.41,9.65
11.7846732,180,180,0,2.9106,0,86.5625,5.37166039464474,9.02734295651855,0.724714643227736,-0.0205090642739425,0.0892998840261246,-0.683025086980407,-0.99,-1.48,9.64
11.802861,180,180,0,2.8518,0,86.5625,5.45728774793875,9.13779297402812,0.724653604345968,-0.0207532198010132,0.0903375450161753,-0.682964048098639,-1,-1.5,9.63
11.8187561,180,180,0,2.8224,0,86.5625,5.45728774793875,9.13779297402812,0.724592565464201,-0.0208752975645486,0.0908868949520845,-0.682903009216871,-1.01,-1.52,9.63
11.9145896,180,180,0,2.5872,0,86.5625,5.80202903324423,9.71932947005044,0.724287371055362,-0.021973997436367,0.0965635109564793,-0.682475737044497,-1.07,-1.6,9.61
11.9335678,180,180,0,2.5186,0,86.5625,5.86060185019321,9.88612043237953,0.724226332173595,-0.0222181529634377,0.0978453274736007,-0.682292620399194,-1.09,-1.62,9.6
11.9485203,180,180,0,2.4892,0,86.5625,5.91694279501272,9.91317496872455,0.724104254410059,-0.0224623084905085,0.0991271439907221,-0.682231581517427,-1.1,-1.64,9.6
11.9617424,180,180,0,2.4598,0,86.5625,5.9755156119617,10.0799659310536,0.724104254410059,-0.0225843862540438,0.0997375328083989,-0.682170542635659,-1.11,-1.65,9.6
12.0577748,180,180,0,2.2344,0,86.5625,6.32025689726719,10.661502427076,0.723676982237685,-0.0238662027711652,0.105902459866935,-0.68162119269975,-1.18,-1.75,9.57
12.0747132,180,180,0,2.205,0,86.5625,6.40588425056119,10.7719524445855,0.723615943355918,-0.0239882805347006,0.106634926448147,-0.68162119269975,-1.19,-1.76,9.57
12.088841,180,180,0,2.1756,0,86.5625,6.46445706751017,10.9387434069146,0.723493865592382,-0.0242324360617713,0.108099859610572,-0.681499114936214,-1.2,-1.78,9.56
12.1058973,180,180,0,2.107,0,86.5625,6.49374347598466,11.0221388880791,0.723432826710615,-0.0243545138253067,0.108771287310016,-0.681438076054447,-1.21,-1.79,9.56
12.2097792,180,180,0,1.9208,0,86.5625,6.86777116976463,11.687070865266,0.722944515656473,-0.0254532136971251,0.11554660318623,-0.68082768723677,-1.29,-1.9,9.53
12.2288059,180,180,0,1.8816,0,86.5625,6.89705757823912,11.7704663464306,0.722883476774705,-0.0255142525788928,0.116218030885674,-0.680766648355002,-1.3,-1.91,9.52
12.244745,180,180,0,1.8522,0,86.5625,6.92634398671361,11.8538618275951,0.722822437892938,-0.0255752914606604,0.116889458585119,-0.680705609473234,-1.31,-1.92,9.52
12.2599937,180,180,0,1.813,0,86.5,7.04125774848211,12.0477073262692,0.722639321247635,-0.0258804858694989,0.118842702801685,-0.680522492827931,-1.33,-1.95,9.51
12.3559998,180,180,0,1.6954,0,86.5625,7.30037168049358,12.518793804782,0.722212049075261,-0.0266129524507111,0.12317646340719,-0.680156259537325,-1.39,-2.02,9.49
12.3737213,180,180,0,1.6856,0,86.5625,7.32965808896807,12.6021892859465,0.722151010193493,-0.0266739913324788,0.124153085515473,-0.680095220655558,-1.4,-2.03,9.49
12.3896645,180,180,0,1.6758,0,86.5,7.35894449744256,12.685584767111,0.722089971311726,-0.0267960690960142,0.125007629860221,-0.679973142892022,-1.41,-2.04,9.48
12.4867018,180,180,0,1.6562,0,86.5,7.47385825921106,12.8794302657852,0.721845815784655,-0.0269791857413172,0.127327107367393,-0.679790026246719,-1.44,-2.07,9.47
12.5045286,180,180,0,1.6562,0,86.5625,7.50314466768555,12.9628257469497,0.721845815784655,-0.0269181468595495,0.127510224012696,-0.679790026246719,-1.44,-2.08,9.47
12.5188908,180,180,0,1.666,0,86.5,7.50314466768555,12.9628257469497,0.721845815784655,-0.0269181468595495,0.127693340657999,-0.679790026246719,-1.44,-2.08,9.47
12.5337603,180,180,0,1.666,0,86.5,7.47609013134052,13.0191666917692,0.721845815784655,-0.0269181468595495,0.127754379539767,-0.679728987364951,-1.44,-2.08,9.47
12.6318211,180,180,0,1.7542,0,86.5,7.39046277804652,12.9087166742596,0.721906854666422,-0.0265519135689434,0.126594640786181,-0.679851065128487,-1.43,-2.06,9.47
12.6518999,180,180,0,1.7836,0,86.5,7.41751731439154,12.8523757294401,0.72196789354819,-0.026429835805408,0.126411524140878,-0.679851065128487,-1.43,-2.05,9.47
12.6710079,180,180,0,1.8228,0,86.5,7.36117636957203,12.8253211930951,0.722028932429958,-0.026246719160105,0.12555697979613,-0.679973142892022,-1.42,-2.04,9.48
12.7667567,180,180,0,1.9992,0,86.5,7.07500790121552,12.4105756594019,0.722395165720564,-0.0254532136971251,0.121894646890069,-0.680278337300861,-1.38,-1.98,9.5
12.783799,180,180,0,2.0188,0,86.5,7.04572149274103,12.3271801782373,0.722456204602332,-0.0252090581700543,0.120979063663554,-0.680339376182628,-1.37,-1.97,9.5
12.7987321,180,180,0,2.0482,0,86.5,7.01643508426654,12.2437846970728,0.722517243484099,-0.0251480192882866,0.120490752609412,-0.680400415064396,-1.37,-1.96,9.5
12.8126823,180,180,0,2.0678,0,86.5,6.98714867579205,12.1603892159082,0.722639321247635,-0.0250259415247513,0.119514130501129,-0.680461453946164,-1.35,-1.94,9.51
12.9097641,180,180,0,2.2932,0,86.5625,6.64240739048657,11.5788527198859,0.723066593420009,-0.0236830861258622,0.113776475614967,-0.681010803882073,-1.29,-1.85,9.54
12.9259304,180,180,0,2.352,0,86.5625,6.58606644566706,11.5517981835409,0.723066593420009,-0.0235610083623268,0.113227125679058,-0.681071842763841,-1.29,-1.84,9.54
12.9407435,180,180,0,2.3716,0,86.5625,6.52749362871808,11.3850072212118,0.723249710065312,-0.0233778917170237,0.112128425807239,-0.681132881645608,-1.27,-1.82,9.54
12.957004,180,180,0,2.401,0,86.5625,6.47115268389856,11.3579526848668,0.723249710065312,-0.0232558139534884,0.11157907587133,-0.681193920527376,-1.27,-1.82,9.55
13.0536697,180,180,0,2.6264,0,86.5625,6.07007045377356,10.7493616524994,0.723615943355918,-0.0217908807910639,0.105597265458097,-0.681804309345053,-1.2,-1.72,9.57
13.0720059,180,180,0,2.6754,0,86.5625,6.0678385816441,10.6096252265154,0.723799060001221,-0.0217298419092962,0.10419337117744,-0.681804309345053,-1.18,-1.7,9.58
13.0869127,180,180,0,2.7048,0,86.5625,5.9822112283501,10.4991752090058,0.723860098882988,-0.0215467252639932,0.103521943477995,-0.68186534822682,-1.18,-1.69,9.58
13.1027341,180,180,0,2.7342,0,86.5625,5.95292481987561,10.4157797278413,0.723982176646524,-0.0213025697369224,0.102240126960874,-0.681987425990356,-1.16,-1.67,9.59
13.1988644,180,180,0,2.9302,0,86.5625,5.55184258975061,9.80718869547391,0.72434840993713,-0.020020753219801,0.0964414331929439,-0.682475737044497,-1.1,-1.57,9.61
13.215708,180,180,0,2.9694,0,86.5625,5.52255618127612,9.72379321430937,0.724287371055362,-0.0198986754562656,0.0958920832570347,-0.682597814808033,-1.09,-1.56,9.61
13.2297812,180,180,0,2.9988,0,86.5625,5.49326977280163,9.64039773314483,0.724470487700665,-0.0196545199291949,0.0946102667399133,-0.682597814808033,-1.08,-1.54,9.62
13.2448872,180,180,0,3.0184,0,86.5625,5.46398336432714,9.55700225198029,0.724470487700665,-0.0195324421656595,0.0941219556857718,-0.6826588536898,-1.07,-1.53,9.62
13.3447249,180,180,0,3.136,0,86.5625,5.14852848749615,9.0588612371225,0.724775682109504,-0.0184947811756089,0.0894830006714277,-0.683025086980407,-1.02,-1.46,9.64
13.3629111,180,180,0,3.1556,0,86.5625,5.11924207902166,8.97546575595796,0.724836720991271,-0.0183116645303058,0.0885674174449124,-0.683025086980407,-1.01,-1.44,9.64
13.3775886,180,180,0,3.1654,0,86.5625,5.06290113420214,8.94841121961294,0.724836720991271,-0.0180675090032351,0.0877739119819325,-0.683147164743942,-1,-1.43,9.64
13.3929336,180,180,0,3.1752,0,86.5625,5.03361472572765,8.8650157384484,0.724897759873039,-0.0179454312396997,0.0874076786913264,-0.683147164743942,-1,-1.42,9.65
13.4947989,180,180,0,3.2144,0,86.5625,4.91870096395916,8.67117023977429,0.725019837636575,-0.0174571201855582,0.0852713178294574,-0.683269242507477,-0.97,-1.39,9.65
13.5129066,180,180,0,3.2144,0,86.5625,4.86236001913964,8.64411570342926,0.725019837636575,-0.0174571201855582,0.085149240065922,-0.683269242507477,-0.97,-1.38,9.65
13.5298984,180,180,0,3.2046,0,86.5625,4.86236001913964,8.64411570342926,0.725080876518342,-0.0173350424220228,0.0849661234206189,-0.683269242507477,-0.97,-1.38,9.65
13.6268123,180,180,0,3.1458,0,86.5625,4.91870096395916,8.67117023977429,0.725019837636575,-0.0175181590673259,0.0853933955929927,-0.683269242507477,-0.98,-1.39,9.65
13.6457068,180,180,0,3.136,0,86.5625,4.91870096395916,8.67117023977429,0.725019837636575,-0.0175791979490936,0.0858817066471342,-0.68320820362571,-0.98,-1.4,9.65
13.6619437,180,180,0,3.1066,0,86.5625,4.94798737243365,8.75456572093883,0.725019837636575,-0.0176402368308613,0.0860648232924373,-0.68320820362571,-0.98,-1.4,9.65
13.7608575,180,180,0,2.9694,0,86.5625,5.14852848749615,9.0588612371225,0.724775682109504,-0.0184337422938412,0.0891167673808216,-0.683025086980407,-1.01,-1.45,9.64
13.7777953,180,180,0,2.9498,0,86.5625,5.14852848749615,9.0588612371225,0.724775682109504,-0.0184947811756089,0.0894830006714277,-0.682964048098639,-1.02,-1.46,9.64
13.7928381,180,180,0,2.9204,0,86.5625,5.23415584079015,9.16931125463207,0.724714643227736,-0.0186778978209119,0.0902765061344076,-0.682964048098639,-1.03,-1.47,9.63
13.8078822,180,180,0,2.8714,0,86.5625,5.26344224926464,9.25270673579661,0.724653604345968,-0.0189220533479827,0.0911920893609229,-0.682903009216871,-1.04,-1.48,9.63
13.9047539,180,180,0,2.6754,0,86.5625,5.52255618127612,9.72379321430937,0.72434840993713,-0.0199597143380333,0.0959531221388024,-0.682536775926265,-1.09,-1.56,9.61
13.9239071,180,180,0,2.646,0,86.5625,5.55184258975061,9.80718869547391,0.724287371055362,-0.0200817921015687,0.0964414331929439,-0.682536775926265,-1.1,-1.57,9.61
13.9467486,180,180,0,2.5872,0,86.5625,5.63746994304461,9.91763871298348,0.724226332173595,-0.0203869865104071,0.0974790941829946,-0.68241469816273,-1.11,-1.59,9.61
14.0428155,180,180,0,2.3814,0,86.5625,6.00926576469512,10.4428342641863,0.723860098882988,-0.0216688030275285,0.102789476896783,-0.681987425990356,-1.16,-1.68,9.59
14.0619167,180,180,0,2.3226,0,86.5625,6.03855217316961,10.5262297453508,0.723799060001221,-0.021973997436367,0.103705060123299,-0.681926387108588,-1.17,-1.69,9.58
14.0807509,180,180,0,2.303,0,86.5625,6.12417952646361,10.6366797628604,0.723738021119453,-0.0222791918452054,0.104803759995117,-0.681804309345053,-1.18,-1.71,9.58
14.177791,180,180,0,2.0972,0,86.5625,6.4689208117691,11.2182162588827,0.723249710065312,-0.0235610083623268,0.110846609290118,-0.681315998290911,-1.25,-1.81,9.55
14.1969015,180,180,0,2.0482,0,86.5625,6.49820722024359,11.3016117400473,0.723188671183544,-0.0238662027711652,0.111884270280168,-0.681254959409144,-1.26,-1.83,9.55
14.2127916,180,180,0,2.0286,0,86.5625,6.58383457353759,11.4120617575568,0.723127632301776,-0.0239882805347006,0.11237258133431,-0.681193920527376,-1.27,-1.84,9.54
14.32402,180,180,0,1.8718,0,86.5625,6.92857585884308,11.9935982535792,0.722639321247635,-0.0252090581700543,0.117988158456937,-0.680705609473234,-1.33,-1.93,9.51
14.3428161,180,180,0,1.8424,0,86.5625,6.95786226731756,12.0769937347437,0.722578282365867,-0.0254532136971251,0.118781663919917,-0.680644570591467,-1.34,-1.94,9.51
14.3577474,180,180,0,1.8228,0,86.5625,7.07054415695659,12.1311028074337,0.722517243484099,-0.0256973692241958,0.119636208264665,-0.680522492827931,-1.35,-1.96,9.51
14.3716235,180,180,0,1.813,0,86.5625,7.09983056543108,12.2144982885983,0.722456204602332,-0.0258194469877312,0.120063480437038,-0.680522492827931,-1.35,-1.97,9.5
14.4678778,180,180,0,1.7542,0,86.5625,7.24403073567407,12.4917392684369,0.722212049075261,-0.0263687969236404,0.123115424525423,-0.680217298419093,-1.39,-2.01,9.49
14.4858518,180,180,0,1.7444,0,86.5625,7.30037168049358,12.518793804782,0.722151010193493,-0.0264908746871757,0.123542696697796,-0.680156259537325,-1.39,-2.02,9.49
14.4998402,180,180,0,1.7444,0,86.5625,7.27331714414856,12.5751347496015,0.722151010193493,-0.0264908746871757,0.1237258133431,-0.680156259537325,-1.39,-2.02,9.49
14.5158809,180,180,0,1.7444,0,86.5625,7.32965808896807,12.6021892859465,0.722089971311726,-0.0266129524507111,0.124153085515473,-0.680156259537325,-1.4,-2.03,9.49
14.6110434,180,180,0,1.7836,0,86.5625,7.32965808896807,12.6021892859465,0.722089971311726,-0.0267350302142465,0.124458279924312,-0.680095220655558,-1.4,-2.03,9.48
14.6297852,180,180,0,1.7934,0,86.5625,7.32965808896807,12.6021892859465,0.722089971311726,-0.0267350302142465,0.124336202160776,-0.680095220655558,-1.4,-2.03,9.49
14.6457781,180,180,0,1.813,0,86.5625,7.32965808896807,12.6021892859465,0.722151010193493,-0.0267960690960142,0.124031007751938,-0.680095220655558,-1.39,-2.03,9.49
14.7416987,180,180,0,1.9306,0,86.5625,7.21474432719958,12.4083437872724,0.722395165720564,-0.0264908746871757,0.121467374717695,-0.680278337300861,-1.36,-1.99,9.5
14.7609831,180,180,0,1.9698,0,86.5,7.21251245507012,12.2686073612883,0.722395165720564,-0.0264908746871757,0.121101141427089,-0.680339376182628,-1.36,-1.99,9.5
14.7768211,180,180,0,1.9894,0,86.5,7.1561715102506,12.2415528249433,0.722456204602332,-0.026429835805408,0.120795947018251,-0.680339376182628,-1.35,-1.98,9.5
14.873095,180,180,0,2.156,0,86.5,6.95339852305864,11.7975208827756,0.722883476774705,-0.0256973692241958,0.116523225294513,-0.680705609473234,-1.3,-1.92,9.52
14.8917836,180,180,0,2.1854,0,86.5,6.86777116976463,11.687070865266,0.722944515656473,-0.0255142525788928,0.11554660318623,-0.680766648355002,-1.29,-1.9,9.53
14.9087941,180,180,0,2.2344,0,86.5,6.83848476129014,11.6036753841015,0.723066593420009,-0.025270097051822,0.114508942196179,-0.680888726118537,-1.28,-1.88,9.53
15.0038274,180,180,0,2.4304,0,86.5625,6.52302988445915,11.1055343692437,0.723432826710615,-0.0241713971800037,0.109381676127693,-0.681315998290911,-1.22,-1.8,9.56
15.0218694,180,180,0,2.45,0,86.5625,6.49374347598466,11.0221388880791,0.723493865592382,-0.0240493194164683,0.108832326191784,-0.681377037172679,-1.22,-1.79,9.56
15.0378295,180,180,0,2.4696,0,86.5625,6.43740253116515,10.9950843517341,0.72355490447415,-0.0238051638893975,0.107855704083501,-0.681438076054447,-1.21,-1.77,9.56
15.0538041,180,180,0,2.5284,0,86.5625,6.37882971421617,10.828293389405,0.723615943355918,-0.0235610083623268,0.107001159738754,-0.681499114936214,-1.2,-1.76,9.57
15.1549006,180,180,0,2.7244,0,86.5625,6.00703389256566,10.3030978382022,0.724104254410059,-0.0224012696087408,0.101263504852591,-0.681926387108588,-1.13,-1.67,9.59
15.172899,180,180,0,2.7734,0,86.5625,5.97774748409117,10.2197023570377,0.724104254410059,-0.0222181529634377,0.10077519379845,-0.681987425990356,-1.13,-1.66,9.59
15.1879413,180,180,0,2.793,0,86.5625,5.89212013079716,10.1092523395281,0.724226332173595,-0.0220350363181347,0.0997985716901666,-0.682048464872124,-1.12,-1.64,9.6
15.2038556,180,180,0,2.8126,0,86.5625,5.91917466714219,10.0529113947086,0.724226332173595,-0.0219129585545993,0.0993712995177928,-0.682109503753891,-1.11,-1.63,9.6
15.3018237,180,180,0,2.9694,0,86.5625,5.54737884549168,9.5277158435058,0.724592565464201,-0.0206921809192456,0.0941829945675395,-0.682475737044497,-1.06,-1.55,9.62
15.3208358,180,180,0,2.9988,0,86.5625,5.51809243701719,9.44432036234126,0.724653604345968,-0.0205090642739425,0.0933284502227919,-0.682536775926265,-1.05,-1.54,9.62
15.3370881,180,180,0,3.0086,0,86.5625,5.4888060285427,9.36092488117672,0.724714643227736,-0.0203259476286394,0.0926570225233474,-0.682597814808033,-1.04,-1.52,9.63
15.4328579,180,180,0,3.1066,0,86.5625,5.23192396866069,9.02957482864801,0.724958798754807,-0.0195324421656595,0.089238845144357,-0.682841970335103,-1,-1.46,9.64
15.4509072,180,180,0,3.1164,0,86.5625,5.23192396866069,9.02957482864801,0.724958798754807,-0.0193493255203565,0.0888115729719832,-0.682841970335103,-1,-1.46,9.64
15.4660928,180,180,0,3.1164,0,86.5625,5.2026375601862,8.94617934748347,0.724958798754807,-0.0191662088750534,0.0885063785631447,-0.682903009216871,-1,-1.45,9.64
15.4818489,180,180,0,3.1164,0,86.5625,5.2026375601862,8.94617934748347,0.725019837636575,-0.0191051699932857,0.0883232619178417,-0.682903009216871,-1,-1.45,9.64
