Time (s),Setpoint (deg),Motor Position (deg),Tension 1 (N),Tension 2 (N),Tension 3 (N),Heading (deg),Pitch (deg),Roll (deg),Quaternion W,Quaternion X,Quaternion Y,Quaternion Z,Gravity X,Gravity Y,Gravity Z
0,0,0,0,0,0,0,0,0,0,0,0,0,0,0,0
0.0156667,0,0.45,1.0486,0,0,66,4.32990249650077,5.62690862026357,0.836965146798511,-0.0307025575291461,0.0543856436550082,-0.543795397668315,-0.56,-1.08,9.73
0.043635,0,0,1.0486,0,0,66,4.32990249650077,5.62690862026357,0.836965146798511,-0.0307025575291461,0.0543856436550082,-0.543795397668315,-0.56,-1.08,9.73
0.0606062,0,0,1.0388,0,0,66,4.32990249650077,5.62690862026357,0.836965146798511,-0.0307025575291461,0.0543856436550082,-0.543795397668315,-0.56,-1.08,9.73
0.1636491,0,0,1.029,0,0,66,4.32990249650077,5.62690862026357,0.836965146798511,-0.0307025575291461,0.0543856436550082,-0.543795397668315,-0.56,-1.08,9.73
0.1867473,0,0,1.029,0,0,66,4.32990249650077,5.62690862026357,0.836965146798511,-0.0307025575291461,0.0543856436550082,-0.543795397668315,-0.56,-1.08,9.73
0.2065973,0,0,1.029,0,0,66,4.32990249650077,5.62690862026357,0.836965146798511,-0.0307025575291461,0.0543856436550082,-0.543795397668315,-0.56,-1.08,9.73
0.3135499,0,0,1.0388,0,0,66,4.32990249650077,5.62690862026357,0.836965146798511,-0.0307025575291461,0.0543856436550082,-0.543795397668315,-0.56,-1.08,9.73
0.3326096,0,0,1.0388,0,0,66,4.32990249650077,5.62690862026357,0.836965146798511,-0.0307025575291461,0.0543856436550082,-0.543795397668315,-0.56,-1.08,9.73
0.3485901,0,0,1.0388,0,0,66,4.32990249650077,5.62690862026357,0.836965146798511,-0.0307025575291461,0.0543856436550082,-0.543795397668315,-0.56,-1.08,9.73
0.3647194,0,0,1.0388,0,0,66,4.32990249650077,5.62690862026357,0.836965146798511,-0.0307025575291461,0.0543856436550082,-0.543795397668315,-0.56,-1.08,9.73
0.3816133,0,0,1.0486,0,0,66,4.32990249650077,5.62690862026357,0.836965146798511,-0.0307025575291461,0.0543856436550082,-0.543795397668315,-0.56,-1.08,9.73
0.3978529,0,0,1.0486,0,0,66,4.32990249650077,5.62690862026357,0.836965146798511,-0.0307025575291461,0.0543856436550082,-0.543795397668315,-0.56,-1.08,9.73
0.41262,0,0,1.0486,0,0,66,4.32990249650077,5.62690862026357,0.836965146798511,-0.0307025575291461,0.0543856436550082,-0.543795397668315,-0.56,-1.08,9.73
0.427657,0,0,1.0486,0,0,66,4.32990249650077,5.62690862026357,0.836965146798511,-0.0307025575291461,0.0543856436550082,-0.543795397668315,-0.56,-1.08,9.73
0.4426465,0,0,1.0486,0,0,66,4.32990249650077,5.62690862026357,0.836965146798511,-0.0307025575291461,0.0543856436550082,-0.543795397668315,-0.56,-1.08,9.73
0.4585452,0,0,1.0486,0,0,66,4.32990249650077,5.62690862026357,0.836965146798511,-0.0307025575291461,0.0543856436550082,-0.543795397668315,-0.56,-1.08,9.73
0.4756528,0,0,1.0486,0,0,66,4.32990249650077,5.62690862026357,0.836965146798511,-0.0307025575291461,0.0543856436550082,-0.543795397668315,-0.56,-1.08,9.73
0.4907166,0,0,1.0486,0,0,66,4.32990249650077,5.62690862026357,0.836965146798511,-0.0307025575291461,0.0543856436550082,-0.543795397668315,-0.56,-1.08,9.73
0.5065493,0,0,1.0486,0,0,66,4.32990249650077,5.62690862026357,0.836965146798511,-0.0307025575291461,0.0543856436550082,-0.543795397668315,-0.56,-1.08,9.73
0.5235827,0,0,1.0584,0,0,66,4.32990249650077,5.62690862026357,0.836965146798511,-0.0307025575291461,0.0543856436550082,-0.543795397668315,-0.56,-1.08,9.73
0.6278409,0,0,1.0584,0,0,66,4.32990249650077,5.62690862026357,0.836965146798511,-0.0307025575291461,0.0543856436550082,-0.543795397668315,-0.56,-1.08,9.73
0.6537058,0,0,1.0584,0,0,66,4.32990249650077,5.62690862026357,0.836965146798511,-0.0307025575291461,0.0543856436550082,-0.543795397668315,-0.56,-1.08,9.73
0.6697306,0,0,1.0584,0,0,66,4.32990249650077,5.62690862026357,0.836965146798511,-0.0307025575291461,0.0543856436550082,-0.543795397668315,-0.56,-1.08,9.73
0.7729051,0,0,1.0584,0,0,66,4.32990249650077,5.62690862026357,0.836965146798511,-0.0307025575291461,0.0543856436550082,-0.543795397668315,-0.56,-1.08,9.73
0.7927711,0,0,1.0584,0,0,66,4.32990249650077,5.62690862026357,0.836965146798511,-0.0307025575291461,0.0543856436550082,-0.543795397668315,-0.56,-1.08,9.73
0.8079906,0,0,1.0584,0,0,66,4.32990249650077,5.62690862026357,0.836965146798511,-0.0307025575291461,0.0543856436550082,-0.543795397668315,-0.56,-1.08,9.73
0.9057594,0,0,1.0584,0,0,66,4.32990249650077,5.62690862026357,0.836965146798511,-0.0307025575291461,0.0543856436550082,-0.543795397668315,-0.56,-1.08,9.73
0.9257055,0,0,1.0584,0,0,66,4.32990249650077,5.62690862026357,0.836965146798511,-0.0307025575291461,0.0543856436550082,-0.543795397668315,-0.56,-1.08,9.73
0.9416467,0,0,1.0584,0,0,66,4.32990249650077,5.62690862026357,0.836965146798511,-0.0307025575291461,0.0543856436550082,-0.543795397668315,-0.56,-1.08,9.73
1.040667,0,0,1.0584,0,0,66,4.32990249650077,5.62690862026357,0.836965146798511,-0.0307025575291461,0.0543856436550082,-0.543795397668315,-0.56,-1.08,9.73
1.0607976,0,0,1.0584,0,0,66,4.32990249650077,5.62690862026357,0.836965146798511,-0.0307025575291461,0.0543856436550082,-0.543795397668315,-0.56,-1.08,9.73
1.0777391,0,0,1.0584,0,0,66,4.32990249650077,5.62690862026357,0.836965146798511,-0.0307025575291461,0.0543856436550082,-0.543795397668315,-0.56,-1.08,9.73
1.1778403,0,0,1.0486,0,0,66,4.32990249650077,5.62690862026357,0.836965146798511,-0.0307025575291461,0.0543856436550082,-0.543795397668315,-0.56,-1.08,9.73
1.1966841,0,0,1.0486,0,0,66,4.32990249650077,5.62690862026357,0.836965146798511,-0.0307025575291461,0.0543856436550082,-0.543795397668315,-0.56,-1.08,9.73
1.211732,0,0,1.0388,0,0,66,4.32990249650077,5.62690862026357,0.836965146798511,-0.0307025575291461,0.0543856436550082,-0.543795397668315,-0.56,-1.08,9.73
1.2338174,0,0,1.0388,0,0,66,4.32990249650077,5.62690862026357,0.836965146798511,-0.0307025575291461,0.0543856436550082,-0.543795397668315,-0.56,-1.08,9.73
1.332733,0,0,1.0388,0,0,66,4.32990249650077,5.62690862026357,0.836965146798511,-0.0307025575291461,0.0543856436550082,-0.543795397668315,-0.56,-1.08,9.73
1.3547151,0,0,1.0388,0,0,66,4.32990249650077,5.62690862026357,0.836965146798511,-0.0307025575291461,0.0543856436550082,-0.543795397668315,-0.56,-1.08,9.73
1.3727917,0,0,1.029,0,0,66,4.32990249650077,5.62690862026357,0.836965146798511,-0.0307025575291461,0.0543856436550082,-0.543795397668315,-0.56,-1.08,9.73
1.4776935,0,0,1.029,0,0,66,4.32990249650077,5.62690862026357,0.836965146798511,-0.0307025575291461,0.0543856436550082,-0.543795397668315,-0.56,-1.08,9.73
1.4957082,0,0,1.029,0,0,66,4.32990249650077,5.62690862026357,0.836965146798511,-0.0307025575291461,0.0543856436550082,-0.543795397668315,-0.56,-1.08,9.73
1.5119817,0,0,1.029,0,0,66,4.32990249650077,5.62690862026357,0.836965146798511,-0.0307025575291461,0.0543856436550082,-0.543795397668315,-0.56,-1.08,9.73
1.6287151,0,0,1.0192,0,0,66,4.32990249650077,5.62690862026357,0.836965146798511,-0.0307025575291461,0.0543856436550082,-0.543795397668315,-0.56,-1.08,9.73
1.649823,0,0,1.0192,0,0,66,4.32990249650077,5.62690862026357,0.836965146798511,-0.0307025575291461,0.0543856436550082,-0.543795397668315,-0.56,-1.08,9.73
1.673862,0,0,1.0192,0,0,66,4.32990249650077,5.62690862026357,0.836965146798511,-0.0307025575291461,0.0543856436550082,-0.543795397668315,-0.56,-1.08,9.73
1.7887336,0,0,1.0192,0,0,66,4.32990249650077,5.62690862026357,0.836965146798511,-0.0307025575291461,0.0543856436550082,-0.543795397668315,-0.56,-1.08,9.73
1.8088778,0,0,1.0192,0,0,66,4.32990249650077,5.62690862026357,0.836965146798511,-0.0307025575291461,0.0543856436550082,-0.543795397668315,-0.56,-1.08,9.73
1.8239568,0,0,1.0192,0,0,66,4.32990249650077,5.62690862026357,0.836965146798511,-0.0307025575291461,0.0543856436550082,-0.543795397668315,-0.56,-1.08,9.73
1.93478,0,0,1.0192,0,0,66,4.32990249650077,5.62690862026357,0.836965146798511,-0.0307025575291461,0.0543856436550082,-0.543795397668315,-0.56,-1.08,9.73
1.9528249,0,0,1.0192,0,0,66,4.32990249650077,5.62690862026357,0.836965146798511,-0.0307025575291461,0.0543856436550082,-0.543795397668315,-0.56,-1.08,9.73
1.9698907,0,0,1.0192,0,0,66,4.32990249650077,5.62690862026357,0.836965146798511,-0.0307025575291461,0.0543856436550082,-0.543795397668315,-0.56,-1.08,9.73
2.0696423,0,0,1.029,0,0,66,4.32990249650077,5.62690862026357,0.836965146798511,-0.0307025575291461,0.0543856436550082,-0.543795397668315,-0.56,-1.08,9.73
2.0900632,0,0,1.029,0,0,66,4.32990249650077,5.62690862026357,0.836965146798511,-0.0307025575291461,0.0543856436550082,-0.543795397668315,-0.56,-1.08,9.73
2.1108457,0,0,1.029,0,0,66,4.32990249650077,5.62690862026357,0.836965146798511,-0.0307025575291461,0.0543856436550082,-0.543795397668315,-0.56,-1.08,9.73
2.2079543,0,0,1.029,0,0,66,4.32990249650077,5.62690862026357,0.836965146798511,-0.0307025575291461,0.0543856436550082,-0.543795397668315,-0.56,-1.08,9.73
2.2289206,0,0,1.0388,0,0,66,4.32990249650077,5.62690862026357,0.836965146798511,-0.0307025575291461,0.0543856436550082,-0.543795397668315,-0.56,-1.08,9.73
2.2459006,0,0,1.0388,0,0,66,4.32990249650077,5.62690862026357,0.836965146798511,-0.0307025575291461,0.0543856436550082,-0.543795397668315,-0.56,-1.08,9.73
2.3487723,0,0,1.0388,0,0,66,4.32990249650077,5.62690862026357,0.836965146798511,-0.0307025575291461,0.0543856436550082,-0.543795397668315,-0.56,-1.08,9.73
2.3678922,0,0,1.0486,0,0,66,4.32990249650077,5.62690862026357,0.836965146798511,-0.0307025575291461,0.0543856436550082,-0.543795397668315,-0.56,-1.08,9.73
2.384784,0,0,1.0486,0,0,66,4.32990249650077,5.62690862026357,0.836965146798511,-0.0307025575291461,0.0543856436550082,-0.543795397668315,-0.56,-1.08,9.73
2.4838677,0,0,1.0486,0,0,66,4.32990249650077,5.62690862026357,0.836965146798511,-0.0307025575291461,0.0543856436550082,-0.543795397668315,-0.56,-1.08,9.73
2.5018557,0,0,1.0486,0,0,66,4.32990249650077,5.62690862026357,0.836965146798511,-0.0307025575291461,0.0543856436550082,-0.543795397668315,-0.56,-1.08,9.73
2.5170776,0,0,1.0486,0,0,66,4.32990249650077,5.62690862026357,0.836965146798511,-0.0307025575291461,0.0543856436550082,-0.543795397668315,-0.56,-1.08,9.73
2.5319252,0,0,1.0584,0,0,66,4.32990249650077,5.62690862026357,0.836965146798511,-0.0307025575291461,0.0543856436550082,-0.543795397668315,-0.56,-1.08,9.73
2.6328108,0,0,1.0584,0,0,66,4.32990249650077,5.62690862026357,0.836965146798511,-0.0307025575291461,0.0543856436550082,-0.543795397668315,-0.56,-1.08,9.73
2.6538982,0,0,1.0584,0,0,66,4.32990249650077,5.62690862026357,0.836965146798511,-0.0307025575291461,0.0543856436550082,-0.543795397668315,-0.56,-1.08,9.73
2.670831,0,0,1.0584,0,0,66,4.32990249650077,5.62690862026357,0.836965146798511,-0.0307025575291461,0.0543856436550082,-0.543795397668315,-0.56,-1.08,9.73
2.7687599,0,0,1.0584,0,0,66,4.32990249650077,5.62690862026357,0.836965146798511,-0.0307025575291461,0.0543856436550082,-0.543795397668315,-0.56,-1.08,9.73
2.789775,0,0,1.0584,0,0,66,4.32990249650077,5.62690862026357,0.836965146798511,-0.0307025575291461,0.0543856436550082,-0.543795397668315,-0.56,-1.08,9.73
2.8087678,0,0,1.0584,0,0,66,4.32990249650077,5.62690862026357,0.836965146798511,-0.0307025575291461,0.0543856436550082,-0.543795397668315,-0.56,-1.08,9.73
2.9068275,0,0,1.0584,0,0,66,4.32990249650077,5.62690862026357,0.836965146798511,-0.0307025575291461,0.0543856436550082,-0.543795397668315,-0.56,-1.08,9.73
2.9257717,0,0,1.0584,0,0,66,4.32990249650077,5.62690862026357,0.836965146798511,-0.0307025575291461,0.0543856436550082,-0.543795397668315,-0.56,-1.08,9.73
2.9417925,0,0,1.0584,0,0,66,4.32990249650077,5.62690862026357,0.836965146798511,-0.0307025575291461,0.0543856436550082,-0.543795397668315,-0.56,-1.08,9.73
3.049752,90,0.45,1.0584,0,0,66,4.32990249650077,5.62690862026357,0.836965146798511,-0.0307025575291461,0.0543856436550082,-0.543795397668315,-0.56,-1.08,9.73
3.0688163,90,1.8,1.0584,0,0,66,4.32990249650077,5.62690862026357,0.836965146798511,-0.0307025575291461,0.0543856436550082,-0.543795397668315,-0.56,-1.08,9.73
3.0857578,90,3.6,1.0584,0,0,66,4.32990249650077,5.62690862026357,0.836965146798511,-0.0307025575291461,0.0543856436550082,-0.543795397668315,-0.56,-1.08,9.73
3.184867,90,34.2,1.4896,0,0,66,4.32990249650077,5.62690862026357,0.836965146798511,-0.0307025575291461,0.0543856436550082,-0.543795397668315,-0.56,-1.08,9.73
3.2047123,90,44.1,1.666,0,0,66,4.32990249650077,5.62690862026357,0.836965146798511,-0.0307025575291461,0.0543856436550082,-0.543795397668315,-0.56,-1.08,9.73
3.2217899,90,53.1,1.7738,0,0,66,4.32990249650077,5.62690862026357,0.836965146798511,-0.0306415186473784,0.0544466825367759,-0.543795397668315,-0.56,-1.08,9.73
3.3238171,90,86.4,2.7538,0,0,66,4.24675005626606,5.6568781328224,0.836965146798511,-0.0299700909479338,0.0543856436550082,-0.543856436550082,-0.57,-1.07,9.73
3.3428651,90,88.65,2.8812,0,0,66,4.24675005626606,5.6568781328224,0.836965146798511,-0.0297259354208631,0.0543856436550082,-0.543856436550082,-0.57,-1.06,9.73
3.3588245,90,89.55,2.9302,0,0,66,4.16359761603136,5.68684764538123,0.836965146798511,-0.02954281877556,0.0543856436550082,-0.543856436550082,-0.57,-1.06,9.73
3.4578014,90,90,2.94,0,0,66,3.96732322300312,5.66363423026418,0.836965146798511,-0.0274674967954587,0.0543246047732406,-0.543978514313618,-0.59,-1.03,9.73
3.4767929,90,90,2.9106,0,0,66,3.94073175916518,5.72019520666095,0.836965146798511,-0.0266739913324788,0.0542635658914729,-0.544039553195385,-0.6,-1.01,9.73
3.4918598,90,90,2.9008,0,0,66,3.80101834253371,5.72357325538184,0.836965146798511,-0.0263687969236404,0.0542635658914729,-0.544100592077153,-0.6,-1.01,9.73
3.5079128,90,90,2.8714,0,0,66,3.80101834253371,5.72357325538184,0.836904107916743,-0.0260636025148019,0.0542635658914729,-0.544100592077153,-0.61,-1,9.73
3.6087619,90,90,2.744,0,0,66.0625,3.43843906903606,5.76029886538246,0.836904107916743,-0.0227064640175792,0.0540804492461698,-0.544283708722456,-0.64,-0.94,9.73
3.6288071,90,90,2.7048,0,0,66.0625,3.29872565240459,5.76367691410335,0.836904107916743,-0.0215467252639932,0.0540194103644021,-0.544344747604224,-0.65,-0.93,9.74
3.6479334,90,90,2.6754,0,0,66.0625,3.21557321216988,5.79364642666218,0.836904107916743,-0.0206921809192456,0.0540194103644021,-0.544405786485992,-0.66,-0.91,9.74
3.7447582,90,90,2.5186,0,0,66.0625,2.71328052204076,5.83375008538369,0.836843069034975,-0.0166025758408106,0.0538973326008668,-0.544649942013062,-0.7,-0.84,9.74
3.7629763,90,90,2.4794,0,0,66.0625,2.65671954564399,5.80715862154575,0.836843069034975,-0.0161753036684368,0.0538362937190991,-0.544649942013062,-0.71,-0.84,9.74
3.779006,90,90,2.4598,0,0,66.0625,2.65671954564399,5.80715862154575,0.836843069034975,-0.015748031496063,0.0538362937190991,-0.54471098089483,-0.71,-0.83,9.74
3.7940379,90,90,2.4402,0,0,66.0625,2.51700612901252,5.81053667026665,0.836843069034975,-0.0145272538607093,0.0537752548373314,-0.544772019776598,-0.72,-0.81,9.74
3.8948717,90,90,2.2736,0,0,66.125,2.07127441528017,5.87723179282609,0.836782030153208,-0.0106818043093451,0.053653177073796,-0.544955136421901,-0.76,-0.74,9.74
3.9138276,90,90,2.254,0,0,66.125,1.98812197504546,5.90720130538492,0.83672099127144,-0.0103155710187389,0.053653177073796,-0.544955136421901,-0.77,-0.74,9.74
3.934223,90,90,2.2246,0,0,66.125,1.98812197504546,5.90720130538492,0.83672099127144,-0.00994933772813282,0.053653177073796,-0.545016175303668,-0.77,-0.73,9.74
4.0479003,90,90,2.0678,0,0,66.125,1.56898172515105,5.9173354515476,0.836659952389672,-0.00592077153146554,0.0534700604284929,-0.545199291948972,-0.81,-0.66,9.74
4.0688276,90,90,2.0482,0,0,66.125,1.48582928491634,5.94730496410643,0.836659952389672,-0.0056766160043948,0.0534700604284929,-0.545199291948972,-0.81,-0.66,9.74
4.089002,90,90,2.0384,0,0,66.125,1.42926830851958,5.92071350026849,0.836659952389672,-0.00518830495025331,0.0534700604284929,-0.545199291948972,-0.82,-0.65,9.75
4.1868099,90,90,1.96,0,0,66.125,1.1232500114187,5.98403057410705,0.836659952389672,-0.00268571079777818,0.0533479826649576,-0.545260330830739,-0.84,-0.61,9.75
4.2068038,90,90,1.9502,0,0,66.125,1.1232500114187,5.98403057410705,0.836659952389672,-0.00231947750717207,0.0532259049014222,-0.545260330830739,-0.84,-0.6,9.75
4.2237012,90,90,1.9502,0,0,66.125,1.06668903502193,5.95743911026911,0.836659952389672,-0.00195324421656595,0.0531648660196545,-0.545260330830739,-0.85,-0.6,9.75
4.324896,90,90,1.9404,0,0,66.125,0.983536594787223,5.98740862282794,0.836659952389672,-0.00103766099005066,0.0532869437831899,-0.545199291948972,-0.86,-0.58,9.75
4.346135,90,90,1.9502,0,0,66.125,0.983536594787223,5.98740862282794,0.836659952389672,-0.000976622108282976,0.0532869437831899,-0.545199291948972,-0.86,-0.58,9.75
4.3700076,90,90,1.96,0,0,66.125,0.983536594787223,5.98740862282794,0.83672099127144,-0.00103766099005066,0.0533479826649576,-0.545138253067204,-0.86,-0.58,9.75
4.4708337,90,90,2.0286,0,0,66.125,1.1232500114187,5.98403057410705,0.836782030153208,-0.00225843862540438,0.0534700604284929,-0.545077214185436,-0.85,-0.6,9.75
4.4899236,90,90,2.0482,0,0,66.125,1.17981098781546,6.01062203794498,0.836782030153208,-0.00292986632484893,0.0534700604284929,-0.545016175303668,-0.84,-0.61,9.75
4.5068129,90,90,2.058,0,0,66.125,1.17981098781546,6.01062203794498,0.836782030153208,-0.00317402185191967,0.0535310993102606,-0.545016175303668,-0.84,-0.62,9.75
4.6067683,90,90,2.1854,0,0,66.125,1.54239026131311,5.97389642794437,0.836904107916743,-0.00622596594030397,0.0537752548373314,-0.544833058658365,-0.81,-0.67,9.74
4.6258953,90,90,2.2246,0,0,66.0625,1.68210367794458,5.97051837922347,0.836904107916743,-0.00732466581212232,0.0537752548373314,-0.544772019776598,-0.8,-0.69,9.74
4.6507772,90,90,2.254,0,0,66.0625,1.76525611817929,5.94054886666464,0.836904107916743,-0.00811817127510224,0.0538362937190991,-0.54471098089483,-0.79,-0.7,9.74
4.7508479,90,90,2.401,0,0,66.0625,2.21098783191164,5.8738537441052,0.836965146798511,-0.0120246597082341,0.0540804492461698,-0.544527864249527,-0.75,-0.77,9.74
4.7699442,90,90,2.4402,0,0,66.0625,2.26754880830841,5.90044520794314,0.837026185680278,-0.0128792040529817,0.0540804492461698,-0.544466825367759,-0.75,-0.78,9.74
4.7868967,90,90,2.45,0,0,66.0625,2.40726222493988,5.89706715922224,0.837026185680278,-0.0137337483977294,0.0541414881279375,-0.544405786485992,-0.74,-0.8,9.74
4.8919008,90,90,2.6166,0,0,66,2.909554915069,5.85696350050073,0.837087224562046,-0.0179454312396997,0.0544466825367759,-0.544222669840689,-0.69,-0.88,9.74
4.9100981,90,90,2.646,0,0,66,2.99270735530371,5.8269939879419,0.837087224562046,-0.0187999755844473,0.0544466825367759,-0.544161630958921,-0.69,-0.88,9.74
4.9258901,90,90,2.6656,0,0,66,3.04926833170047,5.85358545177984,0.837087224562046,-0.0192272477568211,0.0545077214185436,-0.544161630958921,-0.68,-0.89,9.74
5.0327627,90,90,2.8028,0,0,66,3.46840858159489,5.84345130561716,0.837087224562046,-0.0238662027711652,0.054812915827382,-0.54391747543185,-0.64,-0.97,9.73
5.052824,90,90,2.8224,0,0,66,3.60812199822636,5.84007325689627,0.837087224562046,-0.0242324360617713,0.0548739547091497,-0.54391747543185,-0.64,-0.98,9.73
5.0707585,90,90,2.8518,0,0,66,3.69127443846107,5.81010374433744,0.837026185680278,-0.0249649026429836,0.0549349935909174,-0.54391747543185,-0.63,-0.99,9.73
5.1727672,90,90,2.9204,0,0,66,4.05385371195871,5.77337813433682,0.837026185680278,-0.0279558078496002,0.0552401879997558,-0.543795397668315,-0.6,-1.04,9.73
5.1929703,90,90,2.94,0,0,66,4.11041468835548,5.79996959817476,0.836965146798511,-0.0284441189037417,0.0553622657632912,-0.543795397668315,-0.6,-1.05,9.73
5.2098999,90,90,2.9498,0,0,66,4.11041468835548,5.79996959817476,0.836965146798511,-0.0288103521943478,0.0554843435268266,-0.543795397668315,-0.6,-1.06,9.73
5.3098905,90,90,2.9596,0,0,66,4.30668908138372,5.82318301329181,0.836904107916743,-0.0300921687114692,0.0556674601721296,-0.543795397668315,-0.59,-1.08,9.72
5.32989,90,90,2.9596,0,0,66,4.30668908138372,5.82318301329181,0.836904107916743,-0.0303363242385399,0.0556674601721296,-0.543795397668315,-0.59,-1.09,9.72
5.3458943,90,90,2.9596,0,0,66,4.30668908138372,5.82318301329181,0.836904107916743,-0.0304584020020753,0.0557284990538973,-0.543795397668315,-0.58,-1.09,9.72
5.4478858,90,90,2.9106,0,0,66,4.30668908138372,5.82318301329181,0.836843069034975,-0.0300311298297015,0.0557284990538973,-0.54391747543185,-0.59,-1.08,9.72
5.4672152,90,90,2.9008,0,0,66,4.25012810498695,5.79659154945387,0.836843069034975,-0.0297869743026308,0.0557284990538973,-0.54391747543185,-0.59,-1.08,9.72
5.4828546,90,90,2.891,0,0,66,4.22353664114902,5.85315252585064,0.836843069034975,-0.0296038576573277,0.0557284990538973,-0.54391747543185,-0.6,-1.07,9.72
5.5820056,90,90,2.793,0,0,66.0625,3.94410980788607,5.85990862329242,0.836782030153208,-0.0273454190319233,0.0557284990538973,-0.544100592077153,-0.62,-1.03,9.73
5.6010561,90,90,2.7734,0,0,66.0625,3.94410980788607,5.85990862329242,0.836782030153208,-0.0267960690960142,0.0557284990538973,-0.544161630958921,-0.62,-1.03,9.73
5.6171027,90,90,2.744,0,0,66.0625,3.86095736765137,5.88987813585125,0.836782030153208,-0.0261856802783373,0.0556674601721296,-0.544161630958921,-0.63,-1.02,9.73
5.717858,90,90,2.6166,0,0,66.0625,3.44181711775695,5.90001228201393,0.83672099127144,-0.0227064640175792,0.0555453824085943,-0.544405786485992,-0.66,-0.96,9.73
5.7378756,90,90,2.5872,0,0,66.0625,3.35866467752225,5.92998179457276,0.83672099127144,-0.021973997436367,0.0555453824085943,-0.544466825367759,-0.67,-0.95,9.73
5.754929,90,90,2.5676,0,0,66.0625,3.27551223728754,5.95995130713159,0.83672099127144,-0.021180491973387,0.0554843435268266,-0.544466825367759,-0.68,-0.94,9.73
5.8568728,90,90,2.4108,0,0,66.125,2.85637198739313,5.97008545329427,0.83672099127144,-0.0173350424220228,0.0553622657632912,-0.54471098089483,-0.72,-0.87,9.74
5.8778726,90,90,2.3716,0,0,66.125,2.71665857076165,5.97346350201516,0.836659952389672,-0.0165415369590429,0.0553012268815235,-0.544772019776598,-0.73,-0.86,9.74
5.8938406,90,90,2.3618,0,0,66.125,2.63350613052695,6.00343301457399,0.836659952389672,-0.015748031496063,0.0552401879997558,-0.544772019776598,-0.73,-0.84,9.74
5.9948906,90,90,2.2148,0,0,66.125,2.21436588063253,6.01356716073667,0.836659952389672,-0.0119025819446988,0.0551791491179882,-0.544955136421901,-0.77,-0.78,9.74
6.0139216,90,90,2.1854,0,0,66.125,2.1877744167946,6.07012813713344,0.836659952389672,-0.011475309772325,0.0551791491179882,-0.544955136421901,-0.78,-0.77,9.74
6.0298976,90,90,2.1658,0,0,66.125,2.07465246400106,6.01694520945756,0.836598913507904,-0.0104376487822743,0.0550570713544528,-0.545016175303668,-0.79,-0.75,9.74
6.1291048,90,90,2.058,0,0,66.125,1.71207319050341,6.05367081945818,0.836598913507904,-0.00708051028505158,0.054812915827382,-0.545077214185436,-0.82,-0.7,9.74
6.1478963,90,90,2.0482,0,0,66.125,1.62892075026871,6.08364033201701,0.836598913507904,-0.00677531587621315,0.0547518769456144,-0.545138253067204,-0.82,-0.69,9.74
6.1659092,90,90,2.0286,0,0,66.125,1.57235977387194,6.05704886817907,0.836598913507904,-0.00647012146737472,0.0547518769456144,-0.545138253067204,-0.82,-0.69,9.74
6.262943,90,90,1.9796,0,0,66.125,1.292932940609,6.06380496562086,0.836659952389672,-0.00402856619666728,0.0543856436550082,-0.545138253067204,-0.84,-0.64,9.74
6.2819045,90,90,1.9698,0,0,66.125,1.292932940609,6.06380496562086,0.836659952389672,-0.00384544955136422,0.0543856436550082,-0.545138253067204,-0.85,-0.64,9.74
6.2979297,90,90,1.9698,0,0,66.125,1.292932940609,6.06380496562086,0.836659952389672,-0.00366233290606116,0.0543246047732406,-0.545138253067204,-0.85,-0.64,9.74
6.3969093,90,90,1.9698,0,0,66.125,1.15321952397753,6.06718301434175,0.83672099127144,-0.00280778856131356,0.0543856436550082,-0.545077214185436,-0.86,-0.62,9.74
6.4159572,90,90,1.9796,0,0,66.125,1.15321952397753,6.06718301434175,0.83672099127144,-0.00286882744308124,0.0543856436550082,-0.545077214185436,-0.86,-0.62,9.74
6.4318169,90,90,1.9796,0,0,66.125,1.20978050037429,6.09377447817969,0.83672099127144,-0.00292986632484893,0.0543246047732406,-0.545016175303668,-0.86,-0.62,9.74
6.5299391,90,90,2.0482,0,0,66.125,1.292932940609,6.06380496562086,0.836782030153208,-0.00421168284197034,0.0543246047732406,-0.544894097540133,-0.84,-0.64,9.74
6.5500047,90,90,2.0678,0,0,66.125,1.3760853808437,6.03383545306203,0.836782030153208,-0.00457791613257645,0.0542635658914729,-0.544894097540133,-0.84,-0.65,9.74
6.5679795,90,90,2.0874,0,0,66.125,1.43264635724047,6.06042691689997,0.836843069034975,-0.00500518830495025,0.0542635658914729,-0.544894097540133,-0.83,-0.66,9.74
6.6779129,90,90,2.2246,0,0,66.0625,1.79522563073812,6.02370130689935,0.836904107916743,-0.00824024903863761,0.0544466825367759,-0.54471098089483,-0.8,-0.71,9.74
6.6969622,90,90,2.2344,0,0,66.0625,1.87837807097282,5.99373179434052,0.836904107916743,-0.00891167673808216,0.0544466825367759,-0.544649942013062,-0.79,-0.72,9.74
6.7127874,90,90,2.2736,0,0,66.0625,1.93493904736959,6.02032325817846,0.836965146798511,-0.00964414331929439,0.0544466825367759,-0.544588903131295,-0.79,-0.73,9.74
6.8099066,90,90,2.401,0,0,66.0625,2.38067076110194,5.95362813561901,0.837026185680278,-0.0133675151071232,0.0545687603003113,-0.544405786485992,-0.75,-0.8,9.74
6.8290838,90,90,2.4402,0,0,66.0625,2.38067076110194,5.95362813561901,0.837026185680278,-0.0141610205701032,0.054629799182079,-0.544344747604224,-0.74,-0.81,9.74
6.8449128,90,90,2.4598,0,0,66.0625,2.52038417773341,5.95025008689812,0.837026185680278,-0.0145272538607093,0.054629799182079,-0.544344747604224,-0.74,-0.82,9.74
6.9441107,90,90,2.5872,0,0,66,2.96611589146577,5.88355496433867,0.837087224562046,-0.0183727034120735,0.0549349935909174,-0.544161630958921,-0.7,-0.88,9.74
6.9619157,90,90,2.6166,0,0,66,2.96611589146577,5.88355496433867,0.837087224562046,-0.0191051699932857,0.0549349935909174,-0.544100592077153,-0.69,-0.9,9.74
6.9779032,90,90,2.6362,0,0,66,3.10582930809724,5.88017691561778,0.837087224562046,-0.0195324421656595,0.0549960324726851,-0.544100592077153,-0.69,-0.91,9.73
6.993981,90,90,2.6656,0,0,66,3.16239028449401,5.90676837945572,0.837087224562046,-0.0202649087468718,0.0550570713544528,-0.544039553195385,-0.68,-0.91,9.73
7.0938857,90,90,2.7734,0,0,66,3.52496955799166,5.8700427694551,0.837087224562046,-0.0237441250076299,0.0552401879997558,-0.54391747543185,-0.65,-0.97,9.73
7.1120285,90,90,2.793,0,0,66,3.60812199822636,5.84007325689627,0.837087224562046,-0.0244155527070744,0.0553012268815235,-0.543856436550082,-0.64,-0.99,9.73
7.1269382,90,90,2.8126,0,0,66,3.60812199822636,5.84007325689627,0.837087224562046,-0.0250259415247513,0.0554233046450589,-0.543856436550082,-0.64,-1,9.73
7.1442015,90,90,2.8322,0,0,66,3.74783541485783,5.83669520817538,0.837026185680278,-0.025270097051822,0.0554233046450589,-0.543856436550082,-0.64,-1,9.73
7.2439794,90,90,2.891,0,0,66,4.02726224812078,5.82993911073359,0.837026185680278,-0.0277726912042971,0.0556674601721296,-0.543734358786547,-0.61,-1.04,9.73
7.2640835,90,90,2.9008,0,0,66,4.08382322451754,5.85653057457153,0.837026185680278,-0.0281389244949033,0.0557284990538973,-0.543734358786547,-0.61,-1.05,9.73
7.2811332,90,90,2.9008,0,0,66,4.08382322451754,5.85653057457153,0.836965146798511,-0.0284441189037417,0.0558505768174327,-0.543734358786547,-0.61,-1.06,9.72
7.3828283,90,90,2.9106,0,0,66,4.16697566475225,5.8265610620127,0.836965146798511,-0.0289934688396509,0.0559116156992004,-0.543734358786547,-0.6,-1.07,9.72
7.4029389,90,90,2.9106,0,0,66,4.16697566475225,5.8265610620127,0.836965146798511,-0.0289934688396509,0.0559116156992004,-0.543734358786547,-0.6,-1.07,9.72
7.4198934,90,90,2.9106,0,0,66,4.16697566475225,5.8265610620127,0.836965146798511,-0.0289934688396509,0.0559116156992004,-0.543734358786547,-0.6,-1.07,9.72
7.52489,90,90,2.8616,0,0,66,4.00067078428284,5.88650008713036,0.836965146798511,-0.0275895745589941,0.0560336934627358,-0.543795397668315,-0.62,-1.04,9.73
7.5438975,90,90,2.8518,0,0,66,3.94410980788607,5.85990862329242,0.836965146798511,-0.0271623023866203,0.0560336934627358,-0.543856436550082,-0.62,-1.04,9.73
7.5609067,90,90,2.842,0,0,66,3.91751834404814,5.91646959968919,0.836965146798511,-0.0267350302142465,0.0560336934627358,-0.543856436550082,-0.63,-1.03,9.73
7.6619318,90,90,2.7342,0,0,66,3.61150004694725,5.97978667352774,0.836904107916743,-0.0241713971800037,0.0560947323445034,-0.544039553195385,-0.66,-0.99,9.73
7.6811032,90,90,2.7048,0,0,66,3.55493907055049,5.95319520968981,0.836904107916743,-0.0234999694805591,0.0560947323445034,-0.544100592077153,-0.67,-0.98,9.73
7.7010807,90,90,2.695,0,0,66,3.49837809415372,5.92660374585187,0.836904107916743,-0.0228895806628823,0.0560947323445034,-0.544100592077153,-0.67,-0.97,9.73
7.798987,90,90,2.5578,0,0,66.0625,3.10920735681813,6.01989033224925,0.836843069034975,-0.0195934810474272,0.0560336934627358,-0.544283708722456,-0.71,-0.91,9.73
7.8190028,90,90,2.5382,0,0,66.0625,3.05264638042137,5.99329886841131,0.836843069034975,-0.018861014466215,0.0559726545809681,-0.544344747604224,-0.71,-0.9,9.73
7.8350685,90,90,2.5088,0,0,66.0625,2.96949394018666,6.02326838097014,0.836843069034975,-0.0184947811756089,0.0559726545809681,-0.544344747604224,-0.72,-0.9,9.73
7.9360817,90,90,2.3814,0,0,66.0625,2.60691466668901,6.05999399097076,0.836782030153208,-0.0150155649148508,0.055789537935665,-0.544588903131295,-0.75,-0.83,9.74
7.9581105,90,90,2.352,0,0,66.0625,2.46720125005754,6.06337203969165,0.836782030153208,-0.0143441372154062,0.055789537935665,-0.544588903131295,-0.76,-0.82,9.74
7.977021,90,90,2.3128,0,0,66.0625,2.41064027366077,6.03678057585372,0.836782030153208,-0.0136727095159617,0.0557284990538973,-0.544649942013062,-0.77,-0.81,9.74
8.0780078,90,90,2.1854,0,0,66.125,2.10462197655989,6.10009764969227,0.83672099127144,-0.0103155710187389,0.0555453824085943,-0.544833058658365,-0.8,-0.76,9.74
8.0970057,90,90,2.1756,0,0,66.125,2.02146953632519,6.1300671622511,0.83672099127144,-0.00976622108282976,0.0554843435268266,-0.544833058658365,-0.8,-0.75,9.74
8.1130368,90,90,2.1462,0,0,66.125,1.96490855992842,6.10347569841316,0.83672099127144,-0.00952206555575902,0.0554233046450589,-0.544894097540133,-0.8,-0.74,9.74
8.2240332,90,90,2.058,0,0,66.125,1.68548172666548,6.11023179585495,0.836659952389672,-0.00720258804858695,0.0551791491179882,-0.545016175303668,-0.82,-0.7,9.74
8.2420349,90,90,2.0384,0,0,66.125,1.62892075026871,6.08364033201701,0.836659952389672,-0.00689739363974852,0.0551181102362205,-0.545016175303668,-0.83,-0.7,9.74
8.2599598,90,90,2.0384,0,0,66.125,1.62892075026871,6.08364033201701,0.836659952389672,-0.00671427699444546,0.0550570713544528,-0.545016175303668,-0.83,-0.69,9.74
8.3579685,90,90,1.9992,0,0,66.125,1.43264635724047,6.06042691689997,0.83672099127144,-0.00518830495025331,0.0546908380638467,-0.545016175303668,-0.84,-0.66,9.74
8.3769221,90,90,1.9992,0,0,66.125,1.40605489340253,6.11698789329673,0.83672099127144,-0.00494414942318257,0.0546908380638467,-0.545016175303668,-0.84,-0.66,9.74
8.3921071,90,90,1.9992,0,0,66.125,1.40605489340253,6.11698789329673,0.83672099127144,-0.00488311054141488,0.0546908380638467,-0.545016175303668,-0.84,-0.66,9.74
8.4920177,90,90,2.0188,0,0,66.125,1.34949391700576,6.09039642945879,0.836782030153208,-0.00463895501434414,0.0545687603003113,-0.544894097540133,-0.84,-0.66,9.74
8.5108933,90,90,2.0286,0,0,66.125,1.40605489340253,6.11698789329673,0.836782030153208,-0.00476103277787951,0.0545077214185436,-0.544894097540133,-0.84,-0.66,9.74
8.5280838,90,90,2.0286,0,0,66.125,1.43264635724047,6.06042691689997,0.836782030153208,-0.00500518830495025,0.0544466825367759,-0.544894097540133,-0.84,-0.66,9.74
8.6370083,90,90,2.1266,0,0,66.0625,1.65551221410665,6.02707935562024,0.836904107916743,-0.00701947140328389,0.0543856436550082,-0.54471098089483,-0.81,-0.69,9.74
8.6550323,90,90,2.1364,0,0,66.0625,1.65551221410665,6.02707935562024,0.836904107916743,-0.00726362693035464,0.0543856436550082,-0.54471098089483,-0.81,-0.69,9.74
8.6734276,90,90,2.1658,0,0,66.0625,1.73866465434135,5.99710984306141,0.836904107916743,-0.00781297686626381,0.0543856436550082,-0.54471098089483,-0.8,-0.7,9.74
8.7759117,90,90,2.2736,0,0,66.0625,2.101243927839,5.9603842330608,0.836965146798511,-0.0111090764817189,0.0543856436550082,-0.544527864249527,-0.77,-0.76,9.74
8.7950161,90,90,2.303,0,0,66.0625,2.15780490423577,5.98697569689873,0.836965146798511,-0.011475309772325,0.0543856436550082,-0.544466825367759,-0.77,-0.76,9.74
8.8110036,90,90,2.3226,0,0,66.0625,2.24095734447047,5.9570061843399,0.837026185680278,-0.0121467374717695,0.0543856436550082,-0.544466825367759,-0.76,-0.78,9.74
8.9100506,90,90,2.4598,0,0,66.0625,2.60353661796812,5.92028057433929,0.837087224562046,-0.0156869926142953,0.0545687603003113,-0.544283708722456,-0.72,-0.84,9.74
8.9372863,90,90,2.4892,0,0,66,2.68668905820282,5.89031106178046,0.837087224562046,-0.0164194591955075,0.054629799182079,-0.544222669840689,-0.71,-0.85,9.74
8.9579959,90,90,2.5186,0,0,66,2.8264024748343,5.88693301305956,0.837087224562046,-0.0171519257767198,0.054629799182079,-0.544161630958921,-0.71,-0.87,9.74
9.0590066,90,90,2.6558,0,0,66,3.18898174833194,5.85020740305895,0.837087224562046,-0.0209363364463163,0.0549349935909174,-0.543978514313618,-0.67,-0.92,9.73
9.0771613,90,90,2.6656,0,0,66,3.24554272472871,5.87679886689689,0.837087224562046,-0.0212415308551547,0.0549349935909174,-0.543978514313618,-0.67,-0.94,9.73
9.0931838,90,90,2.695,0,0,66,3.32869516496342,5.84682935433806,0.837087224562046,-0.0219129585545993,0.0549960324726851,-0.54391747543185,-0.66,-0.94,9.73
9.1930372,90,90,2.7832,0,0,66,3.66468297462313,5.86666472073421,0.837087224562046,-0.0249038637612159,0.0553012268815235,-0.543795397668315,-0.64,-0.99,9.73
9.2120348,90,90,2.8028,0,0,66,3.74783541485783,5.83669520817538,0.837087224562046,-0.0253921748153574,0.0553622657632912,-0.543795397668315,-0.63,-1,9.73
9.2290443,90,90,2.8126,0,0,66,3.8043963912546,5.86328667201331,0.837087224562046,-0.0258804858694989,0.0554233046450589,-0.543734358786547,-0.63,-1.01,9.73
9.3271095,90,90,2.8616,0,0,66,4.00067078428284,5.88650008713036,0.837026185680278,-0.0277116523225295,0.0559726545809681,-0.543734358786547,-0.62,-1.04,9.73
9.3460028,90,90,2.8714,0,0,66,4.00067078428284,5.88650008713036,0.837026185680278,-0.0279558078496002,0.0560947323445034,-0.543673319904779,-0.62,-1.05,9.72
9.3620227,90,90,2.8714,0,0,66,4.05723176067961,5.9130915509683,0.837026185680278,-0.0280778856131356,0.0560947323445034,-0.543673319904779,-0.62,-1.05,9.72
9.4621472,90,90,2.8714,0,0,66,4.05723176067961,5.9130915509683,0.836965146798511,-0.0281389244949033,0.0562168101080388,-0.543673319904779,-0.62,-1.06,9.72
9.4801855,90,90,2.8616,0,0,66,4.05723176067961,5.9130915509683,0.836965146798511,-0.0280168467313679,0.0562778489898065,-0.543734358786547,-0.62,-1.06,9.72
9.4951799,90,90,2.8616,0,0,66,4.05723176067961,5.9130915509683,0.836965146798511,-0.0278947689678325,0.0563999267533419,-0.543734358786547,-0.62,-1.05,9.72
9.5143691,90,90,2.8616,0,0,66,4.05723176067961,5.9130915509683,0.836965146798511,-0.0278337300860648,0.0563999267533419,-0.543734358786547,-0.62,-1.05,9.72
9.6239818,90,90,2.8028,0,0,66,3.83436590381343,5.94643911224802,0.836965146798511,-0.0261246413965696,0.0565830433986449,-0.543795397668315,-0.65,-1.02,9.73
9.6430318,90,90,2.7832,0,0,66,3.80777443997549,6.00300008864479,0.836965146798511,-0.0256973692241958,0.0566440822804126,-0.543856436550082,-0.65,-1.02,9.73
9.6600875,90,90,2.7734,0,0,66,3.75121346357873,5.97640862480685,0.836965146798511,-0.025270097051822,0.0566440822804126,-0.543856436550082,-0.66,-1.01,9.73
9.7580453,90,90,2.6656,0,0,66,3.44519516647784,6.0397256986454,0.836904107916743,-0.0225843862540438,0.0567051211621803,-0.544039553195385,-0.68,-0.97,9.73
9.7791097,90,90,2.6558,0,0,66,3.36204272624314,6.06969521120423,0.836904107916743,-0.0220350363181347,0.0566440822804126,-0.544100592077153,-0.69,-0.96,9.73
9.7952573,90,90,2.6264,0,0,66,3.30548174984637,6.0431037473663,0.836904107916743,-0.0214246475004578,0.0567051211621803,-0.544100592077153,-0.7,-0.95,9.73
9.9020997,90,90,2.4892,0,0,66.0625,2.94290247634872,6.07982935736691,0.836843069034975,-0.0181895867667704,0.0566440822804126,-0.544283708722456,-0.73,-0.89,9.73
9.9201495,90,90,2.4598,0,0,66.0625,2.85975003611402,6.10979886992574,0.836843069034975,-0.0175181590673259,0.0565830433986449,-0.544344747604224,-0.74,-0.89,9.73
9.9351518,90,90,2.45,0,0,66.0625,2.77659759587931,6.13976838248457,0.836843069034975,-0.0168467313678813,0.0565830433986449,-0.544344747604224,-0.74,-0.88,9.73
10.0359827,90,90,2.3226,0,0,66.0625,2.4406097862196,6.11993301608842,0.836782030153208,-0.0136727095159617,0.0563999267533419,-0.544527864249527,-0.77,-0.82,9.74
10.0560381,90,90,2.303,0,0,66.0625,2.3574573459849,6.14990252864725,0.836782030153208,-0.0130623206982848,0.0563388878715742,-0.544588903131295,-0.78,-0.81,9.74
10.0721012,90,90,2.2736,0,0,66.0625,2.3574573459849,6.14990252864725,0.836782030153208,-0.0125129707623756,0.0563388878715742,-0.544649942013062,-0.79,-0.8,9.74
10.1729843,90,90,2.1756,0,0,66.125,2.05143904888402,6.2132196024858,0.83672099127144,-0.00994933772813282,0.0560947323445034,-0.544772019776598,-0.81,-0.76,9.74
10.1919603,90,90,2.1462,0,0,66.125,1.99487807248725,6.18662813864787,0.83672099127144,-0.00970518220106208,0.0560947323445034,-0.544772019776598,-0.81,-0.75,9.74
10.2081142,90,90,2.1364,0,0,66.125,1.93831709609048,6.16003667480993,0.83672099127144,-0.00952206555575902,0.0560947323445034,-0.544772019776598,-0.81,-0.75,9.74
10.307169,90,90,2.0678,0,0,66.125,1.79860367945901,6.16341472353082,0.83672099127144,-0.0078740157480315,0.0557284990538973,-0.544894097540133,-0.83,-0.72,9.74
10.326057,90,90,2.058,0,0,66.125,1.74204270306224,6.13682325969288,0.83672099127144,-0.00756882133919307,0.0555453824085943,-0.544894097540133,-0.83,-0.71,9.74
10.3432354,90,90,2.0482,0,0,66.125,1.74204270306224,6.13682325969288,0.83672099127144,-0.00750778245742538,0.0554843435268266,-0.544894097540133,-0.83,-0.71,9.74
10.4400221,90,90,2.0286,0,0,66.125,1.60232928643077,6.14020130841378,0.83672099127144,-0.00659219923091009,0.0553012268815235,-0.544894097540133,-0.83,-0.69,9.74
10.4600612,90,90,2.0286,0,0,66.125,1.60232928643077,6.14020130841378,0.83672099127144,-0.00640908258560703,0.0552401879997558,-0.544894097540133,-0.83,-0.69,9.74
10.4760585,90,90,2.0286,0,0,66.125,1.60232928643077,6.14020130841378,0.83672099127144,-0.00622596594030397,0.0552401879997558,-0.544894097540133,-0.83,-0.69,9.74
10.5750455,90,90,2.058,0,0,66.125,1.62892075026871,6.08364033201701,0.836782030153208,-0.00647012146737472,0.0549349935909174,-0.544772019776598,-0.83,-0.69,9.74
10.5930622,90,90,2.0678,0,0,66.125,1.62892075026871,6.08364033201701,0.836843069034975,-0.0065311603491424,0.0549349935909174,-0.544772019776598,-0.83,-0.69,9.74
10.6081805,90,90,2.0776,0,0,66.125,1.62892075026871,6.08364033201701,0.836843069034975,-0.00665323811267778,0.0548739547091497,-0.544772019776598,-0.82,-0.69,9.74
10.6240657,90,90,2.0874,0,0,66.0625,1.62892075026871,6.08364033201701,0.836843069034975,-0.00701947140328389,0.054812915827382,-0.544772019776598,-0.82,-0.7,9.74
10.7261037,90,90,2.1756,0,0,66.0625,1.87837807097282,5.99373179434052,0.836904107916743,-0.00897271561984984,0.054629799182079,-0.544588903131295,-0.8,-0.73,9.74
10.7451586,90,90,2.1854,0,0,66.0625,1.93493904736959,6.02032325817846,0.836965146798511,-0.00952206555575902,0.054629799182079,-0.544588903131295,-0.79,-0.73,9.74
10.7601809,90,90,2.2148,0,0,66.0625,1.93493904736959,6.02032325817846,0.836965146798511,-0.00976622108282976,0.054629799182079,-0.544588903131295,-0.79,-0.74,9.74
10.8591056,90,90,2.3226,0,0,66.0625,2.29751832086724,5.98359764817784,0.837026185680278,-0.0126960874076787,0.054629799182079,-0.544405786485992,-0.76,-0.79,9.74
10.8791379,90,90,2.352,0,0,66.0625,2.32410978470518,5.92703667178107,0.837026185680278,-0.0133064762253556,0.0546908380638467,-0.544405786485992,-0.75,-0.8,9.74
10.8972783,90,90,2.3618,0,0,66.0625,2.38067076110194,5.95362813561901,0.837026185680278,-0.0139168650430324,0.0546908380638467,-0.544344747604224,-0.74,-0.81,9.74
11.0110808,90,90,2.5088,0,0,66,2.8264024748343,5.88693301305956,0.837087224562046,-0.0175181590673259,0.0549349935909174,-0.544161630958921,-0.71,-0.87,9.74
11.0301266,90,90,2.5382,0,0,66,2.93952442762783,5.94011594073544,0.837087224562046,-0.0181895867667704,0.0549960324726851,-0.544100592077153,-0.7,-0.88,9.74
11.0460822,90,90,2.548,0,0,66,3.02267686786254,5.91014642817661,0.837087224562046,-0.0187999755844473,0.0549960324726851,-0.544100592077153,-0.7,-0.89,9.74
11.153084,90,90,2.6656,0,0,66,3.35866467752225,5.92998179457276,0.837087224562046,-0.02215711408167,0.0553622657632912,-0.54391747543185,-0.67,-0.95,9.73
11.1710861,90,90,2.6852,0,0,66,3.44181711775695,5.90001228201393,0.837087224562046,-0.0224623084905085,0.0554233046450589,-0.543856436550082,-0.67,-0.95,9.73
11.1882209,90,90,2.7048,0,0,66,3.44181711775695,5.90001228201393,0.837087224562046,-0.0230116584264176,0.0554843435268266,-0.543856436550082,-0.66,-0.96,9.73
11.3000234,90,90,2.793,0,0,66,3.77780492741666,5.91984764841008,0.837087224562046,-0.0258804858694989,0.0559116156992004,-0.543734358786547,-0.64,-1.02,9.73
11.3201194,90,90,2.8028,0,0,66,3.86095736765137,5.88987813585125,0.837087224562046,-0.0261856802783373,0.0560336934627358,-0.543734358786547,-0.64,-1.02,9.73
11.3360222,90,90,2.8126,0,0,66,3.86095736765137,5.88987813585125,0.837026185680278,-0.0263687969236404,0.0560947323445034,-0.543734358786547,-0.63,-1.03,9.73
11.4361906,90,90,2.842,0,0,66,3.9740793204449,5.94306106352713,0.837026185680278,-0.0274674967954587,0.0564609656351096,-0.543673319904779,-0.63,-1.05,9.72
11.4551161,90,90,2.842,0,0,66,3.9740793204449,5.94306106352713,0.837026185680278,-0.0274674967954587,0.0564609656351096,-0.543673319904779,-0.63,-1.05,9.72
11.4712854,90,90,2.842,0,0,66,3.9740793204449,5.94306106352713,0.837026185680278,-0.0274674967954587,0.0564609656351096,-0.543673319904779,-0.63,-1.05,9.72
11.5702115,90,90,2.8224,0,0,66,3.94748785660696,5.99962203992389,0.836965146798511,-0.0271012635048526,0.0568882378074834,-0.543734358786547,-0.64,-1.05,9.72
11.5891561,90,90,2.8224,0,0,66,3.94748785660696,5.99962203992389,0.836965146798511,-0.0268571079777818,0.0569492766892511,-0.543734358786547,-0.64,-1.04,9.72
11.6051042,90,90,2.8126,0,0,66,3.94748785660696,5.99962203992389,0.836965146798511,-0.0267350302142465,0.0569492766892511,-0.543734358786547,-0.64,-1.04,9.72
11.7061664,90,90,2.744,0,0,66,3.78118297613756,6.05956106504155,0.836965146798511,-0.0250259415247513,0.0571934322163218,-0.543856436550082,-0.67,-1.02,9.73
11.7240916,90,90,2.7342,0,0,66,3.69803053590285,6.08953057760039,0.836965146798511,-0.0245986693523775,0.0572544710980895,-0.543856436550082,-0.67,-1.01,9.73
11.7400497,90,90,2.7146,0,0,66,3.64146955950608,6.06293911376245,0.836904107916743,-0.0243545138253067,0.0572544710980895,-0.543856436550082,-0.68,-1,9.73
11.8411232,90,90,2.6264,0,0,66,3.39201223880197,6.15284765143894,0.836904107916743,-0.0217908807910639,0.0573765488616249,-0.544039553195385,-0.7,-0.97,9.73
11.8592822,90,90,2.597,0,0,66,3.2522988221705,6.15622570015983,0.836904107916743,-0.0209363364463163,0.0574375877433925,-0.544100592077153,-0.71,-0.95,9.73
11.8753109,90,90,2.5872,0,0,66,3.2522988221705,6.15622570015983,0.836904107916743,-0.0206921809192456,0.0573765488616249,-0.544100592077153,-0.72,-0.95,9.73
11.9711693,90,90,2.4598,0,0,66.0625,2.88971954867285,6.19295131016045,0.836843069034975,-0.0177012757126289,0.0573765488616249,-0.544283708722456,-0.75,-0.9,9.73
11.9983102,90,90,2.4402,0,0,66.0625,2.88971954867285,6.19295131016045,0.836843069034975,-0.0173960813037905,0.0573155099798572,-0.544283708722456,-0.75,-0.89,9.73
12.0131556,90,90,2.4206,0,0,66.0625,2.75000613204138,6.19632935888134,0.836843069034975,-0.0164804980772752,0.0573155099798572,-0.544344747604224,-0.76,-0.88,9.73
12.1110808,90,90,2.303,0,0,66.0625,2.4439878349405,6.25964643271989,0.836782030153208,-0.013611670634194,0.0570713544527864,-0.544527864249527,-0.79,-0.83,9.73
12.1294395,90,90,2.2834,0,0,66.0625,2.38742685854373,6.23305496888196,0.836782030153208,-0.0130623206982848,0.0570103155710187,-0.544527864249527,-0.79,-0.82,9.73
12.1451533,90,90,2.2736,0,0,66.0625,2.38742685854373,6.23305496888196,0.836782030153208,-0.0128181651712141,0.0570103155710187,-0.544527864249527,-0.79,-0.81,9.73
12.1603153,90,90,2.254,0,0,66.0625,2.30427441830902,6.26302448144078,0.836782030153208,-0.0123298541170726,0.0569492766892511,-0.544588903131295,-0.8,-0.81,9.74
12.2602616,90,90,2.1658,0,0,66.125,2.05143904888402,6.2132196024858,0.83672099127144,-0.0101324543734359,0.0566440822804126,-0.54471098089483,-0.82,-0.77,9.74
12.278231,90,90,2.1462,0,0,66.125,1.96828660864931,6.24318911504463,0.83672099127144,-0.00976622108282976,0.0565830433986449,-0.54471098089483,-0.82,-0.76,9.74
12.2941572,90,90,2.1364,0,0,66.125,1.96828660864931,6.24318911504463,0.83672099127144,-0.0095831044375267,0.0565830433986449,-0.54471098089483,-0.82,-0.76,9.74
12.3112306,90,90,2.1168,0,0,66.125,1.96828660864931,6.24318911504463,0.83672099127144,-0.00946102667399133,0.0565220045168773,-0.544772019776598,-0.82,-0.75,9.74
12.4082552,90,90,2.0776,0,0,66.125,1.85516465585578,6.19000618736876,0.83672099127144,-0.00836232680217298,0.0560947323445034,-0.544833058658365,-0.83,-0.73,9.74
12.4271134,90,90,2.0678,0,0,66.125,1.79860367945901,6.16341472353082,0.83672099127144,-0.0083012879204053,0.0559726545809681,-0.544833058658365,-0.83,-0.73,9.74
12.4433583,90,90,2.0678,0,0,66.125,1.79860367945901,6.16341472353082,0.83672099127144,-0.00824024903863761,0.0559726545809681,-0.544833058658365,-0.83,-0.73,9.74
12.5570922,90,90,2.0678,0,0,66.125,1.79860367945901,6.16341472353082,0.83672099127144,-0.00836232680217298,0.055789537935665,-0.544833058658365,-0.82,-0.73,9.74
12.5760857,90,90,2.0678,0,0,66.125,1.85516465585578,6.19000618736876,0.83672099127144,-0.00848440456570836,0.0557284990538973,-0.544833058658365,-0.82,-0.73,9.74
12.5921269,90,90,2.0678,0,0,66.125,1.88175611969372,6.13344521097199,0.83672099127144,-0.0087285600927791,0.0556674601721296,-0.544772019776598,-0.82,-0.73,9.74
12.6932335,90,90,2.1168,0,0,66.125,2.04806100016312,6.07350618585433,0.836782030153208,-0.0101934932552036,0.0554233046450589,-0.54471098089483,-0.8,-0.75,9.74
12.7121324,90,90,2.1266,0,0,66.0625,2.04806100016312,6.07350618585433,0.836782030153208,-0.0106207654275774,0.0553622657632912,-0.54471098089483,-0.79,-0.76,9.74
12.7282515,90,90,2.1364,0,0,66.0625,2.10462197655989,6.10009764969227,0.836843069034975,-0.0110480375999512,0.0553012268815235,-0.54471098089483,-0.79,-0.77,9.74
12.830161,90,90,2.2344,0,0,66.0625,2.41064027366077,6.03678057585372,0.836843069034975,-0.0134895928706586,0.0552401879997558,-0.544527864249527,-0.76,-0.81,9.74
12.8491628,90,90,2.254,0,0,66.0625,2.49379271389548,6.00681106329488,0.836904107916743,-0.0140389428065678,0.0552401879997558,-0.544527864249527,-0.75,-0.82,9.74
12.8681795,90,90,2.2736,0,0,66.0625,2.49379271389548,6.00681106329488,0.836904107916743,-0.014588292742477,0.0552401879997558,-0.544527864249527,-0.75,-0.82,9.74
12.9810703,90,90,2.401,0,0,66.0625,2.85637198739313,5.97008545329427,0.836965146798511,-0.017884392357932,0.0553012268815235,-0.544344747604224,-0.71,-0.88,9.74
13.0010733,90,90,2.4206,0,0,66.0625,2.93952442762783,5.94011594073544,0.836965146798511,-0.0184337422938412,0.0553622657632912,-0.544283708722456,-0.71,-0.89,9.73
13.0221159,90,90,2.45,0,0,66.0625,3.02267686786254,5.91014642817661,0.836965146798511,-0.019044131111518,0.0553622657632912,-0.544222669840689,-0.7,-0.9,9.73
13.1261012,90,90,2.5578,0,0,66,3.35866467752225,5.92998179457276,0.836965146798511,-0.0223402307269731,0.0556674601721296,-0.544039553195385,-0.67,-0.96,9.73
13.1444366,90,90,2.5774,0,0,66,3.41522565391901,5.9565732584107,0.836965146798511,-0.0225843862540438,0.0556674601721296,-0.544039553195385,-0.67,-0.97,9.73
13.1591919,90,90,2.597,0,0,66,3.49837809415372,5.92660374585187,0.836965146798511,-0.023133736189953,0.055789537935665,-0.543978514313618,-0.66,-0.97,9.73
13.1773048,90,90,2.6166,0,0,66,3.49837809415372,5.92660374585187,0.836965146798511,-0.0236830861258622,0.0558505768174327,-0.543978514313618,-0.66,-0.98,9.73
13.2761553,90,90,2.7048,0,0,66,3.83436590381343,5.94643911224802,0.836965146798511,-0.0260025636330342,0.0562778489898065,-0.543856436550082,-0.64,-1.02,9.73
13.2962535,90,90,2.7244,0,0,66,3.83436590381343,5.94643911224802,0.836965146798511,-0.0261856802783373,0.0562778489898065,-0.543795397668315,-0.64,-1.02,9.73
13.3113053,90,90,2.7244,0,0,66,3.8909268802102,5.97303057608596,0.836965146798511,-0.0265519135689434,0.0563999267533419,-0.543795397668315,-0.64,-1.03,9.73
13.4103138,90,90,2.7832,0,0,66,4.00404883300373,6.02621350376183,0.836965146798511,-0.0277726912042971,0.0571323933345541,-0.543734358786547,-0.64,-1.06,9.72
13.4284845,90,90,2.793,0,0,66,4.0606098094005,6.05280496759977,0.836904107916743,-0.0279558078496002,0.0572544710980895,-0.543673319904779,-0.64,-1.06,9.72
13.4433,90,90,2.793,0,0,66,4.0606098094005,6.05280496759977,0.836904107916743,-0.0280168467313679,0.0573155099798572,-0.543673319904779,-0.64,-1.07,9.72
13.4602101,90,90,2.8028,0,0,66,4.0606098094005,6.05280496759977,0.836904107916743,-0.0281999633766709,0.0573765488616249,-0.543673319904779,-0.64,-1.07,9.72
13.561179,90,90,2.8028,0,0,66,4.11717078579727,6.07939643143771,0.836904107916743,-0.0282610022584386,0.0574986266251602,-0.543673319904779,-0.64,-1.07,9.72
13.580255,90,90,2.8028,0,0,66,4.11717078579727,6.07939643143771,0.836904107916743,-0.0281999633766709,0.0576207043886956,-0.543673319904779,-0.64,-1.07,9.72
13.5972293,90,90,2.8028,0,0,66,4.11717078579727,6.07939643143771,0.836904107916743,-0.0280778856131356,0.057742782152231,-0.543673319904779,-0.64,-1.07,9.72
13.7031262,90,90,2.7636,0,0,66,3.95086590532786,6.13933545655537,0.836843069034975,-0.0271012635048526,0.0581700543246048,-0.543734358786547,-0.66,-1.06,9.72
13.7231557,90,90,2.7538,0,0,66,3.95086590532786,6.13933545655537,0.836843069034975,-0.0267350302142465,0.0582310932063725,-0.543795397668315,-0.67,-1.05,9.72
13.7382358,90,90,2.744,0,0,66,3.95086590532786,6.13933545655537,0.836843069034975,-0.0266129524507111,0.0582310932063725,-0.543795397668315,-0.67,-1.05,9.72
13.8371756,90,90,2.6754,0,0,66,3.70140858462374,6.22924399423186,0.836843069034975,-0.0245376304706098,0.0584752487334432,-0.54391747543185,-0.69,-1.02,9.72
13.8584514,90,90,2.646,0,0,66,3.64484760822698,6.20265253039392,0.836782030153208,-0.0238662027711652,0.0585362876152109,-0.54391747543185,-0.7,-1.01,9.72
13.8823828,90,90,2.6264,0,0,66,3.56169516799227,6.23262204295275,0.836782030153208,-0.0233168528352561,0.0585362876152109,-0.543978514313618,-0.71,-1,9.72
13.9871337,90,90,2.5186,0,0,66.0625,3.25567687089139,6.2959391167913,0.836782030153208,-0.0206921809192456,0.0585973264969786,-0.544161630958921,-0.74,-0.96,9.73
14.00715,90,90,2.4892,0,0,66.0625,3.19911589449462,6.26934765295336,0.836782030153208,-0.019837636574498,0.0585973264969786,-0.544161630958921,-0.74,-0.95,9.73
14.0334021,90,90,2.4696,0,0,66.0625,3.11596345425992,6.2993171655122,0.83672099127144,-0.0192882866385888,0.0585362876152109,-0.544222669840689,-0.75,-0.94,9.73
14.1352405,90,90,2.352,0,0,66.0625,2.75338418076227,6.33604277551281,0.83672099127144,-0.0165415369590429,0.0583531709699078,-0.544405786485992,-0.78,-0.89,9.73
14.1553062,90,90,2.3226,0,0,66.0625,2.75338418076227,6.33604277551281,0.83672099127144,-0.0159921870231337,0.0583531709699078,-0.544405786485992,-0.78,-0.88,9.73
14.1721969,90,90,2.3128,0,0,66.0625,2.67023174052757,6.36601228807164,0.83672099127144,-0.0155038759689922,0.0582921320881401,-0.544466825367759,-0.79,-0.87,9.73
14.2702521,90,90,2.2148,0,0,66.0625,2.41739637110256,6.31620740911666,0.836659952389672,-0.0131843984618202,0.0580479765610694,-0.544588903131295,-0.81,-0.83,9.73
14.2927705,90,90,2.1952,0,0,66.0625,2.33424393086785,6.34617692167549,0.836659952389672,-0.0128181651712141,0.0579869376793017,-0.544588903131295,-0.81,-0.82,9.73
14.3182103,90,90,2.1756,0,0,66.125,2.27768295447109,6.31958545783755,0.836659952389672,-0.0122688152353049,0.0578038210339987,-0.544649942013062,-0.81,-0.81,9.73
14.4261764,90,90,2.1168,0,0,66.125,2.16456100167755,6.26640253016168,0.836659952389672,-0.0109869987181835,0.0571323933345541,-0.54471098089483,-0.82,-0.79,9.74
14.4451269,90,90,2.107,0,0,66.125,2.16456100167755,6.26640253016168,0.836659952389672,-0.0108038820728804,0.0570103155710187,-0.54471098089483,-0.82,-0.78,9.74
14.4610946,90,90,2.107,0,0,66.125,2.10800002528079,6.23981106632374,0.836659952389672,-0.0107428431911127,0.0570103155710187,-0.544772019776598,-0.82,-0.78,9.74
14.5622044,90,90,2.0874,0,0,66.125,2.10800002528079,6.23981106632374,0.836659952389672,-0.0105597265458097,0.0568271989257157,-0.544772019776598,-0.82,-0.78,9.74
14.5801856,90,90,2.0874,0,0,66.125,2.10800002528079,6.23981106632374,0.836659952389672,-0.0106207654275774,0.056766160043948,-0.544772019776598,-0.81,-0.78,9.74
14.5961963,90,90,2.0874,0,0,66.125,2.10800002528079,6.23981106632374,0.836659952389672,-0.010498687664042,0.0566440822804126,-0.544772019776598,-0.81,-0.77,9.74
14.6942792,90,90,2.107,0,0,66.0625,2.07803051272195,6.15665862608904,0.836782030153208,-0.0103766099005066,0.0560947323445034,-0.54471098089483,-0.8,-0.76,9.74
14.714465,90,90,2.1168,0,0,66.0625,2.07803051272195,6.15665862608904,0.836782030153208,-0.010498687664042,0.0559726545809681,-0.544649942013062,-0.8,-0.76,9.74
14.7303721,90,90,2.1266,0,0,66.0625,2.07803051272195,6.15665862608904,0.836782030153208,-0.0105597265458097,0.0559116156992004,-0.544649942013062,-0.8,-0.77,9.74
14.829257,90,90,2.1952,0,0,66.0625,2.1877744167946,6.07012813713344,0.836904107916743,-0.0119025819446988,0.0554843435268266,-0.544527864249527,-0.78,-0.78,9.74
14.8473877,90,90,2.205,0,0,66.0625,2.2709268570293,6.04015862457461,0.836904107916743,-0.0122688152353049,0.0553622657632912,-0.544527864249527,-0.77,-0.79,9.74
14.8654152,90,90,2.2344,0,0,66.0625,2.2709268570293,6.04015862457461,0.836904107916743,-0.012635048525911,0.0553012268815235,-0.544466825367759,-0.77,-0.79,9.74
14.9692122,90,90,2.3324,0,0,66.0625,2.57694515413018,5.97684155073605,0.836965146798511,-0.0150155649148508,0.0551791491179882,-0.544344747604224,-0.74,-0.83,9.74
14.9882783,90,90,2.3422,0,0,66.0625,2.57694515413018,5.97684155073605,0.836965146798511,-0.0152597204419215,0.0551791491179882,-0.544344747604224,-0.74,-0.83,9.74
15.0044527,90,90,2.3716,0,0,66.0625,2.71665857076165,5.97346350201516,0.837026185680278,-0.0160532259049014,0.0551791491179882,-0.544283708722456,-0.73,-0.85,9.74
15.107307,90,90,2.4696,0,0,66,3.02267686786254,5.91014642817661,0.837026185680278,-0.018861014466215,0.0552401879997558,-0.544161630958921,-0.7,-0.89,9.73
15.12629,90,90,2.4892,0,0,66,3.0792378442593,5.93673789201455,0.837026185680278,-0.0194103644021242,0.0552401879997558,-0.544100592077153,-0.69,-0.9,9.73
15.1473868,90,90,2.5186,0,0,66,3.0792378442593,5.93673789201455,0.837026185680278,-0.0197155588109626,0.0553012268815235,-0.544100592077153,-0.69,-0.91,9.73
15.2452913,90,90,2.6068,0,0,66,3.35866467752225,5.92998179457276,0.837087224562046,-0.0223402307269731,0.0555453824085943,-0.54391747543185,-0.67,-0.95,9.73
15.2631371,90,90,2.6264,0,0,66,3.49837809415372,5.92660374585187,0.837087224562046,-0.0230726973081853,0.0556674601721296,-0.54391747543185,-0.66,-0.97,9.73
15.2802952,90,90,2.6362,0,0,66,3.49837809415372,5.92660374585187,0.837087224562046,-0.0233168528352561,0.0557284990538973,-0.543856436550082,-0.66,-0.97,9.73
15.3852583,90,90,2.7146,0,0,66,3.75121346357873,5.97640862480685,0.837026185680278,-0.0252090581700543,0.0562168101080388,-0.543795397668315,-0.65,-1.01,9.73
15.4042293,90,90,2.7244,0,0,66,3.75121346357873,5.97640862480685,0.837026185680278,-0.0255142525788928,0.0563999267533419,-0.543734358786547,-0.65,-1.02,9.73
15.4245741,90,90,2.7342,0,0,66,3.80777443997549,6.00300008864479,0.837026185680278,-0.0259415247512666,0.0565830433986449,-0.543734358786547,-0.65,-1.02,9.73
15.5383465,90,90,2.7734,0,0,66,3.94748785660696,5.99962203992389,0.836965146798511,-0.0271012635048526,0.0570713544527864,-0.543673319904779,-0.64,-1.05,9.72
15.5584359,90,90,2.7734,0,0,66,4.00404883300373,6.02621350376183,0.836965146798511,-0.0271623023866203,0.0571323933345541,-0.543673319904779,-0.64,-1.05,9.72
15.574273,90,90,2.7734,0,0,66,4.00404883300373,6.02621350376183,0.836965146798511,-0.027223341268388,0.0571323933345541,-0.543673319904779,-0.64,-1.05,9.72
15.6741676,90,90,2.7636,0,0,66,3.9774573691658,6.0827744801586,0.836965146798511,-0.0269791857413172,0.0576207043886956,-0.543734358786547,-0.65,-1.05,9.72
15.6944193,90,90,2.7636,0,0,66,3.9774573691658,6.0827744801586,0.836904107916743,-0.0268571079777818,0.057742782152231,-0.543734358786547,-0.66,-1.05,9.72
15.7102595,90,90,2.7538,0,0,66,3.95086590532786,6.13933545655537,0.836904107916743,-0.0267350302142465,0.0578038210339987,-0.543734358786547,-0.66,-1.05,9.72
15.8091451,90,90,2.7048,0,0,66,3.78456102485845,6.19927448167303,0.836904107916743,-0.0253921748153574,0.0582310932063725,-0.543795397668315,-0.68,-1.03,9.72
15.8313361,90,90,2.695,0,0,66,3.72800004846168,6.17268301783509,0.836843069034975,-0.0250259415247513,0.0582921320881401,-0.543795397668315,-0.69,-1.02,9.72
15.8482665,90,90,2.6852,0,0,66,3.72800004846168,6.17268301783509,0.836843069034975,-0.0246597082341452,0.0583531709699078,-0.543856436550082,-0.69,-1.02,9.72
15.9522839,90,90,2.597,0,0,66,3.47854272775757,6.26259155551158,0.836843069034975,-0.0222791918452054,0.0585973264969786,-0.543978514313618,-0.72,-0.99,9.72
15.9723946,90,90,2.5774,0,0,66,3.4219817513608,6.23600009167364,0.836843069034975,-0.0217908807910639,0.0585973264969786,-0.544039553195385,-0.72,-0.98,9.72
15.989231,90,90,2.5578,0,0,66,3.3388293111261,6.26596960423247,0.836782030153208,-0.0215467252639932,0.0585973264969786,-0.544039553195385,-0.73,-0.97,9.73
16.0903068,90,90,2.4598,0,0,66.0625,3.08937199042198,6.35587814190896,0.836782030153208,-0.0187389367026796,0.0586583653787463,-0.544222669840689,-0.76,-0.93,9.73
16.1103437,90,90,2.45,0,0,66.0625,3.03281101402521,6.32928667807102,0.836782030153208,-0.0181895867667704,0.0586583653787463,-0.544222669840689,-0.76,-0.92,9.73
16.126464,90,90,2.4206,0,0,66.0625,2.94965857379051,6.35925619062986,0.836782030153208,-0.0179454312396997,0.0585973264969786,-0.544222669840689,-0.77,-0.91,9.73
16.2262847,90,90,2.3324,0,0,66.0625,2.67023174052757,6.36601228807164,0.83672099127144,-0.0155038759689922,0.0584142098516755,-0.544405786485992,-0.79,-0.87,9.73
16.244504,90,90,2.303,0,0,66.0625,2.67023174052757,6.36601228807164,0.83672099127144,-0.0150766037966184,0.0583531709699078,-0.544405786485992,-0.79,-0.87,9.73
16.2613268,90,90,2.2932,0,0,66.0625,2.55710978773403,6.31282936039577,0.83672099127144,-0.014588292742477,0.0583531709699078,-0.544466825367759,-0.8,-0.86,9.73
16.3583616,90,90,2.2148,0,0,66.0625,2.39080490726462,6.37276838551343,0.836659952389672,-0.0126960874076787,0.0580479765610694,-0.544588903131295,-0.81,-0.82,9.73
16.3792781,90,90,2.205,0,0,66.0625,2.33424393086785,6.34617692167549,0.836659952389672,-0.0125740096441433,0.0579869376793017,-0.544588903131295,-0.81,-0.82,9.73
16.3974472,90,90,2.1854,0,0,66.0625,2.33424393086785,6.34617692167549,0.836659952389672,-0.0123908929988403,0.0578648599157663,-0.544588903131295,-0.81,-0.81,9.73
16.503222,90,90,2.1364,0,0,66.125,2.16456100167755,6.26640253016168,0.83672099127144,-0.0111701153634865,0.0571323933345541,-0.544649942013062,-0.81,-0.79,9.74
16.5236021,90,90,2.1266,0,0,66.125,2.16456100167755,6.26640253016168,0.83672099127144,-0.0110480375999512,0.0570713544527864,-0.544649942013062,-0.81,-0.79,9.74
16.5503497,90,90,2.1266,0,0,66.125,2.10800002528079,6.23981106632374,0.83672099127144,-0.0108649209546481,0.0569492766892511,-0.54471098089483,-0.81,-0.78,9.74
16.65131,90,90,2.1168,0,0,66.125,2.10800002528079,6.23981106632374,0.83672099127144,-0.0109869987181835,0.056766160043948,-0.54471098089483,-0.81,-0.78,9.74
