Time (s),Setpoint (deg),Motor Position (deg),Tension 1 (N),Tension 2 (N),Tension 3 (N),Heading (deg),Pitch (deg),Roll (deg),Quaternion W,Quaternion X,Quaternion Y,Quaternion Z,Gravity X,Gravity Y,Gravity Z
0,0,0,0,0,0,0,0,0,0,0,0,0,0,0,0
0.0217043,0,0.45,0,0.9506,0,85.8125,4.40744078711605,6.41502850407275,0.730696453640969,-0.0200817921015687,0.065128486846121,-0.679362754074345,-0.66,-1.15,9.71
0.1543255,0,0,0,0.9212,0,85.8125,4.40744078711605,6.41502850407275,0.730696453640969,-0.0200817921015687,0.065128486846121,-0.679362754074345,-0.66,-1.15,9.71
0.1773201,0,0,0,0.9212,0,85.8125,4.40744078711605,6.41502850407275,0.730696453640969,-0.0200817921015687,0.065128486846121,-0.679362754074345,-0.66,-1.15,9.71
0.1972427,0,0,0,0.9212,0,85.8125,4.40744078711605,6.41502850407275,0.730696453640969,-0.0200817921015687,0.065128486846121,-0.679362754074345,-0.66,-1.15,9.71
0.628186,0,0,0,0.9408,0,85.8125,4.40744078711605,6.41502850407275,0.730696453640969,-0.0200817921015687,0.065128486846121,-0.679362754074345,-0.66,-1.15,9.71
0.6521286,0,0,0,0.9408,0,85.8125,4.40744078711605,6.41502850407275,0.730696453640969,-0.0200817921015687,0.065128486846121,-0.679362754074345,-0.66,-1.15,9.71
0.6700852,0,0,0,0.9408,0,85.8125,4.40744078711605,6.41502850407275,0.730696453640969,-0.0200817921015687,0.065128486846121,-0.679362754074345,-0.66,-1.15,9.71
0.768053,0,0,0,0.9506,0,85.8125,4.40744078711605,6.41502850407275,0.730696453640969,-0.0200817921015687,0.065128486846121,-0.679362754074345,-0.66,-1.15,9.71
0.7871776,0,0,0,0.9506,0,85.8125,4.40744078711605,6.41502850407275,0.730696453640969,-0.0200817921015687,0.065128486846121,-0.679362754074345,-0.66,-1.15,9.71
0.8052017,0,0,0,0.9506,0,85.8125,4.40744078711605,6.41502850407275,0.730696453640969,-0.0200817921015687,0.065128486846121,-0.679362754074345,-0.66,-1.15,9.71
0.9031855,0,0,0,0.9506,0,85.8125,4.40744078711605,6.41502850407275,0.730696453640969,-0.0200817921015687,0.065128486846121,-0.679362754074345,-0.66,-1.15,9.71
0.9243627,0,0,0,0.9506,0,85.8125,4.40744078711605,6.41502850407275,0.730696453640969,-0.0200817921015687,0.065128486846121,-0.679362754074345,-0.66,-1.15,9.71
0.9422685,0,0,0,0.9506,0,85.8125,4.40744078711605,6.41502850407275,0.730696453640969,-0.0200817921015687,0.065128486846121,-0.679362754074345,-0.66,-1.15,9.71
1.0411282,0,0,0,0.9506,0,85.8125,4.40744078711605,6.41502850407275,0.730696453640969,-0.0200817921015687,0.065128486846121,-0.679362754074345,-0.66,-1.15,9.71
1.0651936,0,0,0,0.9506,0,85.8125,4.40744078711605,6.41502850407275,0.730696453640969,-0.0200817921015687,0.065128486846121,-0.679362754074345,-0.66,-1.15,9.71
1.0839407,0,0,0,0.9506,0,85.8125,4.40744078711605,6.41502850407275,0.730696453640969,-0.0200817921015687,0.065128486846121,-0.679362754074345,-0.66,-1.15,9.71
1.1810198,0,0,0,0.9506,0,85.8125,4.40744078711605,6.41502850407275,0.730696453640969,-0.0200817921015687,0.065128486846121,-0.679362754074345,-0.66,-1.15,9.71
1.2019506,0,0,0,0.9506,0,85.8125,4.40744078711605,6.41502850407275,0.730696453640969,-0.0200817921015687,0.065128486846121,-0.679362754074345,-0.66,-1.15,9.71
1.2213627,0,0,0,0.9506,0,85.8125,4.40744078711605,6.41502850407275,0.730696453640969,-0.0200817921015687,0.065128486846121,-0.679362754074345,-0.66,-1.15,9.71
1.3219958,0,0,0,0.9506,0,85.8125,4.40744078711605,6.41502850407275,0.730696453640969,-0.0200817921015687,0.065128486846121,-0.679362754074345,-0.66,-1.15,9.71
1.3410121,0,0,0,0.9408,0,85.8125,4.40744078711605,6.41502850407275,0.730696453640969,-0.0200817921015687,0.065128486846121,-0.679362754074345,-0.66,-1.15,9.71
1.359373,0,0,0,0.9408,0,85.8125,4.40744078711605,6.41502850407275,0.730696453640969,-0.0200817921015687,0.065128486846121,-0.679362754074345,-0.66,-1.15,9.71
1.4561639,0,0,0,0.9408,0,85.8125,4.40744078711605,6.41502850407275,0.730696453640969,-0.0200817921015687,0.065128486846121,-0.679362754074345,-0.66,-1.15,9.71
1.475167,0,0,0,0.9408,0,85.8125,4.40744078711605,6.41502850407275,0.730696453640969,-0.0200817921015687,0.065128486846121,-0.679362754074345,-0.66,-1.15,9.71
1.5072839,0,0,0,0.9408,0,85.8125,4.40744078711605,6.41502850407275,0.730696453640969,-0.0200817921015687,0.065128486846121,-0.679362754074345,-0.66,-1.15,9.71
1.6172157,0,0,0,0.931,0,85.8125,4.40744078711605,6.41502850407275,0.730696453640969,-0.0200817921015687,0.065128486846121,-0.679362754074345,-0.66,-1.15,9.71
1.6360564,0,0,0,0.931,0,85.8125,4.40744078711605,6.41502850407275,0.730696453640969,-0.0200817921015687,0.065128486846121,-0.679362754074345,-0.66,-1.15,9.71
1.6523552,0,0,0,0.931,0,85.8125,4.40744078711605,6.41502850407275,0.730696453640969,-0.0200817921015687,0.065128486846121,-0.679362754074345,-0.66,-1.15,9.71
1.761019,0,0,0,0.9212,0,85.8125,4.40744078711605,6.41502850407275,0.730696453640969,-0.0200817921015687,0.065128486846121,-0.679362754074345,-0.66,-1.15,9.71
1.7789768,0,0,0,0.9212,0,85.8125,4.40744078711605,6.41502850407275,0.730696453640969,-0.0200817921015687,0.065128486846121,-0.679362754074345,-0.66,-1.15,9.71
1.7950299,0,0,0,0.9212,0,85.8125,4.40744078711605,6.41502850407275,0.730696453640969,-0.0200817921015687,0.065128486846121,-0.679362754074345,-0.66,-1.15,9.71
1.8963171,0,0,0,0.9212,0,85.8125,4.40744078711605,6.41502850407275,0.730696453640969,-0.0200817921015687,0.065128486846121,-0.679362754074345,-0.66,-1.15,9.71
1.9160535,0,0,0,0.9212,0,85.8125,4.40744078711605,6.41502850407275,0.730696453640969,-0.0200817921015687,0.065128486846121,-0.679362754074345,-0.66,-1.15,9.71
1.9322604,0,0,0,0.9212,0,85.8125,4.40744078711605,6.41502850407275,0.730696453640969,-0.0200817921015687,0.065128486846121,-0.679362754074345,-0.66,-1.15,9.71
2.0471169,0,0,0,0.9212,0,85.8125,4.40744078711605,6.41502850407275,0.730696453640969,-0.0200817921015687,0.065128486846121,-0.679362754074345,-0.66,-1.15,9.71
2.0659664,0,0,0,0.9212,0,85.8125,4.40744078711605,6.41502850407275,0.730696453640969,-0.0200817921015687,0.065128486846121,-0.679362754074345,-0.66,-1.15,9.71
2.0832565,0,0,0,0.9212,0,85.8125,4.40744078711605,6.41502850407275,0.730696453640969,-0.0200817921015687,0.065128486846121,-0.679362754074345,-0.66,-1.15,9.71
2.1802484,0,0,0,0.9212,0,85.8125,4.40744078711605,6.41502850407275,0.730696453640969,-0.0200817921015687,0.065128486846121,-0.679362754074345,-0.66,-1.15,9.71
2.1981893,0,0,0,0.9212,0,85.8125,4.40744078711605,6.41502850407275,0.730696453640969,-0.0200817921015687,0.065128486846121,-0.679362754074345,-0.66,-1.15,9.71
2.2172444,0,0,0,0.9212,0,85.8125,4.40744078711605,6.41502850407275,0.730696453640969,-0.0200817921015687,0.065128486846121,-0.679362754074345,-0.66,-1.15,9.71
2.3173442,0,0,0,0.9212,0,85.8125,4.40744078711605,6.41502850407275,0.730696453640969,-0.0200817921015687,0.065128486846121,-0.679362754074345,-0.66,-1.15,9.71
2.336137,0,0,0,0.9212,0,85.8125,4.40744078711605,6.41502850407275,0.730696453640969,-0.0200817921015687,0.065128486846121,-0.679362754074345,-0.66,-1.15,9.71
2.3554504,0,0,0,0.9212,0,85.8125,4.40744078711605,6.41502850407275,0.730696453640969,-0.0200817921015687,0.065128486846121,-0.679362754074345,-0.66,-1.15,9.71
2.4551033,0,0,0,0.931,0,85.8125,4.40744078711605,6.41502850407275,0.730696453640969,-0.0200817921015687,0.065128486846121,-0.679362754074345,-0.66,-1.15,9.71
2.474132,0,0,0,0.931,0,85.8125,4.40744078711605,6.41502850407275,0.730696453640969,-0.0200817921015687,0.065128486846121,-0.679362754074345,-0.66,-1.15,9.71
2.4924813,0,0,0,0.931,0,85.8125,4.40744078711605,6.41502850407275,0.730696453640969,-0.0200817921015687,0.065128486846121,-0.679362754074345,-0.66,-1.15,9.71
2.5900886,0,0,0,0.9408,0,85.8125,4.40744078711605,6.41502850407275,0.730696453640969,-0.0200817921015687,0.065128486846121,-0.679362754074345,-0.66,-1.15,9.71
2.6099902,0,0,0,0.9408,0,85.8125,4.40744078711605,6.41502850407275,0.730696453640969,-0.0200817921015687,0.065128486846121,-0.679362754074345,-0.66,-1.15,9.71
2.6261695,0,0,0,0.9408,0,85.8125,4.40744078711605,6.41502850407275,0.730696453640969,-0.0200817921015687,0.065128486846121,-0.679362754074345,-0.66,-1.15,9.71
2.7219419,0,0,0,0.9408,0,85.8125,4.40744078711605,6.41502850407275,0.730696453640969,-0.0200817921015687,0.065128486846121,-0.679362754074345,-0.66,-1.15,9.71
2.7414304,0,0,0,0.9408,0,85.8125,4.40744078711605,6.41502850407275,0.730696453640969,-0.0200817921015687,0.065128486846121,-0.679362754074345,-0.66,-1.15,9.71
2.7582573,0,0,0,0.9408,0,85.8125,4.40744078711605,6.41502850407275,0.730696453640969,-0.0200817921015687,0.065128486846121,-0.679362754074345,-0.66,-1.15,9.71
2.8781151,0,0,0,0.9506,0,85.8125,4.40744078711605,6.41502850407275,0.730696453640969,-0.0200817921015687,0.065128486846121,-0.679362754074345,-0.66,-1.15,9.71
2.8983314,0,0,0,0.9506,0,85.8125,4.40744078711605,6.41502850407275,0.730696453640969,-0.0200817921015687,0.065128486846121,-0.679362754074345,-0.66,-1.15,9.71
2.930491,0,0,0,0.9506,0,85.8125,4.40744078711605,6.41502850407275,0.730696453640969,-0.0200817921015687,0.065128486846121,-0.679362754074345,-0.66,-1.15,9.71
3.0350435,180,0,0,0.9506,0,85.8125,4.40744078711605,6.41502850407275,0.730696453640969,-0.0200817921015687,0.065128486846121,-0.679362754074345,-0.66,-1.15,9.71
3.0539531,180,1.35,0,0.9506,0,85.8125,4.40744078711605,6.41502850407275,0.730696453640969,-0.0200817921015687,0.065128486846121,-0.679362754074345,-0.66,-1.15,9.71
3.0724681,180,3.15,0,0.9506,0,85.8125,4.40744078711605,6.41502850407275,0.730696453640969,-0.0200817921015687,0.065128486846121,-0.679362754074345,-0.66,-1.15,9.71
3.182205,180,37.8,0,1.274,0,85.8125,4.40744078711605,6.41502850407275,0.730696453640969,-0.0200817921015687,0.065128486846121,-0.679362754074345,-0.66,-1.15,9.71
3.2021555,180,48.15,0,1.4014,0,85.8125,4.40744078711605,6.41502850407275,0.730696453640969,-0.020020753219801,0.0652505646096564,-0.679362754074345,-0.66,-1.15,9.71
3.2205385,180,58.95,0,1.4798,0,85.8125,4.40744078711605,6.41502850407275,0.730696453640969,-0.0199597143380333,0.0653726423731917,-0.679362754074345,-0.67,-1.15,9.71
3.3220832,180,128.25,0,2.4598,0,85.8125,4.43672719559054,6.49842398523729,0.730635414759202,-0.0199597143380333,0.0661661478361716,-0.679362754074345,-0.68,-1.16,9.71
3.3453537,180,140.85,0,2.6852,0,85.8125,4.43672719559054,6.49842398523729,0.730635414759202,-0.020020753219801,0.0662271867179393,-0.679362754074345,-0.68,-1.17,9.71
3.3620515,180,148.95,0,2.7832,0,85.8125,4.49306814041006,6.52547852158231,0.730635414759202,-0.0200817921015687,0.0663492644814747,-0.679362754074345,-0.68,-1.17,9.71
3.4700568,180,178.65,0,3.3712,0,85.8125,4.49530001253952,6.66521494756637,0.730513336995666,-0.020020753219801,0.0675700421168284,-0.679362754074345,-0.7,-1.18,9.7
3.490033,180,180,0,3.4006,0,85.8125,4.52458642101401,6.74861042873091,0.730452298113899,-0.0200817921015687,0.0680583531709699,-0.679301715192578,-0.7,-1.19,9.7
3.5072319,180,180,0,3.4006,0,85.8125,4.58092736583353,6.77566496507594,0.730452298113899,-0.0201428309833364,0.0686687419886468,-0.679301715192578,-0.71,-1.2,9.7
3.6102538,180,180,0,3.136,0,85.8125,4.75664581668046,7.27603785206319,0.730330220350363,-0.0205701031557102,0.0733076970029909,-0.678935481901972,-0.77,-1.27,9.69
3.6324586,180,180,0,3.0968,0,85.8125,4.81521863362944,7.44282881439227,0.730269181468596,-0.0209363364463163,0.0747726301654154,-0.678813404138436,-0.79,-1.29,9.68
3.6512355,180,180,0,3.0184,0,85.8125,4.90084598692345,7.55327883190184,0.730208142586828,-0.0210584142098517,0.0760544466825368,-0.678752365256668,-0.8,-1.31,9.68
3.7483699,180,180,0,2.695,0,85.8125,5.30639196130737,8.4413427162373,0.729658792650919,-0.0220960751999023,0.0842946957211744,-0.678264054202527,-0.91,-1.43,9.65
3.7672534,180,180,0,2.6068,0,85.75,5.33567836978186,8.52473819740184,0.729719831532686,-0.0222791918452054,0.0852102789476897,-0.678080937557224,-0.92,-1.45,9.65
3.7855753,180,180,0,2.5578,0,85.75,5.42130572307587,8.63518821491141,0.729475676005616,-0.0225233473722761,0.0878349508637002,-0.678080937557224,-0.95,-1.49,9.64
3.8850142,180,180,0,2.1952,0,85.75,5.91471092288326,9.7734385427405,0.728987364951474,-0.0236830861258622,0.0972349386559238,-0.677226393212476,-1.07,-1.62,9.61
3.906384,180,180,0,2.1168,0,85.75,6.00033827617727,9.88388856025006,0.728865287187939,-0.0238051638893975,0.0982115607642068,-0.677226393212476,-1.09,-1.65,9.6
3.9220368,180,180,0,2.0776,0,85.75,6.08819750160074,10.1340750037437,0.728743209424403,-0.0240493194164683,0.100164804980773,-0.677104315448941,-1.11,-1.67,9.59
4.020968,180,180,0,1.715,0,85.75,6.55231629293364,11.1889298504082,0.728071781724959,-0.0251480192882866,0.110114142708906,-0.676188732222426,-1.23,-1.81,9.55
4.0391063,180,180,0,1.6856,0,85.75,6.66723005470213,11.3827753490823,0.727888665079656,-0.0254532136971251,0.112250503570775,-0.67606665445889,-1.26,-1.85,9.54
4.0553351,180,180,0,1.6464,0,85.75,6.69651646317662,11.4661708302469,0.727888665079656,-0.0255752914606604,0.113227125679058,-0.675883537813587,-1.28,-1.87,9.53
4.1523338,180,180,0,1.421,0,85.625,7.10429430969001,12.4939711405664,0.72752243178905,-0.0263077580418727,0.122443996825978,-0.674662760178234,-1.39,-1.99,9.49
4.1711672,180,180,0,1.372,0,85.5625,7.21920807145851,12.6878166392405,0.72776658731612,-0.0265519135689434,0.124092046633706,-0.674052371360557,-1.41,-2.01,9.49
4.1873278,180,180,0,1.3524,0,85.625,7.30483542475251,12.7982666567501,0.727339315143747,-0.0267960690960142,0.125312824269059,-0.674296526887627,-1.43,-2.03,9.48
4.2851596,180,180,0,1.225,0,85.5625,7.53912669254843,13.4654305060664,0.727095159616676,-0.0271623023866203,0.131599829091131,-0.673380943661112,-1.51,-2.12,9.45
4.3032021,180,180,0,1.2152,0,85.5625,7.59546763736794,13.4924850424114,0.727034120734908,-0.0273454190319233,0.131966062381737,-0.673319904779344,-1.52,-2.13,9.44
4.3204527,180,180,0,1.2054,0,85.625,7.62475404584243,13.575880523576,0.726789965207837,-0.027406457913691,0.132698528962949,-0.67344198254288,-1.53,-2.14,9.44
4.4180904,180,180,0,1.225,0,85.5625,7.65627232644638,13.7990124307246,0.726789965207837,-0.0271012635048526,0.134712812061283,-0.673075749252274,-1.56,-2.16,9.43
4.4373208,180,180,0,1.2446,0,85.625,7.65627232644638,13.7990124307246,0.726606848562534,-0.0271012635048526,0.134712812061283,-0.673258865897577,-1.56,-2.16,9.43
4.4531488,180,180,0,1.2544,0,85.5625,7.65627232644638,13.7990124307246,0.726789965207837,-0.0269181468595495,0.13452969541598,-0.673075749252274,-1.56,-2.15,9.43
4.5491079,180,180,0,1.4112,0,85.5625,7.42867667503886,13.5510578593604,0.727034120734908,-0.0260636025148019,0.132088140145273,-0.673380943661112,-1.53,-2.11,9.45
4.5693521,180,180,0,1.4602,0,85.5625,7.39939026656437,13.4676623781959,0.727034120734908,-0.0258804858694989,0.131172556918757,-0.673564060306415,-1.52,-2.1,9.45
4.5900789,180,180,0,1.519,0,85.5625,7.31376291327036,13.3572123606863,0.727217237380211,-0.0255752914606604,0.130195934810474,-0.673564060306415,-1.51,-2.07,9.46
4.6883164,180,180,0,1.7738,0,85.625,6.93973521949039,12.6922803834994,0.727705548434353,-0.024293474943539,0.123786852224867,-0.674296526887627,-1.44,-1.98,9.49
4.7082235,180,180,0,1.8032,0,85.625,6.9104488110159,12.6088849023349,0.727827626197888,-0.024110358298236,0.123054385643655,-0.674296526887627,-1.42,-1.96,9.5
4.7264362,180,180,0,1.8718,0,85.625,6.79553504924741,12.4150394036608,0.727827626197888,-0.0239272416529329,0.121162180308857,-0.674601721296466,-1.41,-1.94,9.5
4.8411494,180,180,0,2.2148,0,85.625,6.25025264887943,11.5292073914548,0.7285600927791,-0.0217908807910639,0.111334920344259,-0.675639382286517,-1.3,-1.78,9.55
4.8610267,180,180,0,2.2932,0,85.6875,6.19167983193045,11.3624164291257,0.7285600927791,-0.0216688030275285,0.110602453763047,-0.675700421168284,-1.29,-1.77,9.55
4.878125,180,180,0,2.3226,0,85.6875,6.16239342345596,11.2790209479612,0.728621131660868,-0.0214856863822255,0.109931026063603,-0.675761460050052,-1.27,-1.75,9.56
4.9790689,180,180,0,2.6754,0,85.6875,5.58782461461349,10.3097934545906,0.729170481596777,-0.0197155588109626,0.100592077153147,-0.676677043276567,-1.15,-1.58,9.6
4.9985339,180,180,0,2.7146,0,85.6875,5.4436244443705,10.032552474752,0.729292559360313,-0.0192272477568211,0.0979674052371361,-0.676982237685406,-1.14,-1.57,9.61
5.0153011,180,180,0,2.7832,0,85.6875,5.41433803589601,9.94915699358743,0.72935359824208,-0.019044131111518,0.0971128608923885,-0.677043276567173,-1.13,-1.56,9.61
5.1121105,180,180,0,3.038,0,85.75,4.86682376339857,8.92358855539737,0.729902948177989,-0.0172740035402551,0.0871024842824879,-0.677836782030153,-1.01,-1.4,9.65
5.1301637,180,180,0,3.0674,0,85.75,4.83753735492408,8.84019307423283,0.730025025941525,-0.0168467313678813,0.0845998901300128,-0.678019898675456,-0.98,-1.36,9.66
5.1497394,180,180,0,3.1164,0,85.75,4.72262359315558,8.64634757555872,0.730025025941525,-0.016724653604346,0.0838063846670329,-0.678141976438992,-0.97,-1.35,9.66
5.2702176,180,180,0,3.283,0,85.75,4.20216385700316,7.56443819254915,0.730513336995666,-0.0152597204419215,0.0745284746383446,-0.678752365256668,-0.86,-1.21,9.69
5.2913845,180,180,0,3.3026,0,85.75,4.17287744852868,7.48104271138461,0.730574375877434,-0.0151376426783861,0.073490813648294,-0.678752365256668,-0.84,-1.18,9.69
5.318555,180,180,0,3.3124,0,85.75,4.14359104005419,7.39764723022007,0.730635414759202,-0.0149545260330831,0.0720258804858695,-0.678874443020204,-0.83,-1.17,9.7
5.417585,180,180,0,3.3222,0,85.75,3.94081805286222,6.95361528805234,0.730818531404505,-0.0147103705060123,0.0687297808704145,-0.679057559665507,-0.78,-1.12,9.7
5.4364081,180,180,0,3.3026,0,85.75,3.94081805286222,6.95361528805234,0.730818531404505,-0.01477140938778,0.0685466642251114,-0.679057559665507,-0.78,-1.12,9.71
5.4553292,180,180,0,3.3026,0,85.75,3.94081805286222,6.95361528805234,0.730818531404505,-0.0148934871513154,0.068424586461576,-0.679057559665507,-0.78,-1.12,9.71
5.5510442,180,180,0,3.1948,0,85.75,4.02644540615623,7.06406530556191,0.730818531404505,-0.0152597204419215,0.0694622474516267,-0.678996520783739,-0.79,-1.14,9.7
5.57123,180,180,0,3.1556,0,85.75,4.08278635097574,7.09111984190693,0.730757492522737,-0.0154428370872246,0.0700726362693035,-0.678935481901972,-0.79,-1.15,9.7
5.5885496,180,180,0,3.136,0,85.75,4.11207275945023,7.17451532307147,0.730696453640969,-0.0156869926142953,0.0707440639687481,-0.678935481901972,-0.8,-1.16,9.7
5.6851067,180,180,0,2.9302,0,85.75,4.42752763628123,7.67265633792926,0.730452298113899,-0.016907770249649,0.0757492522736983,-0.678630287493133,-0.86,-1.24,9.68
5.7043793,180,180,0,2.8714,0,85.75,4.45681404475572,7.7560518190938,0.730391259232131,-0.0172129646584875,0.0769700299090521,-0.678569248611365,-0.87,-1.27,9.68
5.7242257,180,180,0,2.842,0,85.75,4.57172780652421,7.94989731776791,0.730269181468596,-0.0175181590673259,0.0782518464261735,-0.678508209729598,-0.88,-1.29,9.68
5.8211072,180,180,0,2.5578,0,85.75,4.97281003664921,8.55848835013526,0.729902948177989,-0.0189220533479827,0.0846609290117805,-0.678141976438992,-0.96,-1.4,9.65
5.8395946,180,180,0,2.4794,0,85.75,5.0877237984177,8.75233384880936,0.729780870414454,-0.0193493255203565,0.0861869010559727,-0.678019898675456,-0.97,-1.42,9.65
5.8565139,180,180,0,2.45,0,85.75,5.17335115171171,8.86278386631893,0.729719831532686,-0.0196545199291949,0.0876518342183971,-0.677958859793689,-0.99,-1.44,9.64
5.952222,180,180,0,2.1462,0,85.75,5.66229260726017,9.72156134217991,0.729109442715009,-0.0215467252639932,0.095831044375267,-0.677409509857779,-1.08,-1.58,9.61
5.9715611,180,180,0,2.0776,0,85.75,5.69157901573466,9.80495682334445,0.728987364951474,-0.021973997436367,0.0976622108282976,-0.677287432094244,-1.1,-1.61,9.61
5.987205,180,180,0,2.0384,0,85.75,5.80649277750316,9.99880232201856,0.728987364951474,-0.02215711408167,0.0984557162912775,-0.677165354330709,-1.11,-1.62,9.6
6.0021248,180,180,0,2.009,0,85.75,5.94846107561668,10.1363068758731,0.728865287187939,-0.0225233473722761,0.100042727217237,-0.677043276567173,-1.13,-1.65,9.6
6.097176,180,180,0,1.7444,0,85.75,6.38106158634563,10.9680298153891,0.728193859488494,-0.0242324360617713,0.108038820728804,-0.676432887749496,-1.22,-1.77,9.56
6.1163342,180,180,0,1.6856,0,85.75,6.49597534811412,11.1618753140632,0.728071781724959,-0.0246597082341452,0.109808948300067,-0.676310809985961,-1.24,-1.8,9.55
6.1333097,180,180,0,1.6562,0,85.75,6.63794364622764,11.2993798679178,0.727888665079656,-0.0250259415247513,0.111456998107795,-0.676188732222426,-1.25,-1.83,9.55
6.2292116,180,180,0,1.4602,0,85.75,6.98491680366259,12.0206527899242,0.727217237380211,-0.0266129524507111,0.119025819446988,-0.675578343404749,-1.34,-1.95,9.51
6.2482012,180,180,0,1.421,0,85.75,7.12688510177611,12.1581573437788,0.727095159616676,-0.0269791857413172,0.12055179149118,-0.675395226759446,-1.36,-1.98,9.5
6.2674751,180,180,0,1.4014,0,85.75,7.18545791872509,12.3249483061079,0.727034120734908,-0.0271623023866203,0.121162180308857,-0.675395226759446,-1.36,-1.99,9.5
6.387209,180,180,0,1.3034,0,85.75,7.53019920403057,12.9064848021302,0.726484770798999,-0.0283220411402063,0.127021912958555,-0.674845876823537,-1.43,-2.08,9.47
6.4052191,180,180,0,1.3034,0,85.75,7.53019920403057,12.9064848021302,0.726423731917231,-0.0283220411402063,0.127571262894464,-0.674784837941769,-1.44,-2.09,9.47
6.4213499,180,180,0,1.3034,0,85.75,7.55948561250506,12.9898802832947,0.726423731917231,-0.0283220411402063,0.127815418421535,-0.674784837941769,-1.44,-2.09,9.47
6.5482742,180,180,0,1.4014,0,85.75,7.58877202097955,13.0732757644593,0.726362693035464,-0.0283220411402063,0.128181651712141,-0.674723799060001,-1.45,-2.09,9.46
6.5692905,180,180,0,1.421,0,85.75,7.55948561250506,12.9898802832947,0.726423731917231,-0.0281389244949033,0.127571262894464,-0.674784837941769,-1.44,-2.08,9.47
6.5874808,180,180,0,1.4602,0,85.75,7.50314466768555,12.9628257469497,0.726484770798999,-0.0279558078496002,0.127021912958555,-0.674845876823537,-1.43,-2.07,9.47
6.7032112,180,180,0,1.6758,0,85.75,7.18768979085455,12.4646847320919,0.72697308185314,-0.0269181468595495,0.121833608008301,-0.675334187877678,-1.38,-1.99,9.5
6.7212328,180,180,0,1.7346,0,85.75,7.18545791872509,12.3249483061079,0.727034120734908,-0.0267960690960142,0.121284258072392,-0.675334187877678,-1.37,-1.98,9.5
6.7360898,180,180,0,1.764,0,85.75,7.09983056543108,12.2144982885983,0.727156198498443,-0.0265519135689434,0.120124519318806,-0.675456265641213,-1.35,-1.96,9.51
6.7522577,180,180,0,1.8228,0,85.75,7.04348962061157,12.1874437522533,0.727278276261979,-0.0263687969236404,0.119025819446988,-0.675578343404749,-1.34,-1.95,9.51
6.8502077,180,180,0,2.0776,0,85.75,6.6694619268316,11.5225117750664,0.727583470670817,-0.0249038637612159,0.11316608679729,-0.676249771104193,-1.27,-1.84,9.54
6.868172,180,180,0,2.1168,0,85.8125,6.5545481650631,11.3286662763923,0.727705548434353,-0.0245986693523775,0.111762192516633,-0.676371848867729,-1.26,-1.83,9.54
6.8832507,180,180,0,2.1462,0,85.8125,6.4689208117691,11.2182162588827,0.72776658731612,-0.0244155527070744,0.110419337117744,-0.676493926631264,-1.24,-1.8,9.55
6.9003835,180,180,0,2.205,0,85.75,6.43963440329461,11.1348207777182,0.727888665079656,-0.0243545138253067,0.109747909418299,-0.676493926631264,-1.23,-1.79,9.56
6.996258,180,180,0,2.4892,0,85.8125,5.95292481987561,10.4157797278413,0.728254898370262,-0.0224012696087408,0.102423243606177,-0.677348470976012,-1.16,-1.68,9.59
7.0173517,180,180,0,2.5284,0,85.8125,5.89435200292663,10.2489887655122,0.728376976133797,-0.0220960751999023,0.100836232680217,-0.677470548739547,-1.13,-1.64,9.6
7.0333811,180,180,0,2.5872,0,85.8125,5.83577918597765,10.0821978031831,0.728438015015565,-0.0219129585545993,0.0993102606360251,-0.677592626503082,-1.12,-1.63,9.6
7.1313393,180,180,0,2.8322,0,85.875,5.37612413890367,9.30681580848666,0.728743209424403,-0.020020753219801,0.0918024781785998,-0.678386131966062,-1.04,-1.5,9.63
7.1502796,180,180,0,2.8616,0,85.875,5.29049678560967,9.1963657909771,0.728865287187939,-0.0197155588109626,0.0903375450161753,-0.67844717084783,-1.02,-1.48,9.63
7.1673668,180,180,0,2.9204,0,85.875,5.20486943231566,9.08591577346753,0.728926326069706,-0.0194714032838918,0.0888726118537508,-0.678630287493133,-1.01,-1.46,9.64
7.264822,180,180,0,3.087,0,85.875,4.74521438524168,8.3105337787711,0.729292559360313,-0.0177012757126289,0.0821583348593054,-0.679118598547275,-0.93,-1.34,9.66
7.2874545,180,180,0,3.1164,0,85.875,4.65958703194768,8.20008376126153,0.72935359824208,-0.0173960813037905,0.0806934016968809,-0.67924067631081,-0.91,-1.31,9.67
7.3045278,180,180,0,3.136,0,85.875,4.57395967865367,8.08963374375196,0.729414637123848,-0.0171519257767198,0.0795336629432949,-0.679301715192578,-0.9,-1.29,9.67
7.4151292,180,180,0,3.2046,0,85.875,4.25850480182268,7.59149272889418,0.729658792650919,-0.0156259537325276,0.07465055240188,-0.679606909601416,-0.85,-1.21,9.69
7.4355219,180,180,0,3.2144,0,85.875,4.22921839334819,7.50809724772964,0.729719831532686,-0.0155038759689922,0.0739791247024355,-0.679667948483184,-0.85,-1.2,9.69
7.4525079,180,180,0,3.2046,0,85.875,4.22921839334819,7.50809724772964,0.729719831532686,-0.0154428370872246,0.0737349691753647,-0.679667948483184,-0.84,-1.2,9.69
7.551192,180,180,0,3.1556,0,85.9375,4.11653650370916,7.45398817503959,0.729719831532686,-0.01477140938778,0.0729414637123848,-0.679728987364951,-0.84,-1.18,9.69
7.5696414,180,180,0,3.136,0,85.9375,4.11653650370916,7.45398817503959,0.729719831532686,-0.01477140938778,0.0733076970029909,-0.679728987364951,-0.85,-1.18,9.69
7.585143,180,180,0,3.1262,0,85.9375,4.14582291218365,7.53738365620413,0.729658792650919,-0.0148324482695477,0.0737960080571324,-0.679728987364951,-0.85,-1.19,9.69
7.6803388,180,180,0,2.989,0,85.9375,4.29002308242663,7.81462463604278,0.729536714887383,-0.0150155649148508,0.0764817188549106,-0.679606909601416,-0.89,-1.23,9.68
7.7006611,180,180,0,2.94,0,85.9375,4.26296854608161,7.87096558086229,0.729475676005616,-0.0150766037966184,0.0769089910272844,-0.679545870719648,-0.89,-1.24,9.68
7.7186206,180,180,0,2.9204,0,85.9375,4.40493684419513,8.00847013471688,0.729414637123848,-0.0153207593236892,0.0784960019532442,-0.679484831837881,-0.91,-1.26,9.68
7.8173281,180,180,0,2.6656,0,85.9375,4.63699623986158,8.53589755804916,0.729109442715009,-0.0160532259049014,0.0834401513764268,-0.67924067631081,-0.97,-1.34,9.66
7.8353009,180,180,0,2.6362,0,85.9375,4.69556905681056,8.70268852037824,0.728987364951474,-0.0164804980772752,0.0854544344747604,-0.679118598547275,-1,-1.37,9.65
7.8503352,180,180,0,2.597,0,85.9375,4.75191000163007,8.72974305672327,0.728926326069706,-0.0166025758408106,0.086125862174205,-0.679057559665507,-1.01,-1.38,9.65
7.9512776,180,180,0,2.303,0,85.9375,5.09888315906502,9.45101597872965,0.728499053897333,-0.0176402368308613,0.0920466337056705,-0.678691326374901,-1.08,-1.48,9.63
7.9701693,180,180,0,2.2638,0,85.9375,5.18451051235903,9.56146599623922,0.728438015015565,-0.0179454312396997,0.0934505279863273,-0.678569248611365,-1.09,-1.5,9.62
7.9872234,180,180,0,2.1952,0,85.9375,5.29942427412752,9.75531149491332,0.72831593725203,-0.0182506256485381,0.0949765000305194,-0.678508209729598,-1.12,-1.53,9.62
8.0892044,180,180,0,1.9502,0,85.9375,5.7590793212015,10.5306934896098,0.72776658731612,-0.0198986754562656,0.102728438015016,-0.677897820911921,-1.2,-1.64,9.59
8.1118095,180,180,0,1.8914,0,85.9375,5.78836572967599,10.6140889707743,0.727644509552585,-0.0202038698651041,0.104254410059208,-0.677775743148386,-1.21,-1.67,9.58
8.128214,180,180,0,1.862,0,85.9375,5.84693854662497,10.7808799331034,0.727583470670817,-0.0203869865104071,0.105108954403955,-0.677714704266618,-1.23,-1.7,9.57
8.2262146,180,180,0,1.6562,0,85.875,6.33364813004397,11.4999209829803,0.72697308185314,-0.021973997436367,0.112311542452542,-0.677165354330709,-1.31,-1.8,9.54
8.2452927,180,180,0,1.617,0,85.875,6.39222094699295,11.6667119453094,0.726851004089605,-0.0222791918452054,0.113654397851431,-0.677043276567173,-1.32,-1.82,9.54
8.2634733,180,180,0,1.5778,0,85.875,6.47784830028695,11.7771619628189,0.72672892632607,-0.0224623084905085,0.114875175486785,-0.676921198803638,-1.33,-1.84,9.53
8.3625021,180,180,0,1.4504,0,85.875,6.82258958559244,12.3586984588413,0.726301654153696,-0.0239272416529329,0.120490752609412,-0.676432887749496,-1.39,-1.93,9.51
8.3827633,180,180,0,1.4406,0,85.875,6.87893053041195,12.3857529951863,0.726240615271928,-0.024110358298236,0.121223219190624,-0.676371848867729,-1.4,-1.95,9.5
8.4004286,180,180,0,1.421,0,85.875,6.90821693888644,12.4691484763508,0.726179576390161,-0.0242324360617713,0.122016724653604,-0.676249771104193,-1.41,-1.96,9.5
8.498328,180,180,0,1.4014,0,85.875,7.10875805394894,12.7734439925345,0.72593542086309,-0.0251480192882866,0.124702435451383,-0.675944576695355,-1.44,-2.01,9.48
8.5183914,180,180,0,1.4112,0,85.875,7.10875805394894,12.7734439925345,0.72593542086309,-0.0252090581700543,0.124824513214918,-0.675944576695355,-1.44,-2.01,9.48
8.5343474,180,180,0,1.421,0,85.875,7.10875805394894,12.7734439925345,0.72593542086309,-0.025270097051822,0.124885552096686,-0.675944576695355,-1.44,-2.01,9.48
8.6321862,180,180,0,1.5092,0,85.875,7.16286712663899,12.6607621028955,0.726057498626625,-0.0256363303424281,0.123908929988403,-0.675944576695355,-1.42,-2,9.49
8.6535437,180,180,0,1.5484,0,85.875,7.10652618181948,12.6337075665505,0.726118537508393,-0.0255752914606604,0.123420618934261,-0.676005615577123,-1.41,-1.99,9.49
8.6745974,180,180,0,1.5778,0,85.875,7.07723977334499,12.5503120853859,0.726179576390161,-0.0255142525788928,0.122810230116584,-0.67606665445889,-1.4,-1.98,9.49
8.7833631,180,180,0,1.7836,0,85.875,6.84518037767853,12.0228846620536,0.72672892632607,-0.025270097051822,0.117560886284563,-0.676432887749496,-1.34,-1.91,9.52
8.802284,180,180,0,1.813,0,85.875,6.81589396920404,11.9394891808891,0.726789965207837,-0.0252090581700543,0.117133614112189,-0.676432887749496,-1.32,-1.9,9.52
8.8184217,180,180,0,1.8326,0,85.875,6.81366209707458,11.799752754905,0.726851004089605,-0.0251480192882866,0.116156992003906,-0.676493926631264,-1.32,-1.89,9.52
8.9153056,180,180,0,2.0678,0,85.875,6.49597534811412,11.1618753140632,0.727278276261979,-0.0242324360617713,0.109931026063603,-0.677165354330709,-1.24,-1.8,9.55
8.9334785,180,180,0,2.1266,0,85.875,6.43963440329461,11.1348207777182,0.727400354025514,-0.024110358298236,0.108832326191784,-0.677226393212476,-1.23,-1.78,9.56
8.955611,180,180,0,2.1854,0,85.875,6.38106158634563,10.9680298153891,0.727400354025514,-0.0238662027711652,0.107733626319966,-0.677348470976012,-1.21,-1.77,9.56
9.0532593,180,180,0,2.4402,0,85.875,6.03408842891068,10.2467568933827,0.727888665079656,-0.0228285417811146,0.101202465970823,-0.677897820911921,-1.13,-1.66,9.59
9.0713016,180,180,0,2.4696,0,85.875,5.94846107561668,10.1363068758731,0.727949703961423,-0.0226454251358115,0.099920649453702,-0.678019898675456,-1.11,-1.64,9.6
9.0874075,180,180,0,2.5284,0,85.9375,5.86283372232267,10.0258568583636,0.728010742843191,-0.0224012696087408,0.0986998718183483,-0.678141976438992,-1.11,-1.63,9.6
9.1853102,180,180,0,2.7538,0,85.9375,5.48657415641324,9.22118845519266,0.728438015015565,-0.0212415308551547,0.0914362448879937,-0.678752365256668,-1.02,-1.51,9.63
9.2034266,180,180,0,2.7832,0,85.9375,5.43023321159372,9.19413391884763,0.728438015015565,-0.0211194530916194,0.0907037783067814,-0.678813404138436,-1,-1.49,9.63
9.2206787,180,180,0,2.8224,0,85.9375,5.37166039464474,9.02734295651855,0.7285600927791,-0.0208752975645486,0.0894830006714277,-0.678874443020204,-1,-1.49,9.64
9.3173425,180,180,0,2.989,0,85.9375,4.99763270086477,8.36241097933168,0.728926326069706,-0.0197765976927303,0.0831349569675884,-0.679301715192578,-0.92,-1.38,9.66
9.3352199,180,180,0,2.9988,0,85.9375,4.96834629239028,8.27901549816714,0.728987364951474,-0.0195934810474272,0.08203625709577,-0.679362754074345,-0.91,-1.37,9.66
9.351356,180,180,0,3.0282,0,85.9375,4.93905988391579,8.1956200170026,0.729048403833242,-0.0195324421656595,0.0816089849233962,-0.679423792956113,-0.9,-1.36,9.66
9.4495316,180,180,0,3.0968,0,85.9375,4.7092323603788,7.80792901965439,0.729292559360313,-0.0187389367026796,0.0777024964902643,-0.679667948483184,-0.85,-1.29,9.68
9.48159,180,180,0,3.1066,0,85.9375,4.6236050070848,7.69747900214482,0.72935359824208,-0.0185558200573765,0.0764817188549106,-0.679728987364951,-0.84,-1.28,9.68
9.5892389,180,180,0,3.087,0,85.9375,4.56503219013582,7.53068803981574,0.729414637123848,-0.0181895867667704,0.0750778245742538,-0.679790026246719,-0.83,-1.26,9.68
9.6084163,180,180,0,3.0674,0,85.9375,4.56503219013582,7.53068803981574,0.72935359824208,-0.0181285478850027,0.0752609412195569,-0.679790026246719,-0.83,-1.26,9.68
9.6278013,180,180,0,3.0576,0,85.9375,4.59431859861031,7.61408352098028,0.72935359824208,-0.0181285478850027,0.075627174510163,-0.679790026246719,-0.83,-1.26,9.68
9.747521,180,180,0,2.9008,0,85.9375,4.71146423250827,7.94766544563844,0.729109442715009,-0.0181895867667704,0.0788622352438503,-0.679667948483184,-0.88,-1.31,9.67
9.7661982,180,180,0,2.8616,0,85.9375,4.74075064098276,8.03106092680298,0.729109442715009,-0.0182506256485381,0.0792895074162241,-0.679667948483184,-0.89,-1.31,9.67
9.7834668,180,180,0,2.8322,0,85.9375,4.77003704945725,8.11445640796753,0.729048403833242,-0.0183116645303058,0.0802050906427394,-0.679606909601416,-0.9,-1.33,9.67
9.8793344,180,180,0,2.6362,0,85.9375,5.0020964451237,8.6418838312998,0.728682170542636,-0.0187999755844473,0.085149240065922,-0.679362754074345,-0.96,-1.4,9.65
9.8984439,180,180,0,2.5774,0,85.9375,5.03138285359819,8.72527931246434,0.728621131660868,-0.0189220533479827,0.0863700177012757,-0.679301715192578,-0.98,-1.42,9.65
9.9192809,180,180,0,2.5186,0,85.9375,5.08995567054717,8.89207027479342,0.728499053897333,-0.019044131111518,0.0875297564548617,-0.67924067631081,-0.99,-1.43,9.64
10.0202536,180,180,0,2.2736,0,85.9375,5.40764241950762,9.52994771563526,0.728071781724959,-0.0197155588109626,0.0936336446316303,-0.678874443020204,-1.07,-1.52,9.62
10.0392314,180,180,0,2.2442,0,85.9375,5.4662152364566,9.69673867796434,0.727949703961423,-0.0198986754562656,0.0949154611487518,-0.678813404138436,-1.09,-1.54,9.62
10.0552525,180,180,0,2.1854,0,85.9375,5.55184258975061,9.80718869547391,0.727888665079656,-0.0200817921015687,0.0961972776658732,-0.678691326374901,-1.1,-1.56,9.61
10.1533247,180,180,0,1.9698,0,85.9375,5.81318839389155,10.4180115999707,0.727400354025514,-0.0209363364463163,0.102423243606177,-0.678325093084295,-1.18,-1.66,9.59
10.1714253,180,180,0,1.9404,0,85.9375,5.89881574718555,10.5284616174803,0.727339315143747,-0.0210584142098517,0.103094671305622,-0.678264054202527,-1.19,-1.67,9.58
10.1886955,180,180,0,1.8914,0,86,5.95738856413453,10.6952525798094,0.727217237380211,-0.0212415308551547,0.104559604468046,-0.678141976438992,-1.2,-1.69,9.58
10.2853705,180,180,0,1.7052,0,86,6.27507531309499,11.3331300206512,0.72672892632607,-0.021973997436367,0.11078557040835,-0.677714704266618,-1.28,-1.78,9.55
10.304364,180,180,0,1.6856,0,86,6.33364813004397,11.4999209829803,0.726606848562534,-0.02215711408167,0.112006348043704,-0.677592626503082,-1.3,-1.8,9.55
10.320302,180,180,0,1.6562,0,86,6.38998907486348,11.5269755193253,0.726545809680767,-0.0222181529634377,0.112616736861381,-0.677531587621315,-1.3,-1.81,9.54
10.4193977,180,180,0,1.5484,0,86,6.62204847052994,12.0544029426576,0.726118537508393,-0.0227675028993469,0.117499847402796,-0.677165354330709,-1.37,-1.88,9.52
10.4378805,180,180,0,1.5386,0,86,6.65133487900443,12.1377984238221,0.726057498626625,-0.0228895806628823,0.118354391747543,-0.677104315448941,-1.38,-1.89,9.52
10.4566399,180,180,0,1.519,0,86,6.68062128747891,12.2211939049867,0.725996459744857,-0.0230116584264176,0.119147897210523,-0.677043276567173,-1.39,-1.91,9.51
10.5543283,180,180,0,1.4994,0,86,6.8248214577219,12.4984348848253,0.725752304217787,-0.0231947750717207,0.121650491362998,-0.676799121040103,-1.42,-1.94,9.5
10.5736636,180,180,0,1.4994,0,86,6.8248214577219,12.4984348848253,0.725752304217787,-0.0232558139534884,0.121955685771837,-0.676799121040103,-1.42,-1.94,9.5
10.5915194,180,180,0,1.5092,0,86,6.8248214577219,12.4984348848253,0.725691265336019,-0.0232558139534884,0.122077763535372,-0.676738082158335,-1.42,-1.95,9.5
10.6873639,180,180,0,1.5778,0,86,6.76848051290238,12.4713803484803,0.725813343099554,-0.0230726973081853,0.121406335835927,-0.676799121040103,-1.42,-1.93,9.5
10.7076801,180,180,0,1.6072,0,85.9375,6.79553504924741,12.4150394036608,0.725813343099554,-0.0230726973081853,0.121040102545321,-0.67686015992187,-1.41,-1.93,9.5
10.7257206,180,180,0,1.6268,0,85.9375,6.73919410442789,12.3879848673158,0.725874381981322,-0.0230116584264176,0.12055179149118,-0.67686015992187,-1.41,-1.92,9.51
10.8239025,180,180,0,1.764,0,85.9375,6.56570752571042,12.0273484063126,0.726179576390161,-0.0225843862540438,0.117133614112189,-0.677165354330709,-1.36,-1.87,9.52
10.8444224,180,180,0,1.813,0,85.9375,6.48008017241642,11.916898388803,0.726301654153696,-0.0224623084905085,0.116095953122139,-0.677226393212476,-1.35,-1.86,9.53
10.8613594,180,180,0,1.8326,0,85.9375,6.45079376394193,11.8335029076385,0.726362693035464,-0.0222791918452054,0.115119331013856,-0.677287432094244,-1.34,-1.84,9.53
10.9603953,180,180,0,2.0678,0,85.9375,6.16239342345596,11.2790209479612,0.726851004089605,-0.0215467252639932,0.109931026063603,-0.677714704266618,-1.28,-1.76,9.56
10.9784062,180,180,0,2.0972,0,85.9375,6.13310701498147,11.1956254667966,0.726851004089605,-0.0213636086186901,0.108771287310016,-0.677897820911921,-1.26,-1.75,9.56
10.9942844,180,180,0,2.1168,0,86,6.10382060650698,11.1122299856321,0.726912042971373,-0.0212415308551547,0.108221937374107,-0.677897820911921,-1.25,-1.74,9.56
11.0994481,180,180,0,2.3618,0,86,5.78613385754652,10.4743525447902,0.727217237380211,-0.0204480253921748,0.101751815906733,-0.678569248611365,-1.17,-1.64,9.59
11.119311,180,180,0,2.4206,0,86,5.72756104059754,10.3075615824612,0.727278276261979,-0.0202649087468718,0.100408960507843,-0.678691326374901,-1.16,-1.62,9.6
11.1362897,180,180,0,2.45,0,86,5.64193368730354,10.1971115649516,0.727339315143747,-0.0201428309833364,0.0998596105719343,-0.678752365256668,-1.14,-1.6,9.6
11.2413943,180,180,0,2.6852,0,86.0625,5.3805878831626,9.58628866045478,0.727644509552585,-0.0194103644021242,0.0938167612769334,-0.679301715192578,-1.08,-1.52,9.62
11.262551,180,180,0,2.7342,0,86.0625,5.32201506621362,9.4194976981257,0.72776658731612,-0.0192272477568211,0.092534944759812,-0.679423792956113,-1.06,-1.5,9.63
11.2844207,180,180,0,2.7538,0,86.0625,5.20710130444512,9.22565219945159,0.727827626197888,-0.0189220533479827,0.0907648171885491,-0.679545870719648,-1.04,-1.47,9.63
11.3853415,180,180,0,2.9106,0,86.0625,4.97504190877867,8.69822477611931,0.728132820606726,-0.0184337422938412,0.085332356711225,-0.679912104010254,-0.97,-1.4,9.65
11.408342,180,180,0,2.94,0,86.0625,4.91646909182969,8.53143381379023,0.728193859488494,-0.0182506256485381,0.0843557346029421,-0.679973142892022,-0.96,-1.38,9.66
11.425566,180,180,0,2.9498,0,86.0625,4.8871826833552,8.44803833262569,0.728254898370262,-0.0181895867667704,0.0835011902581945,-0.68003418177379,-0.95,-1.37,9.66
11.5504038,180,180,0,3.0184,0,86.0625,4.65735515981821,8.06034733527747,0.728499053897333,-0.0178233534761643,0.0794726240615272,-0.680217298419093,-0.89,-1.31,9.67
11.5694338,180,180,0,3.0184,0,86.0625,4.68440969616324,8.00400639045796,0.7285600927791,-0.0177623145943966,0.0792895074162241,-0.680278337300861,-0.89,-1.31,9.67
11.5879474,180,180,0,3.0184,0,86.0625,4.68440969616324,8.00400639045796,0.7285600927791,-0.0178233534761643,0.0791063907709211,-0.680278337300861,-0.89,-1.3,9.67
11.696558,180,180,0,2.9596,0,86.0625,4.71146423250827,7.94766544563844,0.7285600927791,-0.0181285478850027,0.0788622352438503,-0.680278337300861,-0.88,-1.31,9.67
11.7155286,180,180,0,2.9498,0,86.0625,4.71146423250827,7.94766544563844,0.7285600927791,-0.0183727034120735,0.0794115851797595,-0.680217298419093,-0.88,-1.32,9.67
11.7343071,180,180,0,2.9204,0,86.0625,4.74075064098276,8.03106092680298,0.728499053897333,-0.0184337422938412,0.0795947018250626,-0.680217298419093,-0.89,-1.32,9.67
11.8412904,180,180,0,2.7734,0,86.0625,4.94129175604526,8.33535644298666,0.72831593725203,-0.0191051699932857,0.0828908014405176,-0.68003418177379,-0.92,-1.37,9.66
11.8635247,180,180,0,2.7538,0,86.0625,5.02691910933926,8.44580646049623,0.728254898370262,-0.0193493255203565,0.0836843069034975,-0.679973142892022,-0.93,-1.39,9.66
11.8807641,180,180,0,2.7048,0,86.0625,4.99986457299423,8.50214740531574,0.728193859488494,-0.0194714032838918,0.0845388512482451,-0.679973142892022,-0.94,-1.4,9.65
11.9864496,180,180,0,2.4794,0,86.0625,5.2882649134802,9.05662936499304,0.727827626197888,-0.0203869865104071,0.08942196178966,-0.679667948483184,-1,-1.48,9.64
12.0044617,180,180,0,2.4598,0,86.0625,5.37389226677421,9.16707938250261,0.72776658731612,-0.0205701031557102,0.0904596227797107,-0.679606909601416,-1.01,-1.49,9.63
12.0214691,180,180,0,2.4304,0,86.0625,5.45951962006821,9.27752940001218,0.727705548434353,-0.0207532198010132,0.0914972837697613,-0.679545870719648,-1.02,-1.51,9.63
12.1395167,180,180,0,2.156,0,86.0625,5.83354731384818,9.94246137719904,0.727217237380211,-0.0219129585545993,0.0981505218824391,-0.679118598547275,-1.1,-1.61,9.6
12.1585377,180,180,0,2.107,0,86.0625,5.83577918597765,10.0821978031831,0.727095159616676,-0.0220960751999023,0.0992492217542575,-0.679057559665507,-1.12,-1.63,9.6
12.1757917,180,180,0,2.0874,0,86.0625,5.89212013079716,10.1092523395281,0.727034120734908,-0.0222181529634377,0.0997985716901666,-0.678996520783739,-1.12,-1.64,9.6
12.2833298,180,180,0,1.8816,0,86.0625,6.20980687975762,10.74712978037,0.726545809680767,-0.0233168528352561,0.105902459866935,-0.678569248611365,-1.19,-1.74,9.57
12.3033952,180,180,0,1.8326,0,86.0625,6.29543423305162,10.8575797978795,0.726423731917231,-0.0234389305987914,0.107062198620521,-0.678508209729598,-1.21,-1.75,9.57
12.3204229,180,180,0,1.813,0,86.0625,6.38106158634563,10.9680298153891,0.726362693035464,-0.0236830861258622,0.10816089849234,-0.67844717084783,-1.22,-1.77,9.56
12.427505,180,180,0,1.6758,0,86.0625,6.61312098201208,11.4954572387214,0.725874381981322,-0.0244155527070744,0.113349203442593,-0.678080937557224,-1.28,-1.85,9.54
12.447371,180,180,0,1.6562,0,86.0625,6.64240739048657,11.5788527198859,0.725813343099554,-0.0244765915888421,0.114081670023805,-0.678019898675456,-1.29,-1.86,9.53
12.4644871,180,180,0,1.6464,0,86.0625,6.67169379896106,11.6622482010505,0.725813343099554,-0.0245376304706098,0.114447903314411,-0.677958859793689,-1.3,-1.87,9.53
12.5633516,180,180,0,1.5876,0,86.0625,6.81589396920404,11.9394891808891,0.725508148690716,-0.0249038637612159,0.117438808521028,-0.677775743148386,-1.34,-1.91,9.52
12.5834624,180,180,0,1.5778,0,86.0625,6.84518037767853,12.0228846620536,0.725447109808948,-0.0249038637612159,0.117805041811634,-0.677714704266618,-1.34,-1.92,9.52
12.6003929,180,180,0,1.5778,0,86.0625,6.84518037767853,12.0228846620536,0.725447109808948,-0.0249649026429836,0.118110236220472,-0.677714704266618,-1.34,-1.92,9.52
12.6984791,180,180,0,1.6072,0,86.0625,6.87446678615302,12.1062801432182,0.725386070927181,-0.0245986693523775,0.118842702801685,-0.67765366538485,-1.36,-1.92,9.51
12.7204697,180,180,0,1.6268,0,86.0625,6.81812584133351,12.0792256068732,0.725386070927181,-0.0244155527070744,0.118598547274614,-0.677714704266618,-1.36,-1.92,9.51
12.7354526,180,180,0,1.6464,0,86.0625,6.81812584133351,12.0792256068732,0.725386070927181,-0.0243545138253067,0.118415430629311,-0.677714704266618,-1.36,-1.92,9.51
12.8324558,180,180,0,1.7542,0,86.0625,6.70321207956501,11.8853801081991,0.725569187572484,-0.0238051638893975,0.116462186412745,-0.677897820911921,-1.34,-1.88,9.52
12.8527489,180,180,0,1.764,0,86.0625,6.6468711347455,11.858325571854,0.725569187572484,-0.0237441250076299,0.116218030885674,-0.677897820911921,-1.33,-1.87,9.53
12.8750596,180,180,0,1.8032,0,86.0625,6.61758472627101,11.7749300906895,0.725691265336019,-0.0234389305987914,0.115241408777391,-0.678019898675456,-1.32,-1.85,9.53
12.9963736,180,180,0,2.0188,0,86.0625,6.2457889046205,11.2497345394867,0.726118537508393,-0.0222181529634377,0.110175181590673,-0.67844717084783,-1.27,-1.78,9.55
13.0154291,180,180,0,2.0678,0,86.0625,6.18721608767152,11.0829435771576,0.726240615271928,-0.0217908807910639,0.108588170664713,-0.678569248611365,-1.25,-1.75,9.56
13.0326777,180,180,0,2.0874,0,86.0625,6.13087514285201,11.0558890408126,0.726240615271928,-0.0216688030275285,0.108099859610572,-0.678630287493133,-1.25,-1.74,9.56
13.1363965,180,180,0,2.303,0,86.125,5.81542026602101,10.5577480259548,0.726545809680767,-0.0205701031557102,0.103277787950925,-0.679118598547275,-1.19,-1.66,9.58
13.1556074,180,180,0,2.3324,0,86.125,5.78613385754652,10.4743525447902,0.726606848562534,-0.0203259476286394,0.102118049197339,-0.67924067631081,-1.18,-1.64,9.59
13.171522,180,180,0,2.3814,0,86.125,5.72756104059754,10.3075615824612,0.726667887444302,-0.0200817921015687,0.100897271561985,-0.679301715192578,-1.16,-1.62,9.6
13.2683248,180,180,0,2.5676,0,86.125,5.41210616376655,9.80942056760338,0.726912042971373,-0.0189220533479827,0.0958920832570347,-0.679790026246719,-1.11,-1.54,9.61
13.2865913,180,180,0,2.5872,0,86.125,5.38281975529206,9.72602508643883,0.72697308185314,-0.0187999755844473,0.0953427333211256,-0.679851065128487,-1.1,-1.52,9.62
13.3024771,180,180,0,2.6166,0,86.125,5.29719240199806,9.61557506892927,0.727034120734908,-0.0185558200573765,0.0941829945675395,-0.679912104010254,-1.09,-1.52,9.62
13.4044048,180,180,0,2.7832,0,86.125,5.03807846998658,9.14448859041651,0.727339315143747,-0.0175791979490936,0.08942196178966,-0.680278337300861,-1.04,-1.44,9.64
13.4235445,180,180,0,2.793,0,86.125,4.95245111669257,9.03403857290694,0.727461392907282,-0.0172740035402551,0.0880180675090032,-0.680339376182628,-1.02,-1.42,9.64
13.4404932,180,180,0,2.8224,0,86.125,4.92316470821808,8.9506430917424,0.727461392907282,-0.0171519257767198,0.0875297564548617,-0.680400415064396,-1.01,-1.41,9.65
13.5393696,180,180,0,2.9106,0,86.125,4.74967812950061,8.59000663073921,0.727705548434353,-0.0165415369590429,0.0841115790758713,-0.680583531709699,-0.97,-1.35,9.66
13.5587541,180,180,0,2.9204,0,86.125,4.69333718468109,8.56295209439418,0.727705548434353,-0.0164804980772752,0.0838063846670329,-0.680644570591467,-0.97,-1.35,9.66
13.5775225,180,180,0,2.9204,0,86.125,4.66405077620661,8.47955661322964,0.72776658731612,-0.0163584203137399,0.0829518403222853,-0.680644570591467,-0.96,-1.34,9.66
13.6764847,180,180,0,2.9302,0,86.125,4.60547795925763,8.31276565090056,0.727888665079656,-0.0161142647866691,0.0815479460416285,-0.680766648355002,-0.94,-1.31,9.67
13.6947879,180,180,0,2.9204,0,86.125,4.60547795925763,8.31276565090056,0.727888665079656,-0.0161753036684368,0.0814258682780931,-0.680766648355002,-0.94,-1.31,9.67
13.7103854,180,180,0,2.9204,0,86.125,4.60547795925763,8.31276565090056,0.727888665079656,-0.0162363425502045,0.0813648293963255,-0.680766648355002,-0.94,-1.31,9.67
13.8075061,180,180,0,2.8518,0,86.125,4.69110531255163,8.42321566841013,0.727827626197888,-0.0166025758408106,0.0825856070316792,-0.680644570591467,-0.95,-1.33,9.66
13.8265746,180,180,0,2.8224,0,86.125,4.69110531255163,8.42321566841013,0.72776658731612,-0.016724653604346,0.0829518403222853,-0.680644570591467,-0.96,-1.34,9.66
13.8423951,180,180,0,2.8126,0,86.125,4.72039172102612,8.50661114957467,0.72776658731612,-0.0168467313678813,0.0833791124946591,-0.680644570591467,-0.96,-1.35,9.66
13.9396108,180,180,0,2.6656,0,86.125,4.92093283608862,8.81090666575834,0.727583470670817,-0.0176402368308613,0.0864920954648111,-0.680400415064396,-0.99,-1.4,9.65
13.9613853,180,180,0,2.6264,0,86.125,4.95021924456311,8.89430214692289,0.72752243178905,-0.0177623145943966,0.0872245620460233,-0.680400415064396,-1.01,-1.42,9.64
13.9784136,180,180,0,2.6068,0,86.125,4.9795056530376,8.97769762808743,0.727461392907282,-0.0180064701214674,0.0879570286272355,-0.680339376182628,-1.01,-1.43,9.64
14.0834667,180,180,0,2.401,0,86.125,5.32201506621362,9.4194976981257,0.727156198498443,-0.0191662088750534,0.0929622169321858,-0.679973142892022,-1.06,-1.51,9.63
14.102389,180,180,0,2.3618,0,86.125,5.3805878831626,9.58628866045478,0.727095159616676,-0.0194103644021242,0.0938167612769334,-0.679912104010254,-1.07,-1.52,9.62
14.1184276,180,180,0,2.3324,0,86.125,5.43692882798211,9.6133431967998,0.727034120734908,-0.0195324421656595,0.0943050723310749,-0.679912104010254,-1.08,-1.53,9.62
14.2244471,180,180,0,2.1168,0,86.125,5.75238370481311,10.1114842116576,0.726667887444302,-0.0208752975645486,0.0996154550448636,-0.679484831837881,-1.14,-1.62,9.6
14.2443965,180,180,0,2.0972,0,86.125,5.78167011328759,10.1948796928221,0.726606848562534,-0.0210584142098517,0.100103766099005,-0.679484831837881,-1.14,-1.63,9.6
14.2604334,180,180,0,2.058,0,86.125,5.8672974665816,10.3053297103317,0.726545809680767,-0.0214246475004578,0.101507660379662,-0.679362754074345,-1.16,-1.65,9.59
14.3645485,180,180,0,1.9012,0,86.125,6.18275234341259,10.8034707251895,0.726179576390161,-0.0226454251358115,0.106329732039309,-0.678996520783739,-1.21,-1.73,9.57
14.3834982,180,180,0,1.862,0,86.125,6.21203875188708,10.886866206354,0.726118537508393,-0.0227675028993469,0.106818043093451,-0.678935481901972,-1.21,-1.74,9.57
14.3995949,180,180,0,1.8424,0,86.125,6.2683796967066,10.913920742699,0.725996459744857,-0.023133736189953,0.108038820728804,-0.678813404138436,-1.22,-1.76,9.56
14.4995001,180,180,0,1.7346,0,86.125,6.49820722024359,11.3016117400473,0.725691265336019,-0.0241713971800037,0.112067386925472,-0.678508209729598,-1.27,-1.83,9.54
14.523516,180,180,0,1.715,0,86.125,6.64017551835711,11.4391162939019,0.725630226454251,-0.0244155527070744,0.112616736861381,-0.67844717084783,-1.27,-1.84,9.54
14.5396532,180,180,0,1.6954,0,86.125,6.64017551835711,11.4391162939019,0.725630226454251,-0.0245986693523775,0.113105047915522,-0.678386131966062,-1.28,-1.85,9.54
14.6395538,180,180,0,1.666,0,86.125,6.7550892801256,11.632961792576,0.725508148690716,-0.0252090581700543,0.11475309772325,-0.678203015320759,-1.29,-1.88,9.53
14.658575,180,180,0,1.6562,0,86.125,6.78437568860009,11.7163572737405,0.725447109808948,-0.025270097051822,0.115119331013856,-0.678203015320759,-1.3,-1.89,9.53
14.6755561,180,180,0,1.6562,0,86.125,6.78437568860009,11.7163572737405,0.725447109808948,-0.0254532136971251,0.115363486540927,-0.678203015320759,-1.3,-1.89,9.53
14.7725072,180,180,0,1.6954,0,86.125,6.84071663341961,11.7434118100855,0.725447109808948,-0.0255142525788928,0.115363486540927,-0.678141976438992,-1.3,-1.89,9.53
14.7915321,180,180,0,1.715,0,86.125,6.86777116976463,11.687070865266,0.725447109808948,-0.0255142525788928,0.115302447659159,-0.678141976438992,-1.29,-1.89,9.53
14.8076248,180,180,0,1.715,0,86.125,6.81143022494512,11.660016328921,0.725447109808948,-0.0255752914606604,0.115058292132088,-0.678203015320759,-1.29,-1.89,9.53
14.908445,180,180,0,1.813,0,86.125,6.69651646317662,11.4661708302469,0.725630226454251,-0.0252090581700543,0.113044009033755,-0.678325093084295,-1.27,-1.86,9.54
14.9267163,180,180,0,1.8424,0,86.125,6.66723005470213,11.3827753490823,0.725691265336019,-0.025086980406519,0.11237258133431,-0.678386131966062,-1.26,-1.85,9.54
14.9434908,180,180,0,1.862,0,86.125,6.63794364622764,11.2993798679178,0.725752304217787,-0.0250259415247513,0.111762192516633,-0.67844717084783,-1.25,-1.84,9.54
15.0475902,180,180,0,2.0286,0,86.125,6.38106158634563,10.9680298153891,0.726057498626625,-0.0241713971800037,0.108038820728804,-0.678752365256668,-1.21,-1.78,9.56
15.0669533,180,180,0,2.0482,0,86.125,6.35177517787114,10.8846343342246,0.726179576390161,-0.0239882805347006,0.107184276384057,-0.678813404138436,-1.2,-1.76,9.57
15.0836183,180,180,0,2.0874,0,86.125,6.32248876939665,10.80123885306,0.726240615271928,-0.0238051638893975,0.106329732039309,-0.678874443020204,-1.19,-1.75,9.57
15.181508,180,180,0,2.2638,0,86.125,6.06337483738517,10.3301523745473,0.726484770798999,-0.0227064640175792,0.101934932552036,-0.679301715192578,-1.14,-1.68,9.59
15.2025324,180,180,0,2.303,0,86.125,5.97774748409117,10.2197023570377,0.726545809680767,-0.0225233473722761,0.100958310443753,-0.679423792956113,-1.13,-1.66,9.59
15.2186342,180,180,0,2.3324,0,86.125,5.92140653927165,10.1926478206927,0.726606848562534,-0.0222791918452054,0.100042727217237,-0.679484831837881,-1.12,-1.65,9.6
15.3146017,180,180,0,2.499,0,86.125,5.66229260726017,9.72156134217991,0.726851004089605,-0.0213025697369224,0.0960141610205701,-0.679790026246719,-1.08,-1.58,9.61
15.3327332,180,180,0,2.5186,0,86.125,5.63300619878568,9.63816586101537,0.726912042971373,-0.0211194530916194,0.0950985777940548,-0.679851065128487,-1.07,-1.56,9.62
15.349645,180,180,0,2.5676,0,86.125,5.54737884549168,9.5277158435058,0.72697308185314,-0.0208752975645486,0.0941219556857718,-0.679973142892022,-1.06,-1.55,9.62
15.4515523,180,180,0,2.7048,0,86.125,5.26121037713518,9.11297030981256,0.727278276261979,-0.0197765976927303,0.0900933894891046,-0.680217298419093,-1.02,-1.48,9.63
15.4704734,180,180,0,2.7342,0,86.125,5.23192396866069,9.02957482864801,0.727278276261979,-0.0195934810474272,0.089238845144357,-0.680278337300861,-1.01,-1.46,9.64
15.4875777,180,180,0,2.744,0,86.125,5.23192396866069,9.02957482864801,0.727339315143747,-0.0194714032838918,0.0888115729719832,-0.680339376182628,-1,-1.45,9.64
15.5836,180,180,0,2.8224,0,86.125,5.03138285359819,8.72527931246434,0.72752243178905,-0.0186168589391442,0.0860648232924373,-0.680522492827931,-0.97,-1.4,9.65
15.6015528,180,180,0,2.842,0,86.125,5.0020964451237,8.6418838312998,0.727583470670817,-0.0183727034120735,0.0852713178294574,-0.680583531709699,-0.97,-1.4,9.65
15.6176477,180,180,0,2.842,0,86.125,4.94575550030418,8.61482929495477,0.727583470670817,-0.0181895867667704,0.0849050845388512,-0.680583531709699,-0.96,-1.39,9.65
15.7186846,180,180,0,2.8616,0,86.125,4.86012814701018,8.5043792774452,0.727644509552585,-0.0178233534761643,0.0836232680217298,-0.680705609473234,-0.95,-1.37,9.66
15.7379315,180,180,0,2.8518,0,86.125,4.80378720219066,8.47732474110018,0.727644509552585,-0.0177623145943966,0.0834401513764268,-0.680705609473234,-0.95,-1.36,9.66
15.7535838,180,180,0,2.8518,0,86.125,4.80378720219066,8.47732474110018,0.727644509552585,-0.0177012757126289,0.0833791124946591,-0.680705609473234,-0.95,-1.36,9.66
15.851503,180,180,0,2.793,0,86.125,4.83307361066515,8.56072022226472,0.727583470670817,-0.0174571201855582,0.0842336568394067,-0.680705609473234,-0.96,-1.37,9.66
15.8706139,180,180,0,2.7734,0,86.125,4.86236001913964,8.64411570342926,0.72752243178905,-0.0173960813037905,0.0847219678935482,-0.680644570591467,-0.97,-1.37,9.65
15.8855765,180,180,0,2.7636,0,86.125,4.86236001913964,8.64411570342926,0.72752243178905,-0.0173960813037905,0.0849050845388512,-0.680644570591467,-0.97,-1.38,9.65
15.9846222,180,180,0,2.6558,0,86.1875,5.00656018938263,8.92135668326791,0.727339315143747,-0.0177012757126289,0.0875907953366294,-0.680522492827931,-1.01,-1.42,9.64
16.0035707,180,180,0,2.6166,0,86.1875,4.9795056530376,8.97769762808743,0.727339315143747,-0.0177012757126289,0.0879570286272355,-0.680522492827931,-1.01,-1.42,9.64
16.0205148,180,180,0,2.597,0,86.1875,5.00879206151209,9.06109310925197,0.727217237380211,-0.0178233534761643,0.0889946896172862,-0.680461453946164,-1.03,-1.44,9.64
16.117579,180,180,0,2.4402,0,86.1875,5.23861958504908,9.44878410660018,0.72697308185314,-0.0183116645303058,0.0925959836415797,-0.680217298419093,-1.08,-1.5,9.63
16.1365594,180,180,0,2.401,0,86.1875,5.26790599352357,9.53217958776473,0.726912042971373,-0.0183727034120735,0.0933894891045596,-0.680156259537325,-1.08,-1.5,9.62
16.1526604,180,180,0,2.3814,0,86.1875,5.29719240199806,9.61557506892927,0.726912042971373,-0.0184947811756089,0.0938167612769334,-0.680156259537325,-1.09,-1.51,9.62
16.2495817,180,180,0,2.205,0,86.1875,5.52701992553505,10.0032660662775,0.726606848562534,-0.0192272477568211,0.0980284441189037,-0.679851065128487,-1.14,-1.58,9.61
16.2709684,180,180,0,2.1658,0,86.1875,5.55630633400953,10.086661547442,0.726484770798999,-0.0194714032838918,0.0992492217542575,-0.679790026246719,-1.15,-1.6,9.6
16.2887688,180,180,0,2.1266,0,86.1875,5.58559274248402,10.1700570286066,0.726484770798999,-0.0195324421656595,0.0996764939266313,-0.679728987364951,-1.16,-1.61,9.6
16.3886549,180,180,0,1.9796,0,86.1875,5.8447066744955,10.6411435071193,0.726179576390161,-0.0203869865104071,0.103827137886834,-0.679423792956113,-1.21,-1.68,9.58
16.4108962,180,180,0,1.9502,0,86.1875,5.90104761931502,10.6681980434644,0.726057498626625,-0.0206311420374779,0.105047915522188,-0.679362754074345,-1.22,-1.69,9.58
16.4275294,180,180,0,1.9306,0,86.1875,5.98667497260902,10.7786480609739,0.725996459744857,-0.0208142586827809,0.105902459866935,-0.679301715192578,-1.23,-1.7,9.57
16.5256659,180,180,0,1.8228,0,86.1875,6.1601615513265,11.1392845219771,0.725752304217787,-0.0215467252639932,0.109137520600623,-0.678996520783739,-1.26,-1.76,9.56
16.544767,180,180,0,1.7934,0,86.1875,6.18944795980098,11.2226800031416,0.725691265336019,-0.0217298419092962,0.109808948300067,-0.678935481901972,-1.27,-1.77,9.56
16.5615601,180,180,0,1.7836,0,86.1875,6.21873436827547,11.3060754843062,0.725630226454251,-0.0218519196728316,0.110480375999512,-0.678874443020204,-1.28,-1.78,9.55
16.6587609,180,180,0,1.7346,0,86.125,6.38998907486348,11.5269755193253,0.725447109808948,-0.0226454251358115,0.112799853506684,-0.678691326374901,-1.3,-1.82,9.54
16.6767088,180,180,0,1.7248,0,86.125,6.446330019683,11.5540300556703,0.725447109808948,-0.0227064640175792,0.113044009033755,-0.678630287493133,-1.3,-1.82,9.54
16.6930998,180,180,0,1.7248,0,86.125,6.446330019683,11.5540300556703,0.725447109808948,-0.0227064640175792,0.11316608679729,-0.678630287493133,-1.3,-1.82,9.54
16.8079999,180,180,0,1.7346,0,86.125,6.531957372977,11.6644800731799,0.725386070927181,-0.0231947750717207,0.11395959226027,-0.678569248611365,-1.31,-1.84,9.54
16.8336505,180,180,0,1.7542,0,86.125,6.55901190932203,11.6081391283604,0.725386070927181,-0.0231947750717207,0.113837514496734,-0.678569248611365,-1.3,-1.84,9.54
16.8509939,180,180,0,1.764,0,86.125,6.50267096450251,11.5810845920154,0.725386070927181,-0.0232558139534884,0.113715436733199,-0.678569248611365,-1.3,-1.84,9.54
16.9609618,180,180,0,1.8522,0,86.125,6.47115268389856,11.3579526848668,0.725630226454251,-0.0231947750717207,0.111640114753098,-0.678691326374901,-1.27,-1.81,9.55
16.9876026,180,180,0,1.8816,0,86.125,6.41481173907905,11.3308981485218,0.725630226454251,-0.0231947750717207,0.111151803698956,-0.678691326374901,-1.26,-1.8,9.55
17.0028397,180,180,0,1.911,0,86.125,6.38552533060456,11.2475026673572,0.725691265336019,-0.023133736189953,0.110602453763047,-0.678752365256668,-1.26,-1.79,9.55
17.1136377,180,180,0,2.0678,0,86.125,6.21203875188708,10.886866206354,0.726057498626625,-0.0226454251358115,0.106451809802844,-0.679057559665507,-1.21,-1.74,9.57
17.1315339,180,180,0,2.0874,0,86.125,6.18275234341259,10.8034707251895,0.726118537508393,-0.0225843862540438,0.106085576512238,-0.679057559665507,-1.2,-1.73,9.57
17.1466389,180,180,0,2.1266,0,86.125,6.1534659349381,10.7200752440249,0.726179576390161,-0.0225233473722761,0.105292071049258,-0.679118598547275,-1.2,-1.72,9.57
17.2435751,180,180,0,2.2736,0,86.125,5.92363841140112,10.3323842466767,0.726484770798999,-0.021973997436367,0.101629738143197,-0.679362754074345,-1.15,-1.66,9.59
17.2629985,180,180,0,2.2932,0,86.125,5.89435200292663,10.2489887655122,0.726484770798999,-0.0218519196728316,0.100714154916682,-0.679484831837881,-1.13,-1.64,9.59
17.284705,180,180,0,2.3422,0,86.125,5.86506559445214,10.1655932843476,0.726545809680767,-0.0216688030275285,0.0999816883354697,-0.679545870719648,-1.13,-1.64,9.6
17.3955934,180,180,0,2.5088,0,86.125,5.60595166244066,9.69450680583488,0.726789965207837,-0.0210584142098517,0.0954037722028932,-0.679973142892022,-1.07,-1.57,9.61
17.4155689,180,180,0,2.548,0,86.125,5.54737884549168,9.5277158435058,0.726912042971373,-0.0208752975645486,0.0942440334493072,-0.68003418177379,-1.06,-1.55,9.62
