Time (s),Setpoint (deg),Motor Position (deg),Tension 1 (N),Tension 2 (N),Tension 3 (N),Heading (deg),Pitch (deg),Roll (deg),Quaternion W,Quaternion X,Quaternion Y,Quaternion Z,Gravity X,Gravity Y,Gravity Z
0,0,0,0,0,0,0,0,0,0,0,0,0,0,0,0
0.0198718,0,0.45,0.9996,0,0,70.3125,1.94879813501401,4.74907868211992,0.816517121406336,-0.0100103766099005,0.04431422816334,-0.575657693951047,-0.59,-0.66,9.76
0.2340132,0,0,1.1858,0,0,70.3125,1.92174359866899,4.80541962693944,0.816517121406336,-0.00970518220106208,0.0442531892815724,-0.575657693951047,-0.59,-0.65,9.76
0.2609529,0,0,1.2446,0,0,70.3125,1.92174359866899,4.80541962693944,0.816517121406336,-0.00952206555575902,0.044131111518037,-0.575657693951047,-0.59,-0.65,9.76
0.4230146,0,0,1.274,0,0,70.375,1.75272076421044,4.72425601790436,0.816517121406336,-0.0083012879204053,0.0436428004638955,-0.575718732832814,-0.6,-0.62,9.76
0.4680017,0,0,1.274,0,0,70.375,1.75272076421044,4.72425601790436,0.816517121406336,-0.00799609351156687,0.0433986449368248,-0.575779771714582,-0.6,-0.61,9.76
0.6048497,0,0,1.2544,0,0,70.375,1.5836979297519,4.64309240886928,0.816517121406336,-0.00695843252151621,0.0427272172373802,-0.575779771714582,-0.6,-0.59,9.76
0.6250652,0,0,1.225,0,0,70.375,1.5836979297519,4.64309240886928,0.816517121406336,-0.00683635475798083,0.0426661783556125,-0.57584081059635,-0.6,-0.59,9.77
0.6420316,0,0,1.225,0,0,70.375,1.5836979297519,4.64309240886928,0.816517121406336,-0.00665323811267778,0.0425441005920772,-0.57584081059635,-0.6,-0.58,9.77
0.8179296,0,0,1.1662,0,0,70.375,1.41467509529335,4.56192879983421,0.816517121406336,-0.00543246047732406,0.0416895562473295,-0.575901849478118,-0.6,-0.55,9.77
0.8378205,0,0,1.1662,0,0,70.375,1.41467509529335,4.56192879983421,0.816517121406336,-0.00537142159555637,0.0416285173655619,-0.575901849478118,-0.6,-0.55,9.77
0.8539449,0,0,1.1662,0,0,70.375,1.35833415047383,4.53487426348918,0.816517121406336,-0.00531038271378868,0.0415674784837942,-0.575901849478118,-0.6,-0.55,9.77
0.9621531,0,0,1.127,0,0,70.375,1.35833415047383,4.53487426348918,0.816517121406336,-0.00518830495025331,0.0415064396020265,-0.575901849478118,-0.6,-0.55,9.77
0.9800211,0,0,1.127,0,0,70.375,1.35833415047383,4.53487426348918,0.816517121406336,-0.00518830495025331,0.0415064396020265,-0.575901849478118,-0.6,-0.55,9.77
0.9968722,0,0,1.0976,0,0,70.375,1.35833415047383,4.53487426348918,0.816517121406336,-0.00518830495025331,0.0415064396020265,-0.575901849478118,-0.6,-0.55,9.77
1.0969257,0,0,1.0682,0,0,70.375,1.35833415047383,4.53487426348918,0.816517121406336,-0.00518830495025331,0.0415064396020265,-0.575901849478118,-0.6,-0.55,9.77
1.116881,0,0,1.0682,0,0,70.375,1.35833415047383,4.53487426348918,0.816517121406336,-0.00518830495025331,0.0415064396020265,-0.575901849478118,-0.6,-0.55,9.77
1.1352003,0,0,1.0682,0,0,70.375,1.35833415047383,4.53487426348918,0.816517121406336,-0.00518830495025331,0.0415064396020265,-0.575901849478118,-0.6,-0.55,9.77
1.2357564,0,0,1.0388,0,0,70.375,1.35833415047383,4.53487426348918,0.816517121406336,-0.00549349935909174,0.0413843618384911,-0.575901849478118,-0.6,-0.55,9.77
1.2538075,0,0,1.0388,0,0,70.375,1.41467509529335,4.56192879983421,0.816517121406336,-0.00555453824085943,0.0413843618384911,-0.575901849478118,-0.59,-0.55,9.77
1.2759489,0,0,1.0192,0,0,70.375,1.41467509529335,4.56192879983421,0.816517121406336,-0.00579869376793017,0.0413843618384911,-0.575901849478118,-0.59,-0.56,9.77
1.3989672,0,0,1.0094,0,0,70.375,1.58146605762243,4.50335598288523,0.816578160288103,-0.00695843252151621,0.0414454007202588,-0.57584081059635,-0.58,-0.57,9.77
1.4202083,0,0,1.0094,0,0,70.375,1.58146605762243,4.50335598288523,0.816578160288103,-0.00701947140328389,0.0415064396020265,-0.57584081059635,-0.58,-0.58,9.77
1.4371953,0,0,1.0094,0,0,70.375,1.58146605762243,4.50335598288523,0.816578160288103,-0.00726362693035464,0.0415674784837942,-0.57584081059635,-0.58,-0.58,9.77
1.5460183,0,0,1.0094,0,0,70.375,1.69414794726146,4.55746505557528,0.816578160288103,-0.00824024903863761,0.0419337117744003,-0.575779771714582,-0.57,-0.6,9.77
1.5659051,0,0,1.0192,0,0,70.375,1.69414794726146,4.55746505557528,0.816578160288103,-0.00836232680217298,0.0419337117744003,-0.575779771714582,-0.57,-0.6,9.77
1.5829535,0,0,1.0192,0,0,70.3125,1.777543428426,4.52817864710079,0.816578160288103,-0.00860648232924373,0.041994750656168,-0.575779771714582,-0.57,-0.61,9.77
1.6800248,0,0,1.029,0,0,70.3125,1.89022531806503,4.58228771979084,0.816578160288103,-0.00970518220106208,0.0422389061832387,-0.575718732832814,-0.56,-0.63,9.76
1.7018764,0,0,1.029,0,0,70.3125,1.91727985441006,4.52594677497133,0.816578160288103,-0.00994933772813282,0.0422389061832387,-0.575718732832814,-0.56,-0.63,9.76
1.7192091,0,0,1.029,0,0,70.3125,1.91727985441006,4.52594677497133,0.816578160288103,-0.0100714154916682,0.0422999450650064,-0.575718732832814,-0.56,-0.63,9.76
1.8298902,0,0,1.0486,0,0,70.3125,2.08630268886861,4.6071103840064,0.816578160288103,-0.0111701153634865,0.0427882561191479,-0.575657693951047,-0.55,-0.66,9.76
1.8499326,0,0,1.078,0,0,70.3125,2.08630268886861,4.6071103840064,0.816578160288103,-0.0112921931270219,0.0427882561191479,-0.575657693951047,-0.55,-0.66,9.76
1.8661163,0,0,1.078,0,0,70.3125,2.08630268886861,4.6071103840064,0.816578160288103,-0.0114142708905573,0.0428492950009156,-0.575657693951047,-0.55,-0.66,9.76
1.9658972,0,0,1.1172,0,0,70.3125,2.14264363368812,4.63416492035143,0.816578160288103,-0.0118415430629311,0.043154489409754,-0.575596655069279,-0.55,-0.67,9.76
1.9849772,0,0,1.1172,0,0,70.3125,2.14264363368812,4.63416492035143,0.816578160288103,-0.0118415430629311,0.043154489409754,-0.575596655069279,-0.55,-0.67,9.76
2.0029944,0,0,1.1172,0,0,70.3125,2.14264363368812,4.63416492035143,0.816578160288103,-0.0118415430629311,0.043154489409754,-0.575596655069279,-0.55,-0.67,9.76
2.1010136,0,0,1.1466,0,0,70.3125,2.14264363368812,4.63416492035143,0.816578160288103,-0.0118415430629311,0.043154489409754,-0.575596655069279,-0.55,-0.67,9.76
2.1222308,0,0,1.176,0,0,70.3125,2.14264363368812,4.63416492035143,0.816578160288103,-0.0118415430629311,0.043154489409754,-0.575596655069279,-0.55,-0.67,9.76
2.1380216,0,0,1.176,0,0,70.3125,2.14264363368812,4.63416492035143,0.816578160288103,-0.0118415430629311,0.043154489409754,-0.575596655069279,-0.55,-0.67,9.76
2.2370759,0,0,1.2054,0,0,70.3125,2.14264363368812,4.63416492035143,0.816578160288103,-0.0118415430629311,0.043154489409754,-0.575596655069279,-0.55,-0.67,9.76
2.258042,0,0,1.2054,0,0,70.3125,2.14264363368812,4.63416492035143,0.816578160288103,-0.0118415430629311,0.043154489409754,-0.575596655069279,-0.55,-0.67,9.76
2.2749688,0,0,1.2054,0,0,70.3125,2.14264363368812,4.63416492035143,0.816578160288103,-0.0118415430629311,0.043154489409754,-0.575596655069279,-0.55,-0.67,9.76
2.3750651,0,0,1.225,0,0,70.3125,2.08630268886861,4.6071103840064,0.816578160288103,-0.0115973875358603,0.042971372764451,-0.575596655069279,-0.55,-0.67,9.76
2.3930292,0,0,1.2348,0,0,70.3125,2.08630268886861,4.6071103840064,0.816578160288103,-0.0115973875358603,0.042971372764451,-0.575596655069279,-0.55,-0.67,9.76
2.40899,0,0,1.2348,0,0,70.3125,2.08630268886861,4.6071103840064,0.816578160288103,-0.0115973875358603,0.042971372764451,-0.575596655069279,-0.55,-0.67,9.76
2.5080421,0,0,1.2446,0,0,70.3125,2.08630268886861,4.6071103840064,0.816578160288103,-0.0112311542452542,0.0427272172373802,-0.575657693951047,-0.55,-0.66,9.76
2.5260541,0,0,1.2446,0,0,70.3125,2.02996174404909,4.58005584766138,0.816578160288103,-0.0111701153634865,0.0426661783556125,-0.575657693951047,-0.55,-0.66,9.76
2.5429349,0,0,1.2446,0,0,70.3125,2.02996174404909,4.58005584766138,0.816578160288103,-0.0110480375999512,0.0426051394738448,-0.575657693951047,-0.55,-0.65,9.76
2.6409668,0,0,1.2348,0,0,70.3125,1.97362079922958,4.55300131131635,0.816578160288103,-0.010498687664042,0.042177867301471,-0.575657693951047,-0.55,-0.64,9.76
2.6600217,0,0,1.2348,0,0,70.3125,1.97362079922958,4.55300131131635,0.816578160288103,-0.0103155710187389,0.0421168284197034,-0.575657693951047,-0.55,-0.63,9.76
2.6759304,0,0,1.225,0,0,70.3125,1.91727985441006,4.52594677497133,0.816578160288103,-0.0101934932552036,0.041994750656168,-0.575718732832814,-0.55,-0.63,9.77
2.7753038,0,0,1.2054,0,0,70.3125,1.86093890959054,4.4988922386263,0.816578160288103,-0.00952206555575902,0.0415674784837942,-0.575718732832814,-0.55,-0.62,9.77
2.795185,0,0,1.2054,0,0,70.3125,1.80459796477103,4.47183770228127,0.816578160288103,-0.00939998779222365,0.0415064396020265,-0.575718732832814,-0.55,-0.61,9.77
2.8109755,0,0,1.2054,0,0,70.3125,1.80459796477103,4.47183770228127,0.816578160288103,-0.00921687114692059,0.0413843618384911,-0.575718732832814,-0.55,-0.61,9.77
2.9090796,0,0,1.176,0,0,70.3125,1.74825701995151,4.44478316593625,0.816639199169871,-0.00866752121101141,0.0411402063114204,-0.575779771714582,-0.56,-0.6,9.77
2.9282705,0,0,1.176,0,0,70.3125,1.74825701995151,4.44478316593625,0.816639199169871,-0.00848440456570836,0.0412012451931881,-0.575718732832814,-0.56,-0.6,9.77
2.9461209,0,0,1.176,0,0,70.3125,1.74825701995151,4.44478316593625,0.816639199169871,-0.00836232680217298,0.0412012451931881,-0.575718732832814,-0.56,-0.59,9.77
3.0440755,180,0,1.1466,0,0,70.3125,1.58146605762243,4.50335598288523,0.816639199169871,-0.00738570469389001,0.0412622840749557,-0.575718732832814,-0.57,-0.58,9.77
3.0631682,180,1.35,1.1172,0,0,70.3125,1.58146605762243,4.50335598288523,0.816639199169871,-0.00726362693035464,0.0413233229567234,-0.575718732832814,-0.57,-0.58,9.77
3.0838769,180,3.6,1.1172,0,0,70.3125,1.58146605762243,4.50335598288523,0.816639199169871,-0.00695843252151621,0.0413233229567234,-0.575718732832814,-0.58,-0.57,9.77
3.1900245,180,37.35,1.0878,0,0,70.3125,1.49807057645789,4.53264239135972,0.816700238051639,-0.00622596594030397,0.0413843618384911,-0.575657693951047,-0.59,-0.56,9.77
3.2108732,180,47.7,1.0878,0,0,70.3125,1.49807057645789,4.53264239135972,0.816700238051639,-0.00616492705853629,0.0414454007202588,-0.575657693951047,-0.59,-0.56,9.77
3.2268548,180,57.15,1.0878,0,0,70.3125,1.44172963163838,4.50558785501469,0.816700238051639,-0.00604284929500092,0.0414454007202588,-0.575657693951047,-0.59,-0.56,9.77
3.3309765,180,128.25,1.1662,0,0,70.3125,1.44172963163838,4.50558785501469,0.816700238051639,-0.0056766160043948,0.0412622840749557,-0.575657693951047,-0.59,-0.55,9.77
3.351191,180,139.05,1.1662,0,0,70.3125,1.38538868681886,4.47853331866966,0.816700238051639,-0.00531038271378868,0.0411402063114204,-0.575718732832814,-0.59,-0.54,9.77
3.3683822,180,147.6,1.1662,0,0,70.3125,1.35833415047383,4.53487426348918,0.816700238051639,-0.00518830495025331,0.0410791674296527,-0.575718732832814,-0.59,-0.54,9.77
3.5050263,180,180,1.47,0,0,70.375,1.02252035368621,4.51228347140308,0.816578160288103,-0.00225843862540438,0.0404687786119758,-0.575901849478118,-0.62,-0.49,9.77
3.5240872,180,180,2.0188,0,0,70.375,0.96617940886669,4.48522893505806,0.816578160288103,-0.00195324421656595,0.0404687786119758,-0.575901849478118,-0.62,-0.48,9.77
3.5411182,180,180,2.0188,0,0,70.375,0.882783927702149,4.51451534353254,0.816578160288103,-0.00128181651712141,0.0403467008484405,-0.575901849478118,-0.63,-0.46,9.77
3.6418772,180,180,2.7048,0,0,70.375,0.380179168585438,4.55049736839542,0.816456082524568,0.00341817737899042,0.0397973509125313,-0.576084966123421,-0.67,-0.39,9.77
3.6609655,180,180,2.7048,0,0,70.375,0.240442742601381,4.55272924052489,0.816456082524568,0.00457791613257645,0.0395531953854605,-0.576146005005188,-0.68,-0.37,9.77
3.6760433,180,180,2.7048,0,0,70.375,0.0443653717978092,4.52790657630933,0.8163950436428,0.00592077153146554,0.0393090398583898,-0.576207043886956,-0.69,-0.34,9.77
3.7780786,180,180,3.3222,0,0,71.1875,-0.710657702941989,4.51201140061162,0.812366477446133,0.0130012818165171,0.0380272233412684,-0.581883659891351,-0.75,-0.22,9.77
3.797905,180,180,3.6946,0,0,71.125,-0.906735073745561,4.48718873639606,0.812549594091436,0.0144662149789416,0.0376609900506623,-0.581578465482512,-0.76,-0.19,9.77
3.8139243,180,180,3.6946,0,0,71.6875,-1.04647149972962,4.48942060852552,0.809985961057193,0.0161142647866691,0.0372947567600562,-0.585179759506806,-0.77,-0.17,9.77
3.9122116,180,180,3.7534,0,0,71.625,-1.9682855367985,4.53209824977679,0.810046999938961,0.0239272416529329,0.0360129402429347,-0.584935603979735,-0.84,-0.03,9.77
3.9300934,180,180,3.7534,0,0,71.625,-2.08096742643753,4.47798917708674,0.810169077702496,0.0247817859976805,0.0358298235976317,-0.584691448452664,-0.86,0,9.76
3.948266,180,180,3.7534,0,0,71.625,-2.24775838876661,4.53656199403572,0.809863883293658,0.0266129524507111,0.0355246291887933,-0.584996642861503,-0.86,0.01,9.76
4.0461403,180,180,3.5868,0,0,71.625,-3.30930885181955,4.58147150741645,0.809985961057193,0.0360739791247024,0.0343648904352072,-0.584447292925594,-0.95,0.17,9.75
4.0673105,180,180,3.5868,0,0,71.625,-3.58878170378766,4.58593525167538,0.80980284441189,0.0380272233412684,0.0339986571446011,-0.584630409570897,-0.97,0.21,9.75
4.0839926,180,180,3.3222,0,0,71.625,-3.81191361093626,4.61745353227933,0.809863883293658,0.0399194286760667,0.0337545016175304,-0.584386254043826,-0.99,0.24,9.75
4.1821099,180,180,3.038,0,0,71.625,-4.81712312916968,4.68941758200509,0.80955868888482,0.0490142220594519,0.0327778795092474,-0.584203137398523,-1.08,0.4,9.73
4.2009839,180,180,3.038,0,0,71.5625,-5.01320049997325,4.66459491778953,0.809497650003052,0.0506622718671794,0.0325337239821766,-0.584081059634987,-1.09,0.43,9.73
4.2191523,180,180,3.038,0,0,71.5625,-5.0965959811378,4.69388132626402,0.80955868888482,0.051516816211927,0.0324116462186413,-0.583958981871452,-1.11,0.45,9.73
4.3190116,180,180,2.7636,0,0,71.5625,-5.87867359222262,4.73432709538583,0.809253494475981,0.0584752487334432,0.031679179637429,-0.583775865226149,-1.17,0.56,9.71
4.3371731,180,180,2.7636,0,0,71.5625,-6.01841001820668,4.73655896751529,0.809314533357749,0.0589635597875847,0.0316181407556614,-0.583653787462614,-1.18,0.57,9.71
4.3541062,180,180,2.5088,0,0,71.5625,-6.07475096302619,4.70950443117027,0.809253494475981,0.0596960263687969,0.0315571018738937,-0.583714826344381,-1.18,0.58,9.71
4.4611872,180,180,2.2932,0,0,71.5625,-6.32493740651982,4.79736365659373,0.804126228407496,0.0623206982848074,0.0312519074650552,-0.590490142220594,-1.21,0.62,9.71
4.4840928,180,180,2.2932,0,0,72.5625,-6.35199194286484,4.85370460141325,0.80400415064396,0.0623817371665751,0.0313739852285906,-0.590551181102362,-1.21,0.62,9.71
4.5009709,180,180,2.2932,0,0,72.5625,-6.35199194286484,4.85370460141325,0.804065189525728,0.0622596594030397,0.031496062992126,-0.590551181102362,-1.21,0.61,9.71
4.6080234,180,180,2.1462,0,0,74.3125,-6.01617814607721,4.87629539349935,0.79503143502411,0.0601232985411707,0.031496062992126,-0.602881035219435,-1.2,0.56,9.71
4.6290942,180,180,2.1462,0,0,74.9375,-5.90349625643818,4.9304044661894,0.791857413172191,0.0589635597875847,0.0315571018738937,-0.607153756943173,-1.19,0.53,9.71
4.645281,180,180,2.0678,0,0,74.9375,-5.76375983045413,4.92817259405994,0.791796374290423,0.0584142098516755,0.0317402185191967,-0.607214795824941,-1.18,0.52,9.71
4.7511207,180,180,2.0678,0,0,76.0625,-5.00873675571433,4.94406776975764,0.785936641640725,0.0518830495025331,0.0328389183910151,-0.615332967100043,-1.13,0.4,9.73
4.7713608,180,180,2.0678,0,0,76.4375,-4.78560484856573,4.91254948915369,0.78422755295123,0.0504791552218763,0.0330220350363181,-0.617591405725447,-1.11,0.37,9.73
4.7881373,180,180,2.0678,0,0,76.4375,-4.72926390374621,4.93960402549872,0.784349630714765,0.0489531831776842,0.0333882683269243,-0.617591405725447,-1.1,0.34,9.73
4.8910077,180,180,2.156,0,0,77.0625,-3.6947679770383,4.9510354569375,0.780870414454007,0.0413233229567234,0.0349752792528841,-0.622413477385094,-1.03,0.2,9.74
4.9100807,180,180,2.156,0,0,77.0625,-3.55503155105425,4.94880358480803,0.780931453335775,0.0405298174937435,0.0351583958981871,-0.622413477385094,-1.03,0.19,9.75
4.925981,180,180,2.303,0,0,77.0625,-3.41529512507019,4.94657171267857,0.780992492217543,0.038881767686016,0.0355856680705609,-0.622413477385094,-1.01,0.16,9.75
5.0281657,180,180,2.5186,0,0,77.0625,-2.38079919836228,4.95800314411735,0.781175608862846,0.0304584020020753,0.0374778734053592,-0.62253555514863,-0.94,0,9.76
5.0460833,180,180,2.5186,0,0,77.0625,-2.24106277237822,4.95577127198789,0.781236647744613,0.0288103521943478,0.0379661844595007,-0.622474516266862,-0.92,-0.03,9.76
5.0631794,180,180,2.5186,0,0,77.0625,-2.15766729121368,4.9264848635134,0.781297686626381,0.0271012635048526,0.0383934566318745,-0.62253555514863,-0.91,-0.05,9.76
5.1674866,180,180,2.7636,0,0,77.0625,-1.20656684567031,4.96720270342667,0.781419764389916,0.019044131111518,0.0402246230849051,-0.62253555514863,-0.84,-0.19,9.76
5.1869845,180,180,2.7636,0,0,77.0625,-0.927093993702196,4.96273895916774,0.781419764389916,0.0175181590673259,0.0406518952572789,-0.622474516266862,-0.83,-0.24,9.76
5.206144,180,180,3.0282,0,0,77.0625,-0.78735756771814,4.96050708703828,0.781480803271684,0.0161142647866691,0.0409570896661173,-0.622474516266862,-0.82,-0.25,9.76
5.3023982,180,180,3.2928,0,0,77.0625,-0.00527995663331549,4.92006131791647,0.781541842153452,0.00982725996459745,0.0422389061832387,-0.622474516266862,-0.76,-0.36,9.76
5.3212026,180,180,3.2928,0,0,77.0625,0.0781155245312257,4.89077490944198,0.781541842153452,0.00878959897454679,0.0424220228285418,-0.622474516266862,-0.75,-0.38,9.76
5.3401364,180,180,3.2928,0,0,77.0625,0.134456469350741,4.91782944578701,0.781541842153452,0.0078740157480315,0.0426051394738448,-0.622474516266862,-0.74,-0.39,9.76
5.4390792,180,180,3.528,0,0,77.0625,0.553665747302911,4.91113382939862,0.781541842153452,0.00463895501434414,0.0432155282915217,-0.622474516266862,-0.71,-0.45,9.76
5.458015,180,180,3.528,0,0,77.0625,0.610006692122426,4.93818836574364,0.781480803271684,0.00427272172373802,0.0433376060550571,-0.622474516266862,-0.71,-0.46,9.76
5.4741434,180,180,3.7142,0,0,77.0625,0.637061228467452,4.88184742092413,0.781480803271684,0.00408960507843496,0.0433376060550571,-0.622474516266862,-0.71,-0.46,9.76
5.5712647,180,180,3.8514,0,0,76.375,0.637061228467452,4.88184742092413,0.785265213941281,0.00360129402429347,0.0432765671732894,-0.61777452237075,-0.71,-0.46,9.76
5.5899939,180,180,3.8514,0,0,76.375,0.637061228467452,4.88184742092413,0.785204175059513,0.00396752731489959,0.043154489409754,-0.61777452237075,-0.71,-0.46,9.76
5.6071944,180,180,3.8514,0,0,76.375,0.637061228467452,4.88184742092413,0.786180797167796,0.00427272172373802,0.0430934505279863,-0.616614783617164,-0.71,-0.45,9.76
5.7039936,180,180,3.9298,0,0,75.875,0.274192895334798,4.91559757365754,0.787767808093756,0.00683635475798083,0.0424830617103095,-0.614539461637063,-0.74,-0.39,9.77
5.7230667,180,180,3.9298,0,0,75.6875,0.161511005695767,4.86148850096749,0.788805469083806,0.00762986022096075,0.0422999450650064,-0.613196606238174,-0.74,-0.39,9.77
5.7402038,180,180,3.9298,0,0,75.6875,0.0781155245312257,4.89077490944198,0.788805469083806,0.00854544344747604,0.0420557895379357,-0.613257645119941,-0.75,-0.37,9.77
5.8389372,180,180,3.9298,0,0,75.6875,-0.593512069044031,4.84559332526978,0.788805469083806,0.0141610205701032,0.0406518952572789,-0.613257645119941,-0.79,-0.26,9.77
5.8573774,180,180,3.871,0,0,75.6875,-0.676907550208573,4.87487973374427,0.788805469083806,0.01477140938778,0.0404687786119758,-0.613257645119941,-0.8,-0.24,9.77
5.8740566,180,180,3.871,0,0,75.6875,-0.733248495028088,4.84782519739925,0.788805469083806,0.0154428370872246,0.0403467008484405,-0.613257645119941,-0.81,-0.23,9.76
5.975017,180,180,3.7534,0,0,75.75,-1.62800799575194,4.834161893831,0.788317158029665,0.0229506195446499,0.0383934566318745,-0.613745956174083,-0.87,-0.09,9.76
5.9952235,180,180,3.7534,0,0,75.75,-1.82408536655551,4.80933922961544,0.788256119147897,0.0251480192882866,0.0378441066959653,-0.613745956174083,-0.88,-0.06,9.76
6.0160881,180,180,3.7534,0,0,75.8125,-2.02016273735909,4.78451656539988,0.788256119147897,0.0258804858694989,0.0376609900506623,-0.613806995055851,-0.89,-0.05,9.76
6.115035,180,180,3.5868,0,0,75.8125,-2.85858129326343,4.79790779817666,0.787950924739059,0.0338155404992981,0.0358298235976317,-0.613868033937618,-0.96,0.09,9.75
6.1340838,180,180,3.381,0,0,75.8125,-2.94197677442797,4.82719420665115,0.787950924739059,0.034609045962278,0.0356467069523286,-0.613868033937618,-0.98,0.13,9.75
6.1512085,180,180,3.381,0,0,75.8125,-3.2777905712156,4.80460341456505,0.787828846975523,0.0371116401147531,0.0350363181346518,-0.613868033937618,-0.98,0.15,9.75
6.2689898,180,180,3.1458,0,0,75.8125,-4.31228649792351,4.79317198312627,0.787523652566685,0.0459622779710676,0.0330830739180858,-0.613806995055851,-1.07,0.32,9.74
6.2879395,180,180,3.1458,0,0,75.8125,-4.59175934989162,4.7976357273852,0.787462613684917,0.048220716596472,0.0325947628639443,-0.613745956174083,-1.08,0.35,9.74
6.3041927,180,180,3.1458,0,0,75.8125,-4.67515483105616,4.82692213585969,0.78740157480315,0.0489531831776842,0.0324116462186413,-0.613745956174083,-1.08,0.36,9.73
6.4091796,180,180,2.646,0,0,75.8125,-5.34678242463142,4.78174055168749,0.787218458157847,0.0555453824085943,0.0308246352926814,-0.613501800647012,-1.14,0.48,9.72
6.4280774,180,180,2.646,0,0,75.8125,-5.48651885061548,4.78397242381695,0.787157419276079,0.0560336934627358,0.0307025575291461,-0.613501800647012,-1.14,0.49,9.72
6.4451489,180,180,2.646,0,0,75.8125,-5.62625527659953,4.78620429594642,0.787157419276079,0.0568882378074834,0.0304584020020753,-0.613440761765244,-1.15,0.51,9.72
6.5512009,180,180,2.4304,0,0,75.8125,-5.90572812856765,4.79066804020534,0.787096380394311,0.0597570652505646,0.0299700909479338,-0.613257645119941,-1.18,0.56,9.71
6.5700012,180,180,2.4304,0,0,76.4375,-5.96206907338716,4.76361350386032,0.783678203015321,0.060062259659403,0.0296038576573277,-0.617713483488982,-1.18,0.56,9.71
6.5861764,180,180,2.4304,0,0,76.4375,-5.96206907338716,4.76361350386032,0.783678203015321,0.0601232985411707,0.02954281877556,-0.617652444607215,-1.18,0.56,9.71
6.6831559,180,180,2.254,0,0,77.5,-5.8223326474031,4.76138163173085,0.778001587010926,0.0591466764328877,0.0292376243667216,-0.624855032655802,-1.17,0.54,9.72
6.7032603,180,180,2.1364,0,0,77.5,-5.76599170258359,4.78843616807588,0.778062625892694,0.0585362876152109,0.0292986632484893,-0.624855032655802,-1.16,0.52,9.72
6.7231256,180,180,2.1364,0,0,77.875,-5.68259622141905,4.75914975960139,0.775987303912592,0.057925898797534,0.0292376243667216,-0.62754074345358,-1.15,0.51,9.72
6.8210756,180,180,2.0972,0,0,78.375,-5.06730957266331,4.77727680742856,0.77342367087835,0.0531038271378868,0.0300921687114692,-0.631019959714338,-1.11,0.43,9.73
6.8421902,180,180,2.0972,0,0,78.375,-4.92757314667925,4.7750449352991,0.773484709760117,0.0518830495025331,0.0303363242385399,-0.631019959714338,-1.1,0.41,9.73
6.8641633,180,180,2.0972,0,0,78.5625,-4.78783672069519,4.77281306316963,0.772691204297137,0.0506622718671794,0.030519440883843,-0.632118659586156,-1.08,0.37,9.73
6.9716793,180,180,2.2148,0,0,78.5625,-3.86602268362631,4.73013542191836,0.77287432094244,0.0430324116462186,0.0322895684551059,-0.632362815113227,-1.02,0.25,9.74
6.9992522,180,180,2.2148,0,0,78.5625,-3.61360436800322,4.78201262247895,0.772996398705976,0.0408350119025819,0.0328389183910151,-0.632301776231459,-1,0.21,9.75
7.0200137,180,180,2.2148,0,0,78.5,-3.44681340567414,4.72343980552997,0.773118476469511,0.0393700787401575,0.0332051516816212,-0.632301776231459,-0.99,0.18,9.75
7.1212865,180,180,2.3814,0,0,78.5,-2.55205390495029,4.73710310909822,0.773484709760117,0.0318622962827321,0.0350363181346518,-0.632179698467924,-0.91,0.03,9.76
7.141175,180,180,2.3814,0,0,78.5,-2.41231747896623,4.73487123696875,0.773545748641885,0.0303363242385399,0.0354025514252579,-0.632179698467924,-0.9,0,9.76
7.1581711,180,180,2.5872,0,0,78.5,-2.27258105298217,4.73263936483929,0.773545748641885,0.0296038576573277,0.0355856680705609,-0.632118659586156,-0.9,0,9.76
7.2561974,180,180,2.8224,0,0,78.4375,-1.51755797824238,4.748534540537,0.773789904168956,0.0222791918452054,0.0375389122871269,-0.632057620704389,-0.83,-0.13,9.76
7.2760665,180,180,2.8224,0,0,78.4375,-1.23808512627426,4.74407079627807,0.773789904168956,0.0202038698651041,0.0380882622230361,-0.632057620704389,-0.82,-0.16,9.77
7.2944881,180,180,2.8224,0,0,78.4375,-1.15468964510972,4.71478438780358,0.773850943050723,0.018861014466215,0.0384544955136422,-0.631996581822621,-0.81,-0.19,9.77
7.4131087,180,180,3.0674,0,0,78.4375,-0.286984680730892,4.78478863619134,0.773911981932491,0.0124519318806079,0.0402246230849051,-0.631996581822621,-0.76,-0.3,9.77
7.4322277,180,180,3.0674,0,0,78.4375,-0.286984680730892,4.78478863619134,0.773911981932491,0.0110480375999512,0.0405908563755112,-0.631996581822621,-0.75,-0.33,9.77
7.450242,180,180,3.3026,0,0,78.4375,-0.0909073099273203,4.8096113004069,0.773911981932491,0.0106207654275774,0.0407129341390466,-0.631935542940853,-0.74,-0.34,9.77
7.5642386,180,180,3.5084,0,0,78,0.32830196802485,4.80291568401851,0.776475614966734,0.00708051028505158,0.0417505951290972,-0.628822559970701,-0.72,-0.4,9.77
7.5870281,180,180,3.5084,0,0,78,0.32830196802485,4.80291568401851,0.776475614966734,0.00677531587621315,0.0418726728926326,-0.628822559970701,-0.72,-0.41,9.77
7.6040207,180,180,3.5084,0,0,78,0.32830196802485,4.80291568401851,0.776475614966734,0.00665323811267778,0.0418726728926326,-0.628822559970701,-0.72,-0.41,9.77
7.7170685,180,180,3.7828,0,0,76.75,0.301247431679824,4.85925662883803,0.783006775315876,0.00689739363974852,0.0421168284197034,-0.620643349813831,-0.73,-0.4,9.77
7.7372449,180,180,3.7828,0,0,76.75,0.244906486860308,4.832202092493,0.783006775315876,0.00726362693035464,0.0421168284197034,-0.620643349813831,-0.73,-0.4,9.77
7.7523574,180,180,3.7828,0,0,76.75,0.244906486860308,4.832202092493,0.783006775315876,0.00750778245742538,0.0420557895379357,-0.620704388695599,-0.73,-0.39,9.77
7.8511361,180,180,3.8318,0,0,76.125,-0.201357327436887,4.89523865370091,0.786363913813099,0.0108649209546481,0.0415674784837942,-0.616370628090093,-0.77,-0.33,9.77
7.8701785,180,180,3.8318,0,0,76.125,-0.341093753420944,4.89747052583037,0.78660806934017,0.0118415430629311,0.0413843618384911,-0.616065433681255,-0.78,-0.31,9.77
7.8853103,180,180,3.8318,0,0,76.125,-0.424489234585485,4.92675693430486,0.786547030458402,0.0128181651712141,0.0412622840749557,-0.616126472563023,-0.79,-0.3,9.77
7.9910974,180,180,3.822,0,0,75.9375,-1.09611682816074,4.88157535013266,0.787584691448453,0.0183116645303058,0.0401025453213697,-0.614722578282366,-0.84,-0.18,9.76
8.0102836,180,180,3.7436,0,0,75.9375,-1.2358532541448,4.88380722226213,0.787462613684917,0.0195324421656595,0.039858389794299,-0.614844656045901,-0.85,-0.16,9.76
8.0280773,180,180,3.7436,0,0,75.9375,-1.37558968012886,4.88603909439159,0.787462613684917,0.0207532198010132,0.0396142342672282,-0.614844656045901,-0.86,-0.15,9.76
8.1321012,180,180,3.6162,0,0,75.9375,-2.15766729121368,4.9264848635134,0.787157419276079,0.0281999633766709,0.0380882622230361,-0.615027772691204,-0.92,-0.02,9.76
8.1503729,180,180,3.6162,0,0,76,-2.29740371719774,4.92871673564286,0.787096380394311,0.0296038576573277,0.0377830678141976,-0.615027772691204,-0.94,0,9.76
8.1674314,180,180,3.6162,0,0,76,-2.43714014318179,4.93094860777233,0.787096380394311,0.0303363242385399,0.0376609900506623,-0.615027772691204,-0.94,0.01,9.76
8.26624,180,180,3.4398,0,0,76,-3.27555869908613,4.94433984054911,0.786791185985473,0.03772202893243,0.0361960568882378,-0.615088811572972,-1.01,0.14,9.75
8.2845234,180,180,3.234,0,0,76,-3.49869060623473,4.97585812115306,0.786791185985473,0.0392480009766221,0.0358908624793994,-0.615027772691204,-1.02,0.17,9.75
8.3011337,180,180,3.234,0,0,76,-3.55503155105425,4.94880358480803,0.786730147103705,0.0407129341390466,0.0355856680705609,-0.615027772691204,-1.04,0.19,9.74
8.3992665,180,180,3.0086,0,0,76,-4.39345010695859,4.96219481758482,0.786485991576634,0.0470609778428859,0.0343648904352072,-0.614966733809437,-1.1,0.32,9.73
8.4204612,180,180,3.0086,0,0,76,-4.53318653294264,4.96442668971428,0.786424952694867,0.0483427943600073,0.0341207349081365,-0.614905694927669,-1.11,0.34,9.73
8.4363983,180,180,3.0086,0,0,76,-4.6729229589267,4.96665856184374,0.786424952694867,0.049563571995361,0.0338765793810657,-0.614905694927669,-1.12,0.35,9.73
8.5352323,180,180,2.7832,0,0,76.9375,-5.28820960768244,4.94853151401657,0.781236647744613,0.054812915827382,0.0322285295733382,-0.621131660867973,-1.16,0.44,9.72
8.5543088,180,180,2.5578,0,0,76.9375,-5.31526414402747,5.00487245883609,0.781236647744613,0.0552401879997558,0.0321674906915705,-0.621070621986205,-1.16,0.45,9.72
8.5711784,180,180,2.5578,0,0,77.3125,-5.45500057001152,5.00710433096555,0.779344442409815,0.0562778489898065,0.0318012574009644,-0.623390099493377,-1.17,0.47,9.72
8.6681542,180,180,2.3814,0,0,78.0625,-5.65107794081509,4.98228166674999,0.774888604040774,0.0581700543246048,0.0308856741744491,-0.628761521088934,-1.18,0.5,9.72
8.687077,180,180,2.3814,0,0,78.0625,-5.65107794081509,4.98228166674999,0.774888604040774,0.0582310932063725,0.0308246352926814,-0.628700482207166,-1.18,0.5,9.72
8.7043074,180,180,2.3814,0,0,78.0625,-5.65107794081509,4.98228166674999,0.774949642922542,0.0581700543246048,0.0308246352926814,-0.628700482207166,-1.18,0.5,9.72
8.8071795,180,180,2.2344,0,0,78.8125,-5.48428697848601,4.92370884980101,0.770982115607642,0.0569492766892511,0.0305804797656107,-0.633705670512116,-1.16,0.48,9.72
8.8261724,180,180,2.2344,0,0,79.125,-5.34455055250196,4.92147697767155,0.769334065799915,0.0560947323445034,0.0305804797656107,-0.635780992492218,-1.16,0.46,9.72
8.8414304,180,180,2.156,0,0,79.125,-5.28820960768244,4.94853151401657,0.769395104681682,0.0553012268815235,0.0307025575291461,-0.635780992492218,-1.15,0.45,9.72
8.9512186,180,180,2.1462,0,0,79.375,-4.70220936740119,4.8832630806792,0.768174327046328,0.050540194103644,0.031496062992126,-0.63755112006348,-1.1,0.36,9.73
8.9973233,180,180,2.1462,0,0,79.375,-4.56247294141713,4.88103120854974,0.768113288164561,0.049380455350058,0.031679179637429,-0.637734236708783,-1.09,0.34,9.73
9.1132238,180,180,2.3128,0,0,79.4375,-3.50092247836419,4.836121695169,0.767930171519258,0.0394921565036929,0.0335103460904596,-0.638527742171763,-0.99,0.17,9.75
9.1322551,180,180,2.3128,0,0,79.4375,-3.2777905712156,4.80460341456505,0.767991210401025,0.0380882622230361,0.0338155404992981,-0.638527742171763,-0.99,0.16,9.75
9.1522485,180,180,2.3128,0,0,79.4375,-3.19439509005105,4.77531700609056,0.768418482573399,0.0366843679423793,0.0340596960263688,-0.638039431117622,-0.97,0.12,9.75
9.2652576,180,180,2.4794,0,0,79.1875,-2.27258105298217,4.73263936483929,0.769761337972288,0.0289934688396509,0.0357077458340963,-0.636818653482268,-0.9,0,9.76
9.2851298,180,180,2.4794,0,0,79.1875,-2.0765036821786,4.75746202905485,0.769761337972288,0.0275895745589941,0.0360129402429347,-0.636757614600501,-0.88,-0.03,9.76
9.3021869,180,180,2.6852,0,0,79.1875,-1.90971271984952,4.69888921210587,0.769822376854056,0.026246719160105,0.0362570957700055,-0.636757614600501,-0.87,-0.05,9.76
9.4132789,180,180,2.9106,0,0,79.125,-1.15468964510972,4.71478438780358,0.770005493499359,0.019837636574498,0.0376609900506623,-0.636696575718733,-0.81,-0.18,9.77
9.4345158,180,180,2.9106,0,0,79.125,-0.987898682780638,4.6562115708546,0.770066532381127,0.0180675090032351,0.0380272233412684,-0.636696575718733,-0.79,-0.2,9.77
9.451435,180,180,2.9106,0,0,79.125,-0.931557737961123,4.68326610719963,0.770066532381127,0.0175181590673259,0.0381493011048038,-0.636696575718733,-0.79,-0.22,9.77
9.550182,180,180,3.136,0,0,79.125,-0.372612034024897,4.67433861868177,0.770127571262894,0.0126960874076787,0.0391869620948544,-0.636635536836965,-0.74,-0.3,9.77
9.569202,180,180,3.136,0,0,79.125,-0.23287560804084,4.67210674655231,0.770127571262894,0.0115973875358603,0.0394311176219252,-0.636635536836965,-0.73,-0.31,9.77
9.5852895,180,180,3.3418,0,0,79.125,-0.149480126876299,4.64282033807782,0.770127571262894,0.0112311542452542,0.0394921565036929,-0.636635536836965,-0.73,-0.32,9.77
9.6822184,180,180,3.5182,0,0,78.6875,0.0465972439272728,4.66764300229338,0.772386009888299,0.00903375450161753,0.0401025453213697,-0.633888787157419,-0.71,-0.36,9.77
9.7012912,180,180,3.5182,0,0,78.6875,0.102938188746788,4.69469753863841,0.772386009888299,0.00891167673808216,0.0401635842031374,-0.633888787157419,-0.71,-0.36,9.77
9.7184861,180,180,3.5182,0,0,78.25,0.102938188746788,4.69469753863841,0.775010681804309,0.00848440456570836,0.0402246230849051,-0.6307147653055,-0.71,-0.36,9.77
9.8242788,180,180,3.6554,0,0,77.4375,0.0465972439272728,4.66764300229338,0.779527559055118,0.00891167673808216,0.0401025453213697,-0.625099188182872,-0.72,-0.35,9.77
9.8445059,180,180,3.6554,0,0,77.4375,-0.00974370089224252,4.64058846594836,0.779527559055118,0.00933894891045596,0.040041506439602,-0.625099188182872,-0.72,-0.34,9.77
9.8602729,180,180,3.7338,0,0,77.25,-0.0367982372372684,4.69692941076787,0.780321064518098,0.00952206555575902,0.0399804675578343,-0.624122566074589,-0.72,-0.34,9.77
9.9584787,180,180,3.7534,0,0,76.9375,-0.512348460008954,4.67657049081124,0.782091192089361,0.0132454373435879,0.0391869620948544,-0.621864127449185,-0.76,-0.27,9.77
9.9772435,180,180,3.7534,0,0,76.9375,-0.595743941173495,4.70585689928573,0.782091192089361,0.0140999816883355,0.0390038454495514,-0.621925166330953,-0.77,-0.25,9.77
9.9943998,180,180,3.7534,0,0,76.9375,-0.65208488599301,4.6788023629407,0.782030153207593,0.014588292742477,0.0389428065677837,-0.621925166330953,-0.77,-0.25,9.77
10.0983773,180,180,3.7142,0,0,76.75,-1.26737153474875,4.66067531511353,0.783250930842947,0.0197155588109626,0.037905145577733,-0.620338155404993,-0.82,-0.15,9.77
10.1261794,180,180,3.7142,0,0,76.6875,-1.49050344189735,4.69219359571748,0.78343404748825,0.0220350363181347,0.0374168345235915,-0.620032960996155,-0.84,-0.11,9.76
10.2260635,180,180,3.626,0,0,76.75,-2.18918557181763,4.7033529563648,0.783128853079412,0.0281999633766709,0.0361960568882378,-0.620216077641458,-0.89,0,9.76
10.2451371,180,180,3.4888,0,0,76.75,-2.27258105298217,4.73263936483929,0.783128853079412,0.0288713910761155,0.0360739791247024,-0.620216077641458,-0.9,0,9.76
10.2614544,180,180,3.4888,0,0,76.8125,-2.41231747896623,4.73487123696875,0.782518464261735,0.0302142464750046,0.0358298235976317,-0.62094854422267,-0.91,0.02,9.76
10.3642947,180,180,3.3026,0,0,76.875,-3.19439509005105,4.77531700609056,0.782030153207593,0.03692852346945,0.034609045962278,-0.621253738631508,-0.98,0.14,9.75
10.3842037,180,180,3.3026,0,0,76.875,-3.36118605238014,4.83388982303954,0.781969114325825,0.0383324177501068,0.0343648904352072,-0.621253738631508,-0.99,0.16,9.75
10.3993729,180,180,3.3026,0,0,76.875,-3.55726342318371,4.80906715882398,0.781908075444058,0.0396752731489959,0.0341207349081365,-0.621253738631508,-1,0.19,9.75
10.4962538,180,180,3.1066,0,0,76.9375,-4.19960460828448,4.84728105581632,0.781724958798755,0.0454129280351584,0.0332661905633889,-0.621192699749741,-1.06,0.3,9.74
10.5145008,180,180,2.891,0,0,76.9375,-4.33934103426853,4.84951292794578,0.781663919916987,0.0466337056705121,0.0330830739180858,-0.621131660867973,-1.07,0.31,9.74
10.5303585,180,180,2.891,0,0,76.9375,-4.47907746025259,4.85174480007525,0.781663919916987,0.0477324055423305,0.0328999572727828,-0.621131660867973,-1.08,0.33,9.74
10.5482537,180,180,2.891,0,0,76.9375,-4.56247294141713,4.88103120854974,0.781602881035219,0.0488311054141488,0.0327168406274797,-0.621070621986205,-1.09,0.34,9.73
10.6463865,180,180,2.6754,0,0,76.9375,-5.06507770053384,4.91701323341262,0.781480803271684,0.0527986327290484,0.0320454129280352,-0.62094854422267,-1.13,0.42,9.73
10.6732457,180,180,2.6754,0,0,77.25,-5.14847318169838,4.94629964188711,0.779649636818654,0.0537142159555637,0.0318012574009644,-0.623206982848074,-1.14,0.43,9.73
10.6884176,180,180,2.6754,0,0,77.25,-5.2048141265179,4.91924510554208,0.779588597936886,0.0542635658914729,0.0317402185191967,-0.623206982848074,-1.14,0.44,9.72
10.801221,180,180,2.3324,0,0,78.4375,-5.37160508884698,4.97781792249106,0.772996398705976,0.0559726545809681,0.0311908685832876,-0.631264115241409,-1.16,0.46,9.72
10.8211806,180,180,2.3324,0,0,78.4375,-5.37160508884698,4.97781792249106,0.773057437587743,0.0558505768174327,0.0312519074650552,-0.631203076359641,-1.16,0.45,9.72
10.8382664,180,180,2.3324,0,0,78.4375,-5.31526414402747,5.00487245883609,0.773057437587743,0.0556674601721296,0.0313129463468229,-0.631203076359641,-1.16,0.45,9.72
10.9502103,180,180,2.2344,0,0,78.625,-5.00873675571433,4.94406776975764,0.772019776597693,0.0529817493743515,0.0319843740462675,-0.632668009522066,-1.14,0.4,9.73
10.9684687,180,180,2.2344,0,0,78.625,-4.8960548660753,4.9981768424477,0.77208081547946,0.0522492827931392,0.0321674906915705,-0.632668009522066,-1.13,0.39,9.73
10.9841874,180,180,2.1854,0,0,78.625,-4.8960548660753,4.9981768424477,0.77208081547946,0.0518220106207654,0.0322895684551059,-0.632668009522066,-1.12,0.37,9.73
11.0864057,180,180,2.205,0,0,78.6875,-4.25371368097453,4.95996294545535,0.771958737715925,0.0463285112616737,0.033632423853995,-0.633217359457975,-1.08,0.28,9.74
11.1073557,180,180,2.205,0,0,78.6875,-4.1410317913355,5.0140720181454,0.772019776597693,0.04510773362632,0.0338765793810657,-0.633156320576207,-1.07,0.26,9.74
11.1243316,180,180,2.205,0,0,78.6875,-4.00129536535144,5.01184014601594,0.77208081547946,0.0445583836904108,0.0339986571446011,-0.633156320576207,-1.06,0.24,9.74
11.2321819,180,180,2.2834,0,0,78.6875,-3.21921775426662,4.97139437689413,0.772386009888299,0.03772202893243,0.0355246291887933,-0.633156320576207,-1,0.13,9.75
11.2525968,180,180,2.2834,0,0,78.625,-3.07948132828256,4.96916250476467,0.772447048770067,0.0364402124153086,0.035768784715864,-0.633095281694439,-0.98,0.09,9.75
11.2695605,180,180,2.4206,0,0,78.625,-2.85634942113396,4.93764422416072,0.772508087651834,0.0351583958981871,0.0360129402429347,-0.633095281694439,-0.98,0.08,9.75
11.3703774,180,180,2.597,0,0,78.5,-2.21400823603319,4.89943032716837,0.773301593114814,0.0287493133125801,0.0374168345235915,-0.632362815113227,-0.92,-0.02,9.76
11.3892706,180,180,2.597,0,0,78.5,-2.07427181004914,4.89719845503891,0.773362631996582,0.0274674967954587,0.0376609900506623,-0.632362815113227,-0.91,-0.05,9.76
11.4051764,180,180,2.597,0,0,78.3125,-1.93453538406508,4.89496658290945,0.7744613318684,0.0261856802783373,0.037905145577733,-0.631080998596106,-0.9,-0.07,9.76
11.5025511,180,180,2.793,0,0,78.0625,-1.29219419896431,4.8567526859171,0.775804187267289,0.0202649087468718,0.0391869620948544,-0.629555026551914,-0.84,-0.17,9.76
11.5204493,180,180,2.793,0,0,78.0625,-1.15245777298026,4.85452081378764,0.775804187267289,0.0197155588109626,0.0392480009766221,-0.629555026551914,-0.84,-0.18,9.76
11.5383066,180,180,2.793,0,0,78.0625,-1.0127213469962,4.85228894165817,0.775804187267289,0.0186168589391442,0.0394921565036929,-0.629555026551914,-0.83,-0.2,9.76
11.6362134,180,180,3.2144,0,0,77.4375,-0.51011658787949,4.81630691679529,0.779283403528047,0.0139779039248001,0.0404077397302081,-0.625282304828176,-0.78,-0.28,9.77
11.6541809,180,180,3.2144,0,0,77.25,-0.453775643059975,4.84336145314032,0.780504181163401,0.0135506317524263,0.0405298174937435,-0.623817371665751,-0.78,-0.29,9.77
11.6713262,180,180,3.2144,0,0,77.25,-0.370380161895433,4.81407504466583,0.780504181163401,0.0128792040529817,0.0405908563755112,-0.623817371665751,-0.77,-0.3,9.77
11.7683892,180,180,3.3908,0,0,76.625,-0.147248254746836,4.78255676406188,0.783739241897088,0.010498687664042,0.041018128547885,-0.619727766587316,-0.75,-0.33,9.77
11.7883711,180,180,3.3908,0,0,76.625,-0.147248254746836,4.78255676406188,0.783739241897088,0.0103155710187389,0.0410791674296527,-0.619727766587316,-0.75,-0.34,9.77
11.806324,180,180,3.3908,0,0,76.3125,-0.0909073099273203,4.8096113004069,0.785326252823048,0.0100714154916682,0.0410791674296527,-0.617713483488982,-0.75,-0.34,9.77
11.9033709,180,180,3.5378,0,0,76.125,-0.147248254746836,4.78255676406188,0.786547030458402,0.0102545321369713,0.0405908563755112,-0.616248550326558,-0.75,-0.33,9.77
11.9222957,180,180,3.6358,0,0,76.125,-0.203589199566351,4.75550222771685,0.786547030458402,0.0106207654275774,0.0404687786119758,-0.616248550326558,-0.75,-0.32,9.77
11.9392538,180,180,3.6358,0,0,76.125,-0.203589199566351,4.75550222771685,0.786485991576634,0.0108038820728804,0.0404077397302081,-0.616248550326558,-0.75,-0.32,9.77
12.0383925,180,180,3.6848,0,0,76.0625,-0.595743941173495,4.70585689928573,0.78685222486724,0.0136727095159617,0.0395531953854605,-0.615882317035952,-0.77,-0.26,9.77
12.0573348,180,180,3.6848,0,0,76,-0.679139422338036,4.73514330776022,0.787096380394311,0.0144662149789416,0.0393090398583898,-0.615516083745346,-0.78,-0.25,9.77
12.0743822,180,180,3.6848,0,0,76,-0.735480367157551,4.70808877141519,0.787035341512544,0.0152597204419215,0.0391259232130867,-0.615577122627114,-0.78,-0.23,9.77
12.1742787,180,180,3.675,0,0,76.0625,-1.29442607109378,4.71701625993304,0.786974302630776,0.0198986754562656,0.0378441066959653,-0.615638161508881,-0.82,-0.14,9.77
12.1933583,180,180,3.6162,0,0,76.0625,-1.35076701591329,4.68996172358802,0.786913263749008,0.0203869865104071,0.03772202893243,-0.615638161508881,-0.82,-0.14,9.77
12.2102234,180,180,3.6162,0,0,76.0625,-1.49050344189735,4.69219359571748,0.786913263749008,0.021973997436367,0.0372947567600562,-0.615638161508881,-0.84,-0.11,9.76
12.3082693,180,180,3.5084,0,0,76.0625,-2.16213103547261,4.64701201154528,0.786730147103705,0.0269791857413172,0.0360739791247024,-0.615699200390649,-0.88,-0.01,9.76
12.3273113,180,180,3.5084,0,0,76.0625,-2.24552651663715,4.67629842001977,0.786730147103705,0.0281389244949033,0.0358298235976317,-0.615760239272417,-0.89,0,9.76
12.3433695,180,180,3.5084,0,0,76.0625,-2.32892199780169,4.70558482849426,0.786669108221937,0.0287493133125801,0.0356467069523286,-0.615760239272417,-0.9,0.02,9.76
12.4555659,180,180,3.3516,0,0,76.0625,-3.08394507254149,4.68968965279656,0.786424952694867,0.0360129402429347,0.0340596960263688,-0.615821278154184,-0.96,0.14,9.75
12.4744448,180,180,3.1752,0,0,76.125,-3.22368149852554,4.69192152492602,0.786363913813099,0.0372337178782885,0.0338155404992981,-0.615821278154184,-0.97,0.16,9.75
12.4952906,180,180,3.1752,0,0,76.125,-3.41975886932912,4.66709886071046,0.786363913813099,0.0384544955136422,0.0335103460904596,-0.615760239272417,-0.98,0.18,9.75
12.5923806,180,180,2.9792,0,0,76.125,-4.06210005442988,4.7053127577028,0.786180797167796,0.0437038393456632,0.032472685100409,-0.615699200390649,-1.03,0.29,9.74
12.6112791,180,180,2.9792,0,0,76.125,-4.20183648041394,4.70754462983226,0.786119758286028,0.0448025392174815,0.0322285295733382,-0.615699200390649,-1.04,0.31,9.74
12.6296874,180,180,2.9792,0,0,76.125,-4.341572906398,4.70977650196173,0.786058719404261,0.0458402002075322,0.0320454129280352,-0.615699200390649,-1.04,0.31,9.74
12.7394866,180,180,2.7832,0,0,76.125,-4.84417766551471,4.74575852682461,0.785936641640725,0.0504181163401086,0.0312519074650552,-0.615516083745346,-1.08,0.4,9.73
12.7584428,180,180,2.5872,0,0,76.5625,-4.90051861033422,4.71870399047958,0.783556125251785,0.0510895440395532,0.0309467130562168,-0.61856802783373,-1.09,0.41,9.73
12.7755282,180,180,2.5872,0,0,76.5625,-4.98391409149876,4.74799039895407,0.783556125251785,0.0515778550936947,0.0308856741744491,-0.618506988951962,-1.1,0.41,9.73
12.8913724,180,180,2.4304,0,0,77.25,-5.12365051748282,4.75022227108354,0.77946652017335,0.0532869437831899,0.0305804797656107,-0.623512177256913,-1.11,0.43,9.73
12.9094016,180,180,2.4304,0,0,77.6875,-5.12365051748282,4.75022227108354,0.777330159311481,0.0533479826649576,0.030519440883843,-0.626136849172923,-1.12,0.43,9.73
12.9243319,180,180,2.4304,0,0,77.6875,-5.12365051748282,4.75022227108354,0.777391198193249,0.0532259049014222,0.0305804797656107,-0.626136849172923,-1.11,0.43,9.73
13.0303106,180,180,2.3128,0,0,78.3125,-4.87123220185973,4.80209947164412,0.774095098577794,0.0510895440395532,0.0310687908197522,-0.630348532014893,-1.1,0.39,9.73
13.0513644,180,180,2.2442,0,0,78.5,-4.73149577587568,4.79986759951466,0.772935359824208,0.0504791552218763,0.0311298297015199,-0.631813465177318,-1.09,0.37,9.73
13.0685205,180,180,2.2442,0,0,78.5,-4.73149577587568,4.79986759951466,0.772935359824208,0.0501129219312702,0.0312519074650552,-0.631813465177318,-1.09,0.37,9.73
13.1655329,180,180,2.2344,0,0,78.9375,-4.19960460828448,4.84728105581632,0.770615882317036,0.0458402002075322,0.0323506073368736,-0.63492644814747,-1.05,0.29,9.74
13.1844128,180,180,2.2344,0,0,78.9375,-4.05986818230042,4.84504918368686,0.770676921198804,0.0448635780992492,0.0325947628639443,-0.63492644814747,-1.05,0.27,9.74
13.2005054,180,180,2.2344,0,0,79,-3.92013175631636,4.8428173115574,0.770310687908198,0.0438259171091986,0.0328999572727828,-0.635414759201611,-1.04,0.25,9.74
13.2964355,180,180,2.2834,0,0,79.0625,-3.30484510756062,4.86094435938457,0.770188610144662,0.0386986510407129,0.0341817737899042,-0.635842031373985,-0.99,0.14,9.75
13.315229,180,180,2.3814,0,0,79.0625,-3.16510868157656,4.8587124872551,0.77024964902643,0.0375389122871269,0.0344869681987426,-0.635842031373985,-0.98,0.13,9.75
13.3314297,180,180,2.3814,0,0,79.0625,-3.02537225559251,4.85648061512564,0.77024964902643,0.0363791735335409,0.034792162607581,-0.635842031373985,-0.97,0.11,9.75
13.4372067,180,180,2.5284,0,0,79,-2.32669012567223,4.84532125447832,0.771104193371177,0.0299090520661661,0.0364402124153086,-0.635048525911005,-0.92,0,9.76
13.4556789,180,180,2.5284,0,0,78.9375,-2.32669012567223,4.84532125447832,0.771104193371177,0.029359702130257,0.0366233290606116,-0.635048525911005,-0.91,-0.01,9.76
13.4724569,180,180,2.5284,0,0,78.9375,-2.13061275486865,4.87014391869388,0.771165232252945,0.0281999633766709,0.03692852346945,-0.635048525911005,-0.9,-0.03,9.76
13.5904876,180,180,2.7048,0,0,78.875,-1.43193062494837,4.85898455804656,0.771348348898248,0.0222791918452054,0.0385765732771776,-0.63492644814747,-0.85,-0.15,9.76
13.6092341,180,180,2.9008,0,0,78.875,-1.2358532541448,4.88380722226213,0.771409387780016,0.0207532198010132,0.0389428065677837,-0.63492644814747,-0.84,-0.17,9.76
13.626319,180,180,2.9008,0,0,78.875,-1.20879871779977,4.82746627744261,0.771409387780016,0.0203259476286394,0.039064884331319,-0.63492644814747,-0.84,-0.17,9.76
13.7265582,180,180,3.0968,0,0,78.875,-0.733248495028088,4.84782519739925,0.771470426661784,0.0158701092595984,0.0402246230849051,-0.634865409265702,-0.8,-0.26,9.76
13.7452949,180,180,3.0968,0,0,78.875,-0.620566605389057,4.9019342700893,0.771470426661784,0.0155649148507599,0.0403467008484405,-0.634865409265702,-0.8,-0.26,9.76
13.7623504,180,180,3.0968,0,0,78.875,-0.593512069044031,4.84559332526978,0.771470426661784,0.0149545260330831,0.0405298174937435,-0.634865409265702,-0.79,-0.27,9.77
13.8614174,180,180,3.2732,0,0,78.875,-0.341093753420944,4.89747052583037,0.771470426661784,0.0130623206982848,0.0411402063114204,-0.634865409265702,-0.78,-0.31,9.77
13.8832317,180,180,3.43,0,0,78.875,-0.341093753420944,4.89747052583037,0.771470426661784,0.0128792040529817,0.0412622840749557,-0.634865409265702,-0.78,-0.31,9.77
13.9003839,180,180,3.43,0,0,78.5,-0.284752808601429,4.9245250621754,0.773606787523653,0.0125740096441433,0.0413843618384911,-0.632301776231459,-0.78,-0.32,9.77
14.0095094,180,180,3.5476,0,0,77.75,-0.341093753420944,4.89747052583037,0.777696392602088,0.0126960874076787,0.0411402063114204,-0.627296587926509,-0.78,-0.31,9.77
14.0283031,180,180,3.5476,0,0,77.75,-0.397434698240459,4.87041598948535,0.777696392602088,0.0130623206982848,0.0410791674296527,-0.627296587926509,-0.78,-0.3,9.77
14.0444374,180,180,3.5476,0,0,77.5625,-0.397434698240459,4.87041598948535,0.778550936946835,0.0132454373435879,0.041018128547885,-0.626197888054691,-0.78,-0.3,9.77
14.143339,180,180,3.6162,0,0,77.125,-0.733248495028088,4.84782519739925,0.78105353109931,0.0158701092595984,0.0403467008484405,-0.623084905084539,-0.81,-0.24,9.76
14.1624289,180,180,3.6358,0,0,77.125,-0.816643976192629,4.87711160587374,0.780992492217543,0.0162363425502045,0.0402246230849051,-0.623084905084539,-0.81,-0.24,9.76
14.178208,180,180,3.6358,0,0,77.125,-0.872984921012145,4.85005706952871,0.780992492217543,0.0169688091314167,0.040041506439602,-0.623145943966307,-0.82,-0.22,9.76
14.2793844,180,180,3.5966,0,0,77.0625,-1.37558968012886,4.88603909439159,0.781480803271684,0.0212415308551547,0.038881767686016,-0.622474516266862,-0.85,-0.14,9.76
14.2993189,180,180,3.5966,0,0,77.0625,-1.48827156976789,4.83193002170154,0.781480803271684,0.02215711408167,0.0386376121589452,-0.622474516266862,-0.86,-0.13,9.76
14.316357,180,180,3.5966,0,0,77.0625,-1.62800799575194,4.834161893831,0.781419764389916,0.023133736189953,0.0383324177501068,-0.622474516266862,-0.87,-0.11,9.76
14.4193846,180,180,3.5182,0,0,77.125,-2.24329464450768,4.81603484600383,0.780992492217543,0.0283220411402063,0.03692852346945,-0.622901788439236,-0.91,-0.01,9.76
14.4374624,180,180,3.3908,0,0,77.125,-2.32669012567223,4.84532125447832,0.780931453335775,0.029359702130257,0.0366843679423793,-0.622962827321003,-0.92,0.01,9.76
14.4535924,180,180,3.3908,0,0,77.125,-2.46642655165628,4.84755312660778,0.78080937557224,0.0304584020020753,0.0363791735335409,-0.623084905084539,-0.92,0.02,9.76
14.5533524,180,180,3.234,0,0,77.25,-3.08171320041202,4.82942607878061,0.780198986754563,0.0361960568882378,0.0349142403711164,-0.62357321613868,-0.97,0.12,9.75
14.5725915,180,180,3.234,0,0,77.25,-3.22144962639608,4.83165795091008,0.780198986754563,0.0373557956418238,0.034609045962278,-0.62357321613868,-0.98,0.14,9.75
14.5893644,180,180,3.234,0,0,77.25,-3.2777905712156,4.80460341456505,0.780137947872795,0.0385155343954099,0.0343038515534395,-0.62357321613868,-0.99,0.16,9.75
14.6945776,180,180,3.0576,0,0,77.8125,-4.03281364595539,4.78870823886734,0.776719770493805,0.0440700726362693,0.0327168406274797,-0.62754074345358,-1.04,0.26,9.74
14.7134978,180,180,2.8714,0,0,77.8125,-4.11620912711994,4.81799464734183,0.776658731612037,0.0450466947445523,0.032472685100409,-0.62754074345358,-1.04,0.28,9.74
14.7293073,180,180,2.8714,0,0,77.8125,-4.22889101675897,4.76388557465178,0.776658731612037,0.0459622779710676,0.0322285295733382,-0.62754074345358,-1.05,0.3,9.74
14.8273908,180,180,2.6852,0,0,78.3125,-4.64810029471114,4.77058119104017,0.773911981932491,0.0496246108771287,0.0310077519379845,-0.6307147653055,-1.08,0.37,9.73
14.84543,180,180,2.6852,0,0,78.5,-4.70444123953065,4.74352665469515,0.772996398705976,0.0502349996948056,0.0307635964109138,-0.63175242629555,-1.08,0.38,9.73
14.8614604,180,180,2.6852,0,0,78.5,-4.78783672069519,4.77281306316963,0.772996398705976,0.0504791552218763,0.0307635964109138,-0.63175242629555,-1.09,0.38,9.73
14.9575256,180,180,2.5186,0,0,78.9375,-4.92757314667925,4.7750449352991,0.770493804553501,0.0521272050296039,0.0302752853567723,-0.634682292620399,-1.1,0.41,9.73
14.9755365,180,180,2.5186,0,0,78.9375,-4.92757314667925,4.7750449352991,0.770493804553501,0.0521272050296039,0.0302142464750046,-0.634682292620399,-1.1,0.41,9.73
14.9915028,180,180,2.5186,0,0,79.25,-4.92757314667925,4.7750449352991,0.768845754745773,0.0521882439113715,0.0300921687114692,-0.636696575718733,-1.1,0.41,9.73
15.0926855,180,180,2.3128,0,0,79.4375,-4.84417766551471,4.74575852682461,0.767624977110419,0.0512726606848563,0.0301532075932369,-0.638222547762925,-1.09,0.39,9.73
15.1114395,180,180,2.3128,0,0,79.5625,-4.70444123953065,4.74352665469515,0.76707562717451,0.0506012329854117,0.0302142464750046,-0.638893975462369,-1.08,0.38,9.73
15.1286786,180,180,2.3128,0,0,79.5625,-4.70444123953065,4.74352665469515,0.767136666056278,0.0500518830495025,0.0303363242385399,-0.638893975462369,-1.08,0.37,9.73
15.2268086,180,180,2.2736,0,0,79.625,-4.22889101675897,4.76388557465178,0.766831471647439,0.0463285112616737,0.0311298297015199,-0.639504364280046,-1.04,0.3,9.74
15.2466576,180,180,2.2736,0,0,79.625,-4.20183648041394,4.70754462983226,0.766770432765672,0.0459012390892999,0.0311908685832876,-0.639626442043582,-1.04,0.29,9.74
15.2716925,180,180,2.2736,0,0,79.625,-4.00575910961037,4.73236729404783,0.766831471647439,0.0445583836904108,0.0315571018738937,-0.639626442043582,-1.03,0.27,9.74
15.36951,180,180,2.3716,0,0,79.6875,-3.39047246085463,4.750494341875,0.766831471647439,0.0393090398583898,0.0327778795092474,-0.63993163645242,-0.98,0.18,9.75
15.3903411,180,180,2.3716,0,0,79.625,-3.30707697969009,4.72120793340051,0.766831471647439,0.0387596899224806,0.0328999572727828,-0.63993163645242,-0.98,0.17,9.75
15.4056637,180,180,2.3716,0,0,79.625,-3.16734055370603,4.71897606127105,0.766953549410975,0.0371116401147531,0.0332661905633889,-0.639870597570652,-0.96,0.14,9.75
15.5014349,180,180,2.4892,0,0,79.625,-2.55205390495029,4.73710310909822,0.767197704938046,0.0321064518098028,0.0344869681987426,-0.639748519807117,-0.92,0.05,9.76
15.5195574,180,180,2.4892,0,0,79.625,-2.41231747896623,4.73487123696875,0.767258743819813,0.0310077519379845,0.034792162607581,-0.639748519807117,-0.91,0.03,9.76
15.5355549,180,180,2.4892,0,0,79.625,-2.35597653414672,4.76192577331378,0.767319782701581,0.0304584020020753,0.0349142403711164,-0.639687480925349,-0.9,0.02,9.76
15.6344071,180,180,2.6362,0,0,79.5,-1.76997629386546,4.69665733997641,0.767930171519258,0.0252090581700543,0.0363181346517732,-0.63913813098944,-0.86,-0.07,9.76
15.6534027,180,180,2.8126,0,0,79.5,-1.71363534904595,4.72371187632144,0.767930171519258,0.0242324360617713,0.0366233290606116,-0.639077092107673,-0.85,-0.09,9.76
15.6708171,180,180,2.8126,0,0,79.5,-1.63023986788141,4.69442546784695,0.767991210401025,0.0232558139534884,0.0368674845876824,-0.639077092107673,-0.84,-0.12,9.76
15.7924303,180,180,2.9988,0,0,79.5,-0.958612274306149,4.73960705201914,0.768113288164561,0.0181285478850027,0.0383324177501068,-0.639016053225905,-0.8,-0.2,9.77
15.8137534,180,180,2.9988,0,0,79.5,-0.875216793141608,4.71032064354465,0.768113288164561,0.0174571201855582,0.0385155343954099,-0.639016053225905,-0.79,-0.22,9.77
15.8304707,180,180,2.9988,0,0,79.5,-0.818875848322092,4.73737517988968,0.768113288164561,0.0167856924861137,0.0386986510407129,-0.639016053225905,-0.79,-0.23,9.77
15.9275264,180,180,3.332,0,0,79.5,-0.539402996353979,4.73291143563075,0.768113288164561,0.014588292742477,0.0394921565036929,-0.639016053225905,-0.77,-0.27,9.77
15.9487811,180,180,3.332,0,0,79.5,-0.483062051534464,4.75996597197578,0.768113288164561,0.0143441372154062,0.0396142342672282,-0.639016053225905,-0.77,-0.28,9.77
15.9655414,180,180,3.332,0,0,79.5,-0.483062051534464,4.75996597197578,0.768113288164561,0.0142830983336385,0.0396752731489959,-0.639016053225905,-0.77,-0.28,9.77
16.0625364,180,180,3.4496,0,0,79,-0.426721106714949,4.78702050832081,0.770860037844107,0.0136727095159617,0.039858389794299,-0.63571995361045,-0.77,-0.28,9.77
16.0815369,180,180,3.4496,0,0,79,-0.483062051534464,4.75996597197578,0.770860037844107,0.0138558261612647,0.039858389794299,-0.63571995361045,-0.77,-0.28,9.77
16.0985488,180,180,3.4496,0,0,78.5625,-0.483062051534464,4.75996597197578,0.773240554233046,0.0139168650430324,0.039858389794299,-0.632790087285601,-0.77,-0.28,9.77
16.197695,180,180,3.5378,0,0,77.8125,-0.706193958683062,4.79148425257973,0.777391198193249,0.015748031496063,0.0396142342672282,-0.627662821217115,-0.79,-0.24,9.77
16.2277201,180,180,3.577,0,0,77.8125,-0.845930384667119,4.7937161247092,0.777391198193249,0.0166025758408106,0.0394311176219252,-0.627662821217115,-0.8,-0.23,9.77
16.2444427,180,180,3.577,0,0,77.6875,-0.845930384667119,4.7937161247092,0.778001587010926,0.016907770249649,0.0393700787401575,-0.626930354635903,-0.81,-0.22,9.77
16.3414497,180,180,3.5672,0,0,77.375,-1.3214806074388,4.77335720475256,0.779710675700421,0.0205701031557102,0.0386376121589452,-0.624732954892266,-0.84,-0.15,9.76
16.3627631,180,180,3.5672,0,0,77.375,-1.34853514378383,4.82969814957208,0.779649636818654,0.0218519196728316,0.0383324177501068,-0.624793993774034,-0.85,-0.13,9.76
16.3794703,180,180,3.5672,0,0,77.375,-1.5446125145874,4.80487548535651,0.779649636818654,0.0222791918452054,0.0382103399865714,-0.624793993774034,-0.85,-0.12,9.76
16.477468,180,180,3.5084,0,0,77.4375,-2.04721727370411,4.84085751021939,0.779100286882744,0.0269181468595495,0.0371726789965208,-0.625282304828176,-0.89,-0.04,9.76
16.4986801,180,180,3.4104,0,0,77.5,-2.15989916334314,4.78674843752934,0.779039248000977,0.0279558078496002,0.03692852346945,-0.625343343709943,-0.9,-0.02,9.76
16.519486,180,180,3.4104,0,0,77.5,-2.2996355893272,4.7889803096588,0.779039248000977,0.0289934688396509,0.0366843679423793,-0.625343343709943,-0.91,0,9.76
16.6176195,180,180,3.2732,0,0,77.5625,-2.88563582960845,4.85424874299617,0.778550936946835,0.0342428126716719,0.0355856680705609,-0.625770615882317,-0.96,0.08,9.75
16.6363943,180,180,3.2732,0,0,77.5625,-2.88563582960845,4.85424874299617,0.778489898065067,0.034792162607581,0.0354635903070256,-0.625770615882317,-0.97,0.1,9.75
16.6525726,180,180,3.2732,0,0,77.5625,-3.02537225559251,4.85648061512564,0.778306781419764,0.0358298235976317,0.0352804736617225,-0.62595373252762,-0.97,0.11,9.75
16.7615482,180,180,3.1164,0,0,78,-3.66771344069328,4.89469451211798,0.775926265030825,0.0421168284197034,0.0338765793810657,-0.628578404443631,-1.03,0.22,9.74
16.7805291,180,180,2.94,0,0,78,-3.80744986667733,4.89692638424745,0.775926265030825,0.0425441005920772,0.0337545016175304,-0.628578404443631,-1.03,0.23,9.74
16.7965576,180,180,2.94,0,0,78.0625,-3.86379081149685,4.86987184790242,0.775621070621986,0.0435207227003601,0.0335713849722273,-0.628883598852469,-1.04,0.24,9.74
16.893385,180,180,2.7636,0,0,78.5,-4.36639557061356,4.9058538727653,0.773057437587743,0.047427211133492,0.0324116462186413,-0.631813465177318,-1.07,0.31,9.74
16.9116061,180,180,2.7636,0,0,78.5,-4.42273651543307,4.87879933642027,0.773057437587743,0.0480986388329366,0.0322285295733382,-0.631813465177318,-1.08,0.32,9.74
16.9285857,180,180,2.7636,0,0,78.5,-4.47907746025259,4.85174480007525,0.773057437587743,0.0483427943600073,0.0321674906915705,-0.631813465177318,-1.08,0.33,9.74
17.0344583,180,180,2.6068,0,0,78.8125,-4.70220936740119,4.8832630806792,0.770982115607642,0.0504791552218763,0.0317402185191967,-0.63413294268449,-1.1,0.36,9.73
17.0537366,180,180,2.4696,0,0,79,-4.70220936740119,4.8832630806792,0.77024964902643,0.0506622718671794,0.0316181407556614,-0.634987487029238,-1.1,0.37,9.73
17.071571,180,180,2.4696,0,0,79,-4.7585503122207,4.85620854433418,0.770310687908198,0.0507233107489471,0.0315571018738937,-0.634987487029238,-1.1,0.37,9.73
17.1806401,180,180,2.3716,0,0,79.1875,-4.61881388623665,4.85397667220471,0.769089910272844,0.0497466886406641,0.0315571018738937,-0.63651345907343,-1.09,0.35,9.73
17.1995884,180,180,2.3716,0,0,79.25,-4.56247294141713,4.88103120854974,0.768845754745773,0.0493194164682903,0.0316181407556614,-0.636818653482268,-1.09,0.34,9.73
17.2155523,180,180,2.3716,0,0,79.25,-4.56247294141713,4.88103120854974,0.768906793627541,0.0490752609412196,0.031679179637429,-0.636818653482268,-1.08,0.33,9.74
17.3125309,180,180,2.3226,0,0,79.375,-4.19960460828448,4.84728105581632,0.768113288164561,0.0459622779710676,0.0322285295733382,-0.637917353354087,-1.05,0.28,9.74
17.3317136,180,180,2.3226,0,0,79.375,-4.05986818230042,4.84504918368686,0.768174327046328,0.0451687725080877,0.0324116462186413,-0.637917353354087,-1.05,0.27,9.74
17.3555824,180,180,2.3226,0,0,79.375,-3.97647270113588,4.81576277521237,0.768235365928096,0.0438259171091986,0.032655801745712,-0.637917353354087,-1.04,0.25,9.74
17.4605504,180,180,2.3716,0,0,79.3125,-3.36118605238014,4.83388982303954,0.768845754745773,0.0385155343954099,0.0337545016175304,-0.637490081181713,-0.99,0.15,9.75
17.4804297,180,180,2.3716,0,0,79.3125,-3.2777905712156,4.80460341456505,0.769273026918147,0.0374778734053592,0.0339986571446011,-0.637062809009339,-0.98,0.14,9.75
17.4966447,180,180,2.3716,0,0,79.25,-3.13805414523154,4.80237154243559,0.769273026918147,0.03692852346945,0.0341207349081365,-0.637062809009339,-0.97,0.13,9.75
