Time (s),Setpoint (deg),Motor Position (deg),Tension 1 (N),Tension 2 (N),Tension 3 (N),Heading (deg),Pitch (deg),Roll (deg),Quaternion W,Quaternion X,Quaternion Y,Quaternion Z,Gravity X,Gravity Y,Gravity Z
0,0,0,0,0,0,0,0,0,0,0,0,0,0,0,0
0.0239757,0,-0.9,1.0094,0,0,78.5625,-0.611639116871203,5.46087997402553,0.773057437587743,0.0160532259049014,0.0454739669169261,-0.63254593175853,-0.88,-0.32,9.76
0.1594499,0,-0.45,0.9996,0,0,78,-0.388507209722605,5.42936169342157,0.775987303912592,0.0142830983336385,0.0454739669169261,-0.629005676616004,-0.86,-0.34,9.76
0.1895137,0,0,0.98,0,0,78,-0.361452673377579,5.37302074860206,0.775987303912592,0.0139168650430324,0.0454739669169261,-0.629005676616004,-0.86,-0.34,9.76
0.294314,0,0,0.98,0,0,77.8125,-0.221716247393523,5.37078887647259,0.777024964902643,0.0125740096441433,0.0454739669169261,-0.627784898980651,-0.84,-0.36,9.76
0.3294278,0,0,0.98,0,0,77.75,-0.138320766228981,5.3415024679981,0.777513275956784,0.0122077763535372,0.0454739669169261,-0.627235549044742,-0.84,-0.37,9.76
0.448202,0,0,0.9898,0,0,77.5625,-0.111266229883956,5.28516152317859,0.778550936946835,0.0112921931270219,0.0450466947445523,-0.62595373252762,-0.82,-0.38,9.76
0.4683181,0,0,1.0192,0,0,77.5625,-0.111266229883956,5.28516152317859,0.778550936946835,0.0112311542452542,0.0449856558627846,-0.62595373252762,-0.82,-0.38,9.76
0.4842624,0,0,1.0192,0,0,77.5625,-0.111266229883956,5.28516152317859,0.778550936946835,0.0111701153634865,0.0449246169810169,-0.62595373252762,-0.82,-0.38,9.76
0.5842543,0,0,1.0486,0,0,77.3125,-0.0842116935389297,5.22882057835907,0.779954831227492,0.0112921931270219,0.0447415003357138,-0.624244643838125,-0.82,-0.37,9.76
0.6033996,0,0,1.0486,0,0,77.3125,-0.0842116935389297,5.22882057835907,0.779954831227492,0.0112921931270219,0.0447415003357138,-0.624244643838125,-0.82,-0.37,9.76
0.619229,0,0,1.0486,0,0,77.3125,-0.167607174703471,5.25810698683356,0.779954831227492,0.0114142708905573,0.0446194225721785,-0.624244643838125,-0.82,-0.37,9.76
0.7171317,0,0,1.0682,0,0,77.25,-0.167607174703471,5.25810698683356,0.780137947872795,0.0118415430629311,0.0444363059268754,-0.624000488311054,-0.82,-0.36,9.76
0.7373799,0,0,1.0682,0,0,77.25,-0.223948119522986,5.23105245048854,0.780137947872795,0.0119025819446988,0.0443752670451077,-0.624000488311054,-0.82,-0.35,9.76
0.7531877,0,0,1.078,0,0,77.3125,-0.223948119522986,5.23105245048854,0.780137947872795,0.0119636208264665,0.04431422816334,-0.624061527192822,-0.82,-0.35,9.76
0.8542191,0,0,1.0682,0,0,77.3125,-0.280289064342502,5.20399791414351,0.780137947872795,0.0127571262894464,0.0440700726362693,-0.624061527192822,-0.83,-0.34,9.76
0.874321,0,0,1.0682,0,0,77.25,-0.336630009162017,5.17694337779848,0.780198986754563,0.0130623206982848,0.0439479948727339,-0.623939449429286,-0.83,-0.33,9.76
0.9031465,0,0,1.0682,0,0,77.25,-0.363684545507043,5.233284322618,0.780198986754563,0.0132454373435879,0.0438869559909662,-0.623939449429286,-0.83,-0.33,9.76
1.0032247,0,0,1.0584,0,0,77.375,-0.476366435146073,5.17917524992795,0.779771714582189,0.0145272538607093,0.0434596838185924,-0.624488799365196,-0.84,-0.31,9.76
1.0221984,0,0,1.029,0,0,77.375,-0.532707379965589,5.15212071358292,0.779710675700421,0.0146493316242446,0.0434596838185924,-0.624549838246963,-0.84,-0.3,9.76
1.0393786,0,0,1.029,0,0,77.375,-0.559761916310615,5.20846165840244,0.779710675700421,0.0148324482695477,0.0433986449368248,-0.624549838246963,-0.84,-0.3,9.76
1.140251,0,0,1.0094,0,0,77.375,-0.672443805949645,5.15435258571239,0.779649636818654,0.0159921870231337,0.0430324116462186,-0.624610877128731,-0.85,-0.28,9.76
1.1603032,0,0,1.0094,0,0,77.375,-0.672443805949645,5.15435258571239,0.779649636818654,0.0161753036684368,0.0429103338826833,-0.624610877128731,-0.85,-0.27,9.76
1.1763501,0,0,1.0094,0,0,77.375,-0.728784750769161,5.12729804936736,0.779649636818654,0.0162973814319722,0.0427882561191479,-0.624610877128731,-0.85,-0.27,9.76
1.2752748,0,0,0.9702,0,0,77.375,-0.785125695588676,5.10024351302233,0.779649636818654,0.0167856924861137,0.0421168284197034,-0.624671916010499,-0.84,-0.25,9.76
1.2943757,0,0,0.9702,0,0,77.375,-0.785125695588676,5.10024351302233,0.779649636818654,0.016907770249649,0.0420557895379357,-0.624671916010499,-0.84,-0.25,9.76
1.3105573,0,0,0.9408,0,0,77.375,-0.841466640408191,5.07318897667731,0.779649636818654,0.0169688091314167,0.0419337117744003,-0.624732954892266,-0.84,-0.25,9.76
1.4112989,0,0,0.9114,0,0,77.375,-0.897807585227707,5.04613444033228,0.779588597936886,0.0173350424220228,0.0415064396020265,-0.624732954892266,-0.84,-0.24,9.76
1.4302594,0,0,0.9114,0,0,77.375,-0.897807585227707,5.04613444033228,0.779588597936886,0.0174571201855582,0.0414454007202588,-0.624732954892266,-0.84,-0.24,9.76
1.4462615,0,0,0.9114,0,0,77.375,-0.897807585227707,5.04613444033228,0.779588597936886,0.0174571201855582,0.0414454007202588,-0.624732954892266,-0.84,-0.24,9.76
1.5441392,0,0,0.882,0,0,77.375,-0.897807585227707,5.04613444033228,0.779588597936886,0.0174571201855582,0.0414454007202588,-0.624732954892266,-0.84,-0.24,9.76
1.5624159,0,0,0.882,0,0,77.375,-0.897807585227707,5.04613444033228,0.779588597936886,0.0174571201855582,0.0414454007202588,-0.624732954892266,-0.84,-0.24,9.76
1.5783194,0,0,0.882,0,0,77.375,-0.897807585227707,5.04613444033228,0.779588597936886,0.0174571201855582,0.0414454007202588,-0.624732954892266,-0.84,-0.24,9.76
1.6773223,0,0,0.8428,0,0,77.375,-0.897807585227707,5.04613444033228,0.779588597936886,0.0174571201855582,0.0414454007202588,-0.624732954892266,-0.84,-0.24,9.76
1.6962428,0,0,0.8428,0,0,77.375,-0.897807585227707,5.04613444033228,0.779588597936886,0.0174571201855582,0.0414454007202588,-0.624732954892266,-0.84,-0.24,9.76
1.7152221,0,0,0.8428,0,0,77.375,-0.897807585227707,5.04613444033228,0.779588597936886,0.0173960813037905,0.0415064396020265,-0.624732954892266,-0.84,-0.24,9.76
1.8153211,0,0,0.8428,0,0,77.375,-0.841466640408191,5.07318897667731,0.779649636818654,0.0169688091314167,0.0418116340108649,-0.624732954892266,-0.84,-0.25,9.76
1.8343518,0,0,0.8428,0,0,77.375,-0.841466640408191,5.07318897667731,0.779649636818654,0.016907770249649,0.0419337117744003,-0.624732954892266,-0.84,-0.25,9.76
1.8504282,0,0,0.8428,0,0,77.375,-0.785125695588676,5.10024351302233,0.779649636818654,0.0167856924861137,0.0419337117744003,-0.624732954892266,-0.84,-0.25,9.76
1.9544588,0,0,0.8526,0,0,77.375,-0.701730214424135,5.07095710454784,0.779649636818654,0.0161142647866691,0.0422389061832387,-0.624671916010499,-0.84,-0.27,9.76
1.9812115,0,0,0.8526,0,0,77.375,-0.64538926960462,5.09801164089287,0.779649636818654,0.0158090703778307,0.0424220228285418,-0.624671916010499,-0.84,-0.27,9.76
1.9973493,0,0,0.8526,0,0,77.375,-0.64538926960462,5.09801164089287,0.779649636818654,0.015748031496063,0.0424830617103095,-0.624671916010499,-0.84,-0.27,9.76
2.0981222,0,0,0.8722,0,0,77.375,-0.589048324785104,5.1250661772379,0.779649636818654,0.0150155649148508,0.0429103338826833,-0.624610877128731,-0.84,-0.29,9.76
2.1173573,0,0,0.8722,0,0,77.375,-0.532707379965589,5.15212071358292,0.779649636818654,0.0148324482695477,0.0430324116462186,-0.624610877128731,-0.84,-0.3,9.76
2.1362128,0,0,0.8722,0,0,77.375,-0.532707379965589,5.15212071358292,0.779649636818654,0.01477140938778,0.0430934505279863,-0.624610877128731,-0.84,-0.3,9.76
2.2362866,0,0,0.9212,0,0,77.375,-0.532707379965589,5.15212071358292,0.779710675700421,0.0145272538607093,0.0433376060550571,-0.624610877128731,-0.84,-0.3,9.76
2.2544451,0,0,0.9212,0,0,77.375,-0.532707379965589,5.15212071358292,0.779710675700421,0.0145272538607093,0.0433376060550571,-0.624610877128731,-0.84,-0.3,9.76
2.2703379,0,0,0.9212,0,0,77.375,-0.532707379965589,5.15212071358292,0.779710675700421,0.0145272538607093,0.0433376060550571,-0.624610877128731,-0.84,-0.3,9.76
2.3674272,0,0,0.9604,0,0,77.375,-0.392970953981532,5.14988884145346,0.779649636818654,0.0134285539888909,0.0434596838185924,-0.624671916010499,-0.82,-0.32,9.76
2.3862677,0,0,0.9604,0,0,77.375,-0.392970953981532,5.14988884145346,0.779649636818654,0.0131843984618202,0.0434596838185924,-0.624671916010499,-0.82,-0.33,9.76
2.4014634,0,0,0.9604,0,0,77.375,-0.336630009162017,5.17694337779848,0.779649636818654,0.0130623206982848,0.0435207227003601,-0.624671916010499,-0.82,-0.33,9.76
2.4195203,0,0,0.9604,0,0,77.375,-0.309575472816991,5.12060243297897,0.779649636818654,0.0128181651712141,0.0435207227003601,-0.624671916010499,-0.82,-0.33,9.76
2.5231962,0,0,1.0192,0,0,77.375,-0.169839046832934,5.11837056084951,0.779588597936886,0.0117194652993957,0.0437038393456632,-0.624732954892266,-0.8,-0.35,9.76
2.5422774,0,0,1.0192,0,0,77.375,-0.169839046832934,5.11837056084951,0.779588597936886,0.011475309772325,0.0437038393456632,-0.624732954892266,-0.8,-0.35,9.76
2.5624284,0,0,1.0192,0,0,77.375,-0.113498102013419,5.14542509719453,0.779588597936886,0.0112921931270219,0.0437648782274309,-0.624732954892266,-0.8,-0.36,9.76
2.669425,0,0,1.0388,0,0,77.375,-0.0301026208488775,5.11613868872004,0.779588597936886,0.0104376487822743,0.0438259171091986,-0.624793993774034,-0.79,-0.37,9.76
2.6883706,0,0,1.0388,0,0,77.375,-0.0301026208488775,5.11613868872004,0.779588597936886,0.0102545321369713,0.0438869559909662,-0.624793993774034,-0.79,-0.38,9.76
2.7035158,0,0,1.0584,0,0,77.375,-0.0301026208488775,5.11613868872004,0.779588597936886,0.0101934932552036,0.0438259171091986,-0.624793993774034,-0.79,-0.38,9.76
2.8012832,0,0,1.0682,0,0,77.375,-0.00304808450385186,5.05979774390053,0.779527559055118,0.0100714154916682,0.0435207227003601,-0.624855032655802,-0.78,-0.37,9.76
2.8203894,0,0,1.0682,0,0,77.375,-0.00304808450385186,5.05979774390053,0.779527559055118,0.0100714154916682,0.0434596838185924,-0.624855032655802,-0.78,-0.37,9.76
2.8355298,0,0,1.0682,0,0,77.375,-0.00304808450385186,5.05979774390053,0.779527559055118,0.0100714154916682,0.0433986449368248,-0.624855032655802,-0.78,-0.37,9.76
2.933289,0,0,1.0682,0,0,77.375,-0.0593890293233672,5.0327432075555,0.779527559055118,0.0103155710187389,0.042971372764451,-0.624916071537569,-0.78,-0.36,9.76
2.9534653,0,0,1.0682,0,0,77.375,-0.0593890293233672,5.0327432075555,0.779527559055118,0.0104376487822743,0.0428492950009156,-0.624916071537569,-0.78,-0.36,9.76
2.9735865,0,0,1.0682,0,0,77.4375,-0.0593890293233672,5.0327432075555,0.779527559055118,0.010498687664042,0.0427882561191479,-0.624916071537569,-0.78,-0.36,9.76
3.0754473,180,0,1.0388,0,0,77.4375,-0.172070918962398,4.97863413486545,0.77946652017335,0.0111090764817189,0.0423609839467741,-0.624977110419337,-0.78,-0.34,9.76
3.0975538,180,1.8,1.0388,0,0,77.4375,-0.172070918962398,4.97863413486545,0.77946652017335,0.0111701153634865,0.0422999450650064,-0.624977110419337,-0.78,-0.34,9.76
3.1194048,180,4.05,1.0388,0,0,77.4375,-0.172070918962398,4.97863413486545,0.77946652017335,0.0113532320087896,0.042177867301471,-0.625038149301105,-0.78,-0.34,9.76
3.2255753,180,39.15,1.0192,0,0,77.4375,-0.284752808601429,4.9245250621754,0.77946652017335,0.0119636208264665,0.0416895562473295,-0.625038149301105,-0.78,-0.32,9.76
3.24545,180,49.95,1.0192,0,0,77.4375,-0.284752808601429,4.9245250621754,0.77946652017335,0.0120246597082341,0.0415674784837942,-0.625099188182872,-0.78,-0.32,9.76
3.2603914,180,58.5,1.0094,0,0,77.4375,-0.284752808601429,4.9245250621754,0.77946652017335,0.0120856985900018,0.0415064396020265,-0.625099188182872,-0.78,-0.32,9.77
3.3646218,180,129.15,1.0878,0,0,77.4375,-0.341093753420944,4.89747052583037,0.779344442409815,0.0125129707623756,0.0412012451931881,-0.625221265946408,-0.78,-0.31,9.77
3.3836408,180,139.5,1.0878,0,0,77.4375,-0.341093753420944,4.89747052583037,0.779344442409815,0.0125129707623756,0.0412012451931881,-0.625221265946408,-0.78,-0.31,9.77
3.4006555,180,148.05,1.0878,0,0,77.4375,-0.341093753420944,4.89747052583037,0.779283403528047,0.0125740096441433,0.0412012451931881,-0.625221265946408,-0.78,-0.31,9.77
3.5057667,180,178.2,1.3622,0,0,77.5,-0.453775643059975,4.84336145314032,0.779100286882744,0.0132454373435879,0.0408350119025819,-0.625526460355246,-0.78,-0.29,9.77
3.538224,180,180,1.3622,0,0,77.5,-0.480830179405,4.89970239795984,0.779039248000977,0.013794787279497,0.0407739730208143,-0.625587499237014,-0.79,-0.28,9.77
3.5534657,180,180,1.911,0,0,77.5,-0.537171124224516,4.87264786161481,0.778978209119209,0.0142830983336385,0.0407129341390466,-0.625648538118782,-0.79,-0.28,9.77
3.6654035,180,180,2.6264,0,0,77.5625,-1.17951230932528,4.91086175860715,0.778734053592138,0.0194103644021242,0.0397363120307636,-0.625892693645852,-0.84,-0.19,9.76
3.685616,180,180,2.6264,0,0,77.5625,-1.31924873530934,4.91309363073662,0.778673014710371,0.0207532198010132,0.0394311176219252,-0.62595373252762,-0.85,-0.16,9.76
3.7026079,180,180,2.6264,0,0,77.5625,-1.37558968012886,4.88603909439159,0.778611975828603,0.0214856863822255,0.0393090398583898,-0.62595373252762,-0.86,-0.15,9.76
3.8013608,180,180,3.2928,0,0,77.625,-2.21400823603319,4.89943032716837,0.775132759567845,0.030519440883843,0.0371726789965208,-0.630043337606055,-0.94,0,9.76
3.8204118,180,180,3.7142,0,0,78.1875,-2.43714014318179,4.93094860777233,0.775071720686077,0.0313739852285906,0.03692852346945,-0.630104376487823,-0.95,0.03,9.75
3.836326,180,180,3.7142,0,0,78.1875,-2.66027205033039,4.96246688837628,0.775010681804309,0.0331441127998535,0.0365012512970762,-0.630104376487823,-0.96,0.05,9.75
3.9336572,180,180,3.7926,0,0,78.25,-3.6947679770383,4.9510354569375,0.774583409631936,0.0421168284197034,0.0345480070805103,-0.630226454251358,-1.04,0.21,9.74
3.9515329,180,180,3.7926,0,0,78.25,-3.83450440302236,4.95326732906696,0.774522370750168,0.0430324116462186,0.0343038515534395,-0.630226454251358,-1.05,0.22,9.74
3.9721619,180,180,3.7926,0,0,78.25,-3.97424082900642,4.95549920119642,0.7744613318684,0.0440090337545016,0.0341207349081365,-0.630226454251358,-1.07,0.27,9.74
4.0952642,180,180,3.6064,0,0,78.3125,-5.37160508884698,4.97781792249106,0.773850943050723,0.0563388878715742,0.031496062992126,-0.63016541536959,-1.18,0.48,9.72
4.1134947,180,180,3.3026,0,0,78.3125,-5.59473699599558,5.00933620309501,0.773728865287188,0.0581700543246048,0.0310687908197522,-0.63016541536959,-1.19,0.49,9.72
4.1293599,180,180,3.3026,0,0,78.3125,-5.81786890314418,5.04085448369897,0.77366782640542,0.0599401818958677,0.0307025575291461,-0.630104376487823,-1.21,0.54,9.71
4.2314266,180,180,2.9792,0,0,78.3125,-6.79602388503257,5.05647758860521,0.773240554233046,0.0681804309345053,0.0289934688396509,-0.629860220960752,-1.28,0.67,9.69
4.2504289,180,180,2.9792,0,0,78.3125,-6.99210125583615,5.03165492438965,0.773179515351279,0.0695232863333944,0.0286882744308124,-0.629799182078984,-1.29,0.69,9.69
4.2674529,180,180,2.9792,0,0,78.3125,-7.1318376818202,5.03388679651911,0.773118476469511,0.0708051028505158,0.0284441189037417,-0.629738143197217,-1.3,0.72,9.69
4.3685793,180,180,2.6558,0,0,78.3125,-7.63444244093691,5.06986882138199,0.772935359824208,0.0755050967466276,0.0276506134407618,-0.629493987670146,-1.35,0.8,9.67
4.3874704,180,180,2.3814,0,0,78.3125,-7.71783792210145,5.09915522985648,0.77287432094244,0.0760544466825368,0.0275285356772264,-0.629432948788378,-1.35,0.81,9.67
4.4034212,180,180,2.3814,0,0,79.1875,-7.77417886692097,5.07210069351146,0.767808093755722,0.0767258743819813,0.0269181468595495,-0.635597875846915,-1.36,0.81,9.67
4.5023118,180,180,2.156,0,0,81.0625,-7.77417886692097,5.07210069351146,0.757248367209913,0.0770310687908198,0.0258804858694989,-0.648171885491058,-1.36,0.81,9.67
4.5215034,180,180,2.156,0,0,81.0625,-7.71783792210145,5.09915522985648,0.75730940609168,0.0766037966184459,0.0260025636330342,-0.64811084660929,-1.35,0.8,9.67
4.5385117,180,180,2.156,0,0,81.0625,-7.66149697728194,5.12620976620151,0.75730940609168,0.0762986022096075,0.0261246413965696,-0.64811084660929,-1.35,0.79,9.67
4.6373676,180,180,2.009,0,0,82.5,-7.10255127334571,5.11728227768366,0.749435390343649,0.0721479582494049,0.026429835805408,-0.657693951046817,-1.31,0.71,9.69
4.6588426,180,180,2.009,0,0,83.0625,-6.96281484736166,5.11505040555419,0.746444485137032,0.0710492583775865,0.0264908746871757,-0.661173167307575,-1.3,0.68,9.69
4.6744526,180,180,1.9502,0,0,83,-6.8230784213776,5.11281853342473,0.746566562900568,0.0697674418604651,0.0268571079777818,-0.661173167307575,-1.29,0.67,9.69
4.7733636,180,180,1.9992,0,0,83.8125,-5.92831892065374,5.12648183699297,0.742476957822133,0.0623206982848074,0.0285051577855094,-0.666422511139596,-1.22,0.53,9.71
4.7924493,180,180,1.9992,0,0,83.8125,-5.78858249466969,5.12424996486351,0.7425379967039,0.0614661539400598,0.0287493133125801,-0.666422511139596,-1.22,0.51,9.71
4.8096716,180,180,1.9992,0,0,84,-5.64884606868563,5.12201809273405,0.741317219068547,0.0589635597875847,0.0292986632484893,-0.668009522065556,-1.19,0.47,9.72
4.9084641,180,180,2.1266,0,0,84.375,-4.53095466081318,5.10416311569834,0.739608130379051,0.0509674662760178,0.0313739852285906,-0.670451077336263,-1.11,0.3,9.73
4.9277297,180,180,2.1266,0,0,84.375,-4.30782275366458,5.07264483509438,0.739730208142587,0.0490752609412196,0.0319233351644998,-0.670451077336263,-1.09,0.27,9.74
4.9544644,180,180,2.3422,0,0,84.4375,-3.97200895687695,5.09523562718048,0.739363974851981,0.0462064334981383,0.0327778795092474,-0.67106146615394,-1.08,0.23,9.74
5.0523512,180,180,2.6068,0,0,84.375,-2.88117208534952,5.13372159496429,0.739669169260819,0.0372337178782885,0.0354635903070256,-0.671122505035708,-0.99,0.05,9.75
5.0713827,180,180,2.6068,0,0,84.375,-2.65804017820093,5.10220331436034,0.739730208142587,0.0351583958981871,0.0360739791247024,-0.671122505035708,-0.97,0.01,9.75
5.0896797,180,180,2.6068,0,0,84.375,-2.43490827105233,5.07068503375638,0.739791247024355,0.0332051516816212,0.0366233290606116,-0.671122505035708,-0.96,0,9.75
5.1945282,180,180,2.9106,0,0,84.375,-1.31701686317988,5.05283005672067,0.740035402551425,0.0228285417811146,0.0395531953854605,-0.671122505035708,-0.87,-0.18,9.76
5.2134551,180,180,2.9106,0,0,84.375,-1.03754401121176,5.04836631246175,0.740035402551425,0.0220350363181347,0.0397973509125313,-0.671122505035708,-0.86,-0.2,9.76
5.229595,180,180,3.2242,0,0,84.375,-0.954148530047222,5.01907990398726,0.740035402551425,0.0203869865104071,0.0402246230849051,-0.671122505035708,-0.85,-0.23,9.76
5.327535,180,180,3.528,0,0,84.375,-0.115729974142883,5.00568867121047,0.740096441433193,0.013611670634194,0.0417505951290972,-0.671183543917475,-0.78,-0.35,9.76
5.3467045,180,180,3.528,0,0,84.375,-0.0323344929783413,4.97640226273599,0.740096441433193,0.012635048525911,0.0420557895379357,-0.671183543917475,-0.77,-0.37,9.76
5.363353,180,180,3.528,0,0,84.375,0.107401933005715,4.97417039060652,0.740035402551425,0.011658426417628,0.0422999450650064,-0.671183543917475,-0.76,-0.38,9.76
5.4723557,180,180,3.7828,0,0,84.375,0.47027026613837,4.94042023787311,0.739974363669658,0.00866752121101141,0.0429103338826833,-0.671305621681011,-0.73,-0.43,9.76
5.4913287,180,180,3.7828,0,0,84.375,0.47027026613837,4.94042023787311,0.739974363669658,0.00848440456570836,0.042971372764451,-0.671305621681011,-0.73,-0.44,9.76
5.508366,180,180,3.9886,0,0,84.375,0.47027026613837,4.94042023787311,0.739974363669658,0.00842336568394067,0.0429103338826833,-0.671305621681011,-0.73,-0.44,9.76
5.6153233,180,180,4.116,0,0,84,0.274192895334798,4.91559757365754,0.742232802295062,0.00988829884636513,0.0424220228285418,-0.668803027528536,-0.74,-0.41,9.76
5.6333992,180,180,4.116,0,0,84,0.190797414170256,4.94488398213203,0.742232802295062,0.010498687664042,0.0422389061832387,-0.668864066410303,-0.75,-0.4,9.76
5.6493427,180,180,4.116,0,0,83.875,0.190797414170256,4.94488398213203,0.743026307758042,0.0111701153634865,0.0421168284197034,-0.66788744430202,-0.76,-0.38,9.76
5.7964555,180,180,4.1454,0,0,83.5,-0.843698512537655,4.93345255069325,0.745345785265214,0.0189830922297504,0.039858389794299,-0.66526277238601,-0.82,-0.24,9.76
5.815284,180,180,4.1454,0,0,83.5,-0.983434938521712,4.93568442282272,0.745345785265214,0.0203869865104071,0.0394311176219252,-0.665323811267778,-0.84,-0.21,9.76
5.8313278,180,180,4.1454,0,0,83.5,-1.17951230932528,4.91086175860715,0.745284746383446,0.0218519196728316,0.0390038454495514,-0.665384850149545,-0.85,-0.18,9.76
5.9392955,180,180,4.0474,0,0,83.5,-2.24106277237822,4.95577127198789,0.74491851309284,0.030519440883843,0.0363181346517732,-0.665567966794848,-0.92,-0.02,9.76
5.9583618,180,180,4.0474,0,0,83.5625,-2.38079919836228,4.95800314411735,0.744857474211072,0.0322285295733382,0.0358298235976317,-0.665567966794848,-0.94,0,9.76
5.9754154,180,180,3.871,0,0,83.5625,-2.46419467952682,4.98728955259184,0.744796435329305,0.0330830739180858,0.0355856680705609,-0.665567966794848,-0.95,0.01,9.76
6.0775225,180,180,3.6456,0,0,83.5625,-3.55503155105425,4.94880358480803,0.744369163156931,0.0432155282915217,0.032655801745712,-0.665629005676616,-1.04,0.2,9.74
6.0965394,180,180,3.6456,0,0,83.5625,-3.77816345820284,4.98032186541199,0.744369163156931,0.0441921503998047,0.0324116462186413,-0.665629005676616,-1.04,0.22,9.74
6.1125881,180,180,3.6456,0,0,83.5625,-4.03058177382593,4.9284446648514,0.744247085393396,0.0460843557346029,0.0318622962827321,-0.665629005676616,-1.06,0.25,9.74
6.2127519,180,180,3.381,0,0,83.625,-5.03579129205935,5.00040871457716,0.743880852102789,0.0546908380638467,0.0294817798937923,-0.665506927913081,-1.15,0.42,9.72
6.231747,180,180,3.381,0,0,83.625,-5.37160508884698,4.97781792249106,0.743758774339254,0.0574375877433925,0.0287493133125801,-0.665445889031313,-1.16,0.46,9.72
6.2476374,180,180,3.087,0,0,83.625,-5.51134151483104,4.98004979462052,0.743758774339254,0.0582921320881401,0.0285051577855094,-0.665384850149545,-1.17,0.47,9.72
6.3444868,180,180,2.7832,0,0,83.625,-6.40610101555489,4.96638649105228,0.743392541048648,0.0661661478361716,0.0263687969236404,-0.665140694622474,-1.24,0.62,9.7
6.3634834,180,180,2.7832,0,0,83.625,-6.48949649671943,4.99567289952677,0.743392541048648,0.0668375755356162,0.0261856802783373,-0.665140694622474,-1.25,0.63,9.7
6.380446,180,180,2.7832,0,0,83.625,-6.62923292270349,4.99790477165623,0.743270463285113,0.0686687419886468,0.0256973692241958,-0.665018616858939,-1.27,0.66,9.7
6.4794023,180,180,2.5088,0,0,83.625,-7.18817862663972,5.00683226017409,0.743148385521577,0.0726362693035464,0.0245986693523775,-0.664774461331868,-1.3,0.74,9.69
6.4987082,180,180,2.5088,0,0,84.1875,-7.24451957145923,4.97977772382906,0.739608130379051,0.0733687358847586,0.024110358298236,-0.668680949765,-1.31,0.75,9.68
6.5157286,180,180,2.5088,0,0,84.1875,-7.32791505262377,5.00906413230355,0.739608130379051,0.0737349691753647,0.0239882805347006,-0.668619910883233,-1.31,0.75,9.68
6.6385623,180,180,2.107,0,0,85.4375,-7.24451957145923,4.97977772382906,0.732405542330465,0.0733076970029909,0.0233778917170237,-0.676554965513032,-1.3,0.73,9.69
6.6585155,180,180,2.107,0,0,85.875,-7.18817862663972,5.00683226017409,0.729658792650919,0.0728804248306171,0.0232558139534884,-0.679606909601416,-1.3,0.73,9.69
6.6744369,180,180,2.107,0,0,85.875,-7.04844220065566,5.00460038804462,0.729719831532686,0.0721479582494049,0.0234999694805591,-0.679606909601416,-1.29,0.71,9.69
6.772849,180,180,2.0188,0,0,86.625,-6.48949649671943,4.99567289952677,0.725447109808948,0.0673869254715254,0.0245376304706098,-0.684612097906366,-1.25,0.62,9.7
6.7944229,180,180,2.0188,0,0,86.875,-6.34976007073538,4.99344102739731,0.72434840993713,0.066105108954404,0.0248428248794482,-0.685893914423488,-1.24,0.6,9.7
6.8115104,180,180,2.0188,0,0,86.8125,-6.1536826999318,5.01826369161287,0.724409448818898,0.0647622535555149,0.025270097051822,-0.685893914423488,-1.23,0.58,9.71
6.9094334,180,180,2.107,0,0,86.875,-5.37160508884698,4.97781792249106,0.724714643227736,0.0573765488616249,0.0275285356772264,-0.686199108832326,-1.16,0.44,9.72
6.9296129,180,180,2.107,0,0,86.8125,-5.17552771804341,5.00264058670662,0.724775682109504,0.055789537935665,0.0280778856131356,-0.686199108832326,-1.14,0.41,9.73
6.9455229,180,180,2.107,0,0,86.9375,-4.95239581089481,4.97112230610267,0.72434840993713,0.0549960324726851,0.0282610022584386,-0.686748458768235,-1.14,0.4,9.73
7.0465534,180,180,2.2736,0,0,86.8125,-3.97424082900642,4.95549920119642,0.725019837636575,0.0465116279069767,0.0309467130562168,-0.686504303241165,-1.05,0.22,9.74
7.0654745,180,180,2.2736,0,0,86.8125,-3.72182251338333,5.00737640175701,0.72514191540011,0.0438869559909662,0.0318012574009644,-0.686565342122932,-1.04,0.19,9.74
7.0815912,180,180,2.2736,0,0,86.8125,-3.49869060623473,4.97585812115306,0.72514191540011,0.042971372764451,0.0321064518098028,-0.6866263810047,-1.03,0.17,9.75
7.1815722,180,180,2.7734,0,0,86.75,-2.46419467952682,4.98728955259184,0.725752304217787,0.0341207349081365,0.0350363181346518,-0.686321186595862,-0.95,0.01,9.75
7.2015349,180,180,2.7734,0,0,86.75,-2.38079919836228,4.95800314411735,0.725813343099554,0.0323506073368736,0.0356467069523286,-0.686321186595862,-0.94,-0.01,9.76
7.217553,180,180,2.7734,0,0,86.75,-2.10132634639416,4.95353939985842,0.725874381981322,0.0305804797656107,0.0361350180064701,-0.686321186595862,-0.92,-0.05,9.76
7.3156319,180,180,3.0674,0,0,86.75,-1.15022590085079,4.99425723977169,0.725996459744857,0.0226454251358115,0.0386986510407129,-0.686321186595862,-0.85,-0.19,9.76
7.3358646,180,180,3.0674,0,0,86.75,-1.06683041968625,4.9649708312972,0.726057498626625,0.0212415308551547,0.0391259232130867,-0.686321186595862,-0.84,-0.22,9.76
7.3554687,180,180,3.0674,0,0,86.75,-0.78735756771814,4.96050708703828,0.726057498626625,0.0198986754562656,0.0394921565036929,-0.686321186595862,-0.83,-0.24,9.76
7.4534391,180,180,3.3516,0,0,86.75,-0.284752808601429,4.9245250621754,0.726057498626625,0.0148324482695477,0.0409570896661173,-0.686382225477629,-0.78,-0.34,9.76
7.4726053,180,180,3.6162,0,0,86.75,-0.145016382617372,4.92229319004593,0.726057498626625,0.0144662149789416,0.0410791674296527,-0.686382225477629,-0.77,-0.35,9.76
7.4895156,180,180,3.6162,0,0,86.75,-0.0886754377978567,4.94934772639096,0.725996459744857,0.013794787279497,0.0413233229567234,-0.686382225477629,-0.77,-0.35,9.76
7.5894407,180,180,3.8318,0,0,86.75,0.134456469350741,4.91782944578701,0.72593542086309,0.0120856985900018,0.0418116340108649,-0.686443264359397,-0.75,-0.39,9.76
7.6097703,180,180,3.8318,0,0,86.3125,0.107401933005715,4.97417039060652,0.728621131660868,0.0119636208264665,0.0419337117744003,-0.683635475798083,-0.75,-0.39,9.76
7.6268731,180,180,3.8318,0,0,86.3125,0.107401933005715,4.97417039060652,0.7285600927791,0.0120856985900018,0.0419337117744003,-0.683635475798083,-0.76,-0.38,9.76
7.7285263,180,180,3.9886,0,0,85.625,-0.115729974142883,5.00568867121047,0.732771775621071,0.0139168650430324,0.0415064396020265,-0.679179637429042,-0.78,-0.35,9.76
7.7477263,180,180,4.067,0,0,85.5625,-0.228411863781913,4.95157959852042,0.733260086675212,0.014588292742477,0.0413233229567234,-0.678569248611365,-0.78,-0.34,9.76
7.7746153,180,180,4.067,0,0,85.5625,-0.255466400126939,5.00792054333994,0.733260086675212,0.0158090703778307,0.0410791674296527,-0.678630287493133,-0.8,-0.31,9.76
7.8744842,180,180,4.0768,0,0,85.125,-0.954148530047222,5.01907990398726,0.735579564182384,0.0213025697369224,0.0394921565036929,-0.676005615577123,-0.85,-0.21,9.76
7.8926671,180,180,4.0768,0,0,85.125,-1.09388495603128,5.02131177611672,0.735518525300616,0.021973997436367,0.0393700787401575,-0.676127693340658,-0.85,-0.2,9.76
7.9083962,180,180,4.0768,0,0,85.125,-1.15022590085079,4.99425723977169,0.735457486418849,0.0226454251358115,0.0391869620948544,-0.676127693340658,-0.86,-0.19,9.76
8.0075991,180,180,4.018,0,0,85.25,-2.04498540157465,4.98059393620345,0.73490813648294,0.0297259354208631,0.03692852346945,-0.676554965513032,-0.93,-0.04,9.76
8.0315215,180,180,3.8808,0,0,85.25,-2.32445825354276,4.98505768046238,0.734847097601172,0.0319843740462675,0.0362570957700055,-0.6766160043948,-0.94,-0.02,9.76
8.0475472,180,180,3.8808,0,0,85.25,-2.4078537347073,5.01434408893687,0.734663980955869,0.0335713849722273,0.0358298235976317,-0.676738082158335,-0.96,0,9.75
8.1464944,180,180,3.6848,0,0,85.3125,-3.32966777177618,5.05702173018814,0.734297747665263,0.0418726728926326,0.0333272294451566,-0.676799121040103,-1.03,0.16,9.75
8.1676286,180,180,3.6848,0,0,85.3125,-3.52574514257976,5.03219906597258,0.734236708783495,0.0435817615821278,0.0328389183910151,-0.676799121040103,-1.05,0.19,9.74
8.1877738,180,180,3.6848,0,0,85.3125,-3.80521799454787,5.0366628102315,0.73411463101996,0.045290850271623,0.0323506073368736,-0.676799121040103,-1.06,0.22,9.74
8.3065997,180,180,3.185,0,0,85.3125,-5.06284582840438,5.05674965939667,0.733687358847586,0.0556674601721296,0.029359702130257,-0.676677043276567,-1.16,0.41,9.72
8.3288389,180,180,3.185,0,0,85.3125,-5.28597773555298,5.08826794000063,0.733626319965818,0.0572544710980895,0.0288713910761155,-0.6766160043948,-1.17,0.44,9.72
8.3537044,180,180,3.185,0,0,85.6875,-5.56545058752109,5.09273168425956,0.731550997985717,0.0596960263687969,0.0279558078496002,-0.678691326374901,-1.19,0.48,9.72
8.4513819,180,180,2.9106,0,0,86.5,-6.32047366226089,5.07683650856185,0.726545809680767,0.0664713422450101,0.0255752914606604,-0.683513398034548,-1.25,0.6,9.7
8.4714953,180,180,2.9106,0,0,86.5,-6.40386914342543,5.10612291703634,0.726484770798999,0.0670206921809192,0.0253921748153574,-0.683513398034548,-1.26,0.62,9.7
8.4874532,180,180,2.6362,0,0,87,-6.51655103306446,5.05201384434628,0.723432826710615,0.0681193920527376,0.0247207471159128,-0.686687419886468,-1.26,0.63,9.7
8.5884955,180,180,2.401,0,0,87.4375,-6.93576031101663,5.05870946073468,0.720563999267533,0.0712934139046573,0.0234999694805591,-0.689434169566014,-1.29,0.69,9.69
8.6066679,180,180,2.401,0,0,87.75,-6.99210125583615,5.03165492438965,0.718671793932735,0.0719038027223341,0.0230726973081853,-0.691326374900812,-1.3,0.7,9.69
8.6224849,180,180,2.401,0,0,87.75,-7.01915579218117,5.08799586920916,0.718671793932735,0.0720869193676372,0.0230726973081853,-0.691326374900812,-1.3,0.7,9.69
8.7284993,180,180,2.2246,0,0,88.375,-6.87941936619711,5.0857639970797,0.714887383263139,0.0712934139046573,0.0229506195446499,-0.695293902215711,-1.29,0.68,9.69
8.7475024,180,180,2.2246,0,0,88.6875,-6.87941936619711,5.0857639970797,0.713117255691876,0.0711102972593542,0.0228285417811146,-0.697125068668742,-1.29,0.68,9.69
8.7634811,180,180,2.2246,0,0,88.6875,-6.73968294021306,5.08353212495024,0.713239333455411,0.0701336751510712,0.0230726973081853,-0.697125068668742,-1.28,0.66,9.69
8.8775209,180,180,2.0776,0,0,89.25,-6.09734175511229,5.04531822795789,0.709943233839956,0.0648843313190502,0.024293474943539,-0.700970518220106,-1.23,0.56,9.71
8.8975327,180,180,2.0776,0,0,89.25,-5.95760532912823,5.04308635582843,0.710004272721724,0.0636635536836965,0.0246597082341452,-0.700970518220106,-1.21,0.54,9.71
8.9144099,180,180,2.0776,0,0,89.25,-5.81786890314418,5.04085448369897,0.710126350485259,0.0623206982848074,0.025086980406519,-0.700970518220106,-1.2,0.52,9.71
9.0195493,180,180,2.1266,0,0,89.125,-4.95239581089481,4.97112230610267,0.710858817066471,0.0552401879997558,0.0272843801501556,-0.700726362693035,-1.13,0.38,9.73
9.0384187,180,180,2.1266,0,0,89.125,-4.83971392125578,5.02523137879272,0.710858817066471,0.0544466825367759,0.0275285356772264,-0.700726362693035,-1.11,0.35,9.73
9.0534182,180,180,2.254,0,0,89.125,-4.56024106928767,5.02076763453379,0.711102972593542,0.0522492827931392,0.0282610022584386,-0.700665323811268,-1.11,0.33,9.73
9.1543983,180,180,2.4402,0,0,88.875,-3.63842703221879,4.97808999328252,0.712934139046573,0.0442531892815724,0.0308856741744491,-0.699261429530611,-1.03,0.19,9.74
9.1735176,180,180,2.4402,0,0,88.875,-3.41529512507019,4.94657171267857,0.71299517792834,0.0426661783556125,0.0314350241103583,-0.699261429530611,-1.02,0.16,9.75
9.1904926,180,180,2.4402,0,0,88.875,-3.35895418025067,4.9736262490236,0.713056216810108,0.0418116340108649,0.031679179637429,-0.699261429530611,-1.01,0.15,9.75
9.2934515,180,180,2.6852,0,0,88.8125,-2.38079919836228,4.95800314411735,0.713300372337179,0.0338155404992981,0.0343038515534395,-0.699261429530611,-0.94,0,9.76
9.3125367,180,180,2.6852,0,0,88.8125,-2.15766729121368,4.9264848635134,0.713422450100714,0.0314350241103583,0.0351583958981871,-0.699261429530611,-0.92,-0.04,9.76
9.3284794,180,180,2.9498,0,0,88.8125,-2.01793086522962,4.92425299138393,0.713422450100714,0.0307025575291461,0.0354025514252579,-0.699261429530611,-0.91,-0.05,9.76
9.4295278,180,180,3.2144,0,0,88.8125,-1.17951230932528,4.91086175860715,0.713544527864249,0.0237441250076299,0.03772202893243,-0.699261429530611,-0.85,-0.18,9.76
9.447816,180,180,3.2144,0,0,88.8125,-1.03977588334123,4.90862988647769,0.713544527864249,0.0225233473722761,0.0380882622230361,-0.699261429530611,-0.84,-0.2,9.76
9.4635089,180,180,3.2144,0,0,88.8125,-0.983434938521712,4.93568442282272,0.713544527864249,0.021973997436367,0.0382713788683391,-0.699261429530611,-0.83,-0.21,9.76
9.563846,180,180,3.4692,0,0,88.8125,-0.424489234585485,4.92675693430486,0.713544527864249,0.0171519257767198,0.0397363120307636,-0.699322468412379,-0.79,-0.3,9.76
9.5825991,180,180,3.4692,0,0,88.8125,-0.341093753420944,4.89747052583037,0.716779588597937,0.0164194591955075,0.0399804675578343,-0.696026368796924,-0.78,-0.31,9.77
9.5985769,180,180,3.4692,0,0,88.3125,-0.341093753420944,4.89747052583037,0.716779588597937,0.0162363425502045,0.040041506439602,-0.696026368796924,-0.78,-0.31,9.77
9.6974552,180,180,3.6946,0,0,87.3125,-0.201357327436887,4.89523865370091,0.722578282365867,0.0147103705060123,0.0405908563755112,-0.69004455838369,-0.77,-0.34,9.77
9.7177188,180,180,3.8612,0,0,87.3125,-0.201357327436887,4.89523865370091,0.722578282365867,0.0148324482695477,0.0405298174937435,-0.69004455838369,-0.77,-0.33,9.77
9.74176,180,180,3.8612,0,0,86.9375,-0.201357327436887,4.89523865370091,0.724958798754807,0.0150155649148508,0.0405298174937435,-0.687541964231215,-0.77,-0.33,9.77
9.8457113,180,180,3.969,0,0,86.5625,-0.564225660569542,4.92898880643433,0.727156198498443,0.0175181590673259,0.0397973509125313,-0.685161447842276,-0.8,-0.28,9.76
9.864734,180,180,3.969,0,0,86.5625,-0.620566605389057,4.9019342700893,0.727156198498443,0.0183727034120735,0.0395531953854605,-0.685222486724043,-0.81,-0.26,9.76
9.8815363,180,180,3.969,0,0,86.375,-0.760303031373114,4.90416614221876,0.728071781724959,0.0192272477568211,0.0393090398583898,-0.684184825733993,-0.81,-0.25,9.76
9.9956305,180,180,3.969,0,0,86.125,-1.4589851612934,4.91532550286608,0.729780870414454,0.0252090581700543,0.0374778734053592,-0.682231581517427,-0.87,-0.14,9.76
10.0236219,180,180,3.969,0,0,86.125,-1.73845801326151,4.91978924712501,0.729719831532686,0.0271012635048526,0.0368674845876824,-0.682292620399194,-0.89,-0.1,9.76
10.0397382,180,180,3.969,0,0,86.125,-1.87819443924557,4.92202111925447,0.729658792650919,0.0284441189037417,0.0365012512970762,-0.682353659280962,-0.9,-0.08,9.76
10.1656047,180,180,3.871,0,0,86.1875,-2.85634942113396,4.93764422416072,0.729170481596777,0.0369895623512177,0.0338765793810657,-0.682536775926265,-0.97,0.07,9.75
10.1848943,180,180,3.7044,0,0,86.1875,-2.9397449022985,4.96693063263521,0.729170481596777,0.03772202893243,0.033632423853995,-0.682536775926265,-0.98,0.08,9.75
10.2005601,180,180,3.7044,0,0,86.375,-3.21921775426662,4.97139437689413,0.728132820606726,0.040041506439602,0.0329609961545504,-0.683574436916316,-1,0.13,9.75
10.3005634,180,180,3.4986,0,0,86.375,-4.05763631017096,4.98478560967092,0.727827626197888,0.0471830556064213,0.0308246352926814,-0.683574436916316,-1.07,0.25,9.74
10.3196063,180,180,3.4986,0,0,86.375,-4.33710916213907,4.98924935392984,0.727705548434353,0.0495025331135934,0.0301532075932369,-0.683513398034548,-1.09,0.3,9.74
10.3356814,180,180,3.4986,0,0,86.375,-4.42050464330361,5.01853576240433,0.727644509552585,0.0502960385765733,0.0299700909479338,-0.683513398034548,-1.1,0.31,9.73
10.4326347,180,180,3.2634,0,0,86.375,-5.25892319920795,5.03192699518111,0.727339315143747,0.0578038210339987,0.0278337300860648,-0.683391320271013,-1.17,0.45,9.72
10.4519091,180,180,2.9988,0,0,86.375,-5.39865962519201,5.03415886731058,0.727278276261979,0.0585362876152109,0.0276506134407618,-0.683330281389245,-1.17,0.46,9.72
10.4697716,180,180,2.9988,0,0,86.375,-5.59473699599558,5.00933620309501,0.727217237380211,0.0605505707135445,0.0271012635048526,-0.683269242507477,-1.19,0.5,9.72
10.5665693,180,180,2.744,0,0,86.375,-6.23707818109635,5.04755010008736,0.72697308185314,0.0659830311908686,0.0255752914606604,-0.683086125862174,-1.24,0.59,9.7
10.5857598,180,180,2.744,0,0,86.375,-6.3768146070804,5.04978197221682,0.72697308185314,0.0663492644814747,0.0253921748153574,-0.683025086980407,-1.25,0.6,9.7
10.6016793,180,180,2.744,0,0,86.375,-6.3768146070804,5.04978197221682,0.72697308185314,0.0667765366538485,0.025270097051822,-0.683025086980407,-1.25,0.61,9.7
10.7006394,180,180,2.5186,0,0,87.3125,-6.73968294021306,5.08353212495024,0.721296465848746,0.0695843252151621,0.024110358298236,-0.688762741866569,-1.28,0.66,9.7
10.7198804,180,180,2.5186,0,0,87.3125,-6.73968294021306,5.08353212495024,0.721296465848746,0.0697674418604651,0.024110358298236,-0.688762741866569,-1.28,0.66,9.69
10.7348312,180,180,2.3226,0,0,87.875,-6.73968294021306,5.08353212495024,0.718122443996826,0.0698895196240005,0.0237441250076299,-0.692119880363792,-1.28,0.66,9.69
10.8326944,180,180,2.1952,0,0,88.375,-6.54360556940949,5.1083547891658,0.714826344381371,0.0685466642251114,0.0239272416529329,-0.69559909662455,-1.27,0.63,9.7
10.8515627,180,180,2.1952,0,0,88.375,-6.51655103306446,5.05201384434628,0.714887383263139,0.068241469816273,0.0240493194164683,-0.69559909662455,-1.26,0.62,9.7
10.8676557,180,180,2.1952,0,0,88.375,-6.46021008824494,5.07906838069131,0.714948422144906,0.0675700421168284,0.0242324360617713,-0.69559909662455,-1.26,0.61,9.7
10.9696542,180,180,2.1364,0,0,88.8125,-5.90126438430872,5.07014089217346,0.712506866874199,0.0625038149301105,0.0256973692241958,-0.698467924067631,-1.21,0.52,9.71
10.9909886,180,180,2.1364,0,0,88.875,-5.76152795832466,5.06790902004399,0.712445827992431,0.0613440761765244,0.0260636025148019,-0.698651040712934,-1.2,0.49,9.71
11.0127093,180,180,2.156,0,0,88.875,-5.48205510635655,5.06344527578507,0.712506866874199,0.060062259659403,0.026429835805408,-0.698651040712934,-1.19,0.47,9.72
11.1127759,180,180,2.254,0,0,88.8125,-4.69997749527172,5.02299950666326,0.712812061283037,0.0534090215467253,0.0285051577855094,-0.698834157358237,-1.13,0.35,9.73
11.1316345,180,180,2.254,0,0,88.875,-4.56024106928767,5.02076763453379,0.71275102240127,0.0520051272660685,0.0289324299578832,-0.698956235121773,-1.11,0.33,9.73
11.1475868,180,180,2.254,0,0,88.875,-4.44755917964864,5.07487670722385,0.712873100164805,0.0506012329854117,0.029359702130257,-0.698956235121773,-1.1,0.3,9.73
11.2457238,180,180,2.4108,0,0,88.625,-3.58208608739927,5.00514452962755,0.714154916681926,0.0440090337545016,0.0315571018738937,-0.69797961301349,-1.03,0.17,9.75
11.2648472,180,180,2.4108,0,0,88.625,-3.3860087165957,5.02996719384311,0.714215955563694,0.0425441005920772,0.0319843740462675,-0.69797961301349,-1.03,0.15,9.75
11.283648,180,180,2.4108,0,0,88.625,-3.24627229061164,5.02773532171365,0.7145821888543,0.041018128547885,0.0325337239821766,-0.697674418604651,-1.01,0.12,9.75
11.3817229,180,180,2.8616,0,0,88.25,-2.38079919836228,4.95800314411735,0.716718549716169,0.0335713849722273,0.0349752792528841,-0.695721174388085,-0.94,0,9.76
11.3997602,180,180,2.8616,0,0,88.25,-2.18472182755871,4.98282580833291,0.716779588597937,0.0321064518098028,0.0354635903070256,-0.695721174388085,-0.93,-0.03,9.76
11.4157068,180,180,2.8616,0,0,88.25,-2.12838088273919,5.00988034467794,0.716840627479705,0.0307025575291461,0.0358908624793994,-0.695721174388085,-0.92,-0.05,9.76
11.5125259,180,180,3.1164,0,0,87.8125,-1.34630327165437,4.96943457555613,0.71958737715925,0.0248428248794482,0.0378441066959653,-0.693035463590307,-0.87,-0.16,9.76
11.530663,180,180,3.1164,0,0,87.4375,-1.20656684567031,4.96720270342667,0.721906854666422,0.0235610083623268,0.0382713788683391,-0.6905939083196,-0.86,-0.18,9.76
11.546624,180,180,3.1164,0,0,87.4375,-1.06683041968625,4.9649708312972,0.72196789354819,0.0225233473722761,0.0385765732771776,-0.6905939083196,-0.85,-0.2,9.76
11.6446112,180,180,3.3614,0,0,87.4375,-0.647621141734083,4.95827521490881,0.72196789354819,0.0186168589391442,0.0397363120307636,-0.690654947201367,-0.81,-0.27,9.76
11.6648174,180,180,3.577,0,0,87.4375,-0.591280196914568,4.98532975125384,0.72196789354819,0.0182506256485381,0.039858389794299,-0.690654947201367,-0.81,-0.28,9.76
11.682934,180,180,3.577,0,0,87.4375,-0.564225660569542,4.92898880643433,0.72196789354819,0.0182506256485381,0.039858389794299,-0.690654947201367,-0.8,-0.28,9.76
11.7836609,180,180,3.7534,0,0,86.625,-0.424489234585485,4.92675693430486,0.729048403833242,0.0165415369590429,0.0403467008484405,-0.683147164743942,-0.79,-0.3,9.76
11.8027544,180,180,3.7534,0,0,86.25,-0.424489234585485,4.92675693430486,0.729048403833242,0.0166025758408106,0.0402856619666728,-0.683147164743942,-0.79,-0.3,9.76
11.8187158,180,180,3.7534,0,0,86.25,-0.424489234585485,4.92675693430486,0.729048403833242,0.0167856924861137,0.0402246230849051,-0.683147164743942,-0.8,-0.29,9.76
11.9166631,180,180,3.871,0,0,86.125,-0.760303031373114,4.90416614221876,0.729658792650919,0.0191662088750534,0.0394921565036929,-0.682536775926265,-0.82,-0.25,9.76
11.9348742,180,180,3.871,0,0,86.0625,-0.78735756771814,4.96050708703828,0.73014710370506,0.0194714032838918,0.0393700787401575,-0.681926387108588,-0.82,-0.24,9.76
11.9517358,180,180,3.9298,0,0,86.0625,-0.843698512537655,4.93345255069325,0.73014710370506,0.019837636574498,0.0392480009766221,-0.681926387108588,-0.83,-0.22,9.76
12.069636,180,180,3.92,0,0,86.0625,-1.59872158727745,4.91755737499554,0.73014710370506,0.026246719160105,0.0370506012329854,-0.68186534822682,-0.88,-0.12,9.76
12.0901114,180,180,3.92,0,0,86.0625,-1.65506253209697,4.89050283865052,0.730086064823292,0.0267960690960142,0.0368674845876824,-0.681926387108588,-0.89,-0.09,9.76
12.1068305,180,180,3.92,0,0,86.0625,-1.79479895808103,4.89273471077998,0.730086064823292,0.0280168467313679,0.0364402124153086,-0.681926387108588,-0.9,-0.07,9.76
12.2307317,180,180,3.7142,0,0,86.3125,-2.77295393996942,4.90835781568623,0.728499053897333,0.0364402124153086,0.033632423853995,-0.683330281389245,-0.96,0.06,9.75
12.2498801,180,180,3.7142,0,0,86.3125,-2.85634942113396,4.93764422416072,0.728499053897333,0.0371116401147531,0.0334493072086919,-0.683330281389245,-0.98,0.1,9.75
12.2717641,180,180,3.7142,0,0,86.3125,-3.13582227310208,4.94210796841964,0.728376976133797,0.0391259232130867,0.0327778795092474,-0.683330281389245,-0.99,0.11,9.75
12.3717574,180,180,3.528,0,0,86.8125,-3.97424082900642,4.95549920119642,0.725263993163645,0.0464505890252091,0.0304584020020753,-0.686321186595862,-1.05,0.25,9.74
12.3906343,180,180,3.528,0,0,87.0625,-4.17031819980999,4.93067653698086,0.72355490447415,0.0479765610694012,0.0298480131843985,-0.688091314167124,-1.07,0.27,9.74
12.4121236,180,180,3.3124,0,0,87.125,-4.31005462579404,4.93290840911033,0.723493865592382,0.049380455350058,0.0294207410120247,-0.688030275285357,-1.08,0.3,9.74
12.5366672,180,180,3.0772,0,0,87.3125,-5.37160508884698,4.97781792249106,0.721784776902887,0.0581700543246048,0.0266739913324788,-0.689251052920711,-1.16,0.46,9.72
12.5548582,180,180,3.0772,0,0,87.3125,-5.51134151483104,4.98004979462052,0.721723738021119,0.0593297930781908,0.0263077580418727,-0.689190014038943,-1.17,0.48,9.72
12.5716598,180,180,3.0772,0,0,87.3125,-5.56768245965055,4.9529952582755,0.721723738021119,0.0598791430141,0.0261246413965696,-0.689190014038943,-1.17,0.49,9.72
12.6696959,180,180,2.8322,0,0,88,-6.12662816358678,4.96192274679335,0.717634132942685,0.0646401757919795,0.024293474943539,-0.693035463590307,-1.22,0.57,9.71
12.6887446,180,180,2.6068,0,0,88.1875,-6.18296910840629,4.93486821044833,0.716291277543795,0.0653726423731917,0.0239272416529329,-0.694378318989196,-1.22,0.59,9.71
12.7047469,180,180,2.6068,0,0,88.1875,-6.26636458957084,4.96415461892282,0.716291277543795,0.0658609534273332,0.0238051638893975,-0.694378318989196,-1.23,0.6,9.71
12.8027304,180,180,2.4206,0,0,88.1875,-6.48949649671943,4.99567289952677,0.716291277543795,0.067447964353293,0.0235610083623268,-0.694195202343893,-1.24,0.62,9.7
12.8227398,180,180,2.4206,0,0,88.6875,-6.43315555189992,5.0227274358718,0.713178294573643,0.0675090032350607,0.0233168528352561,-0.69743026307758,-1.24,0.62,9.7
12.8388241,180,180,2.4206,0,0,88.6875,-6.43315555189992,5.0227274358718,0.713178294573643,0.067447964353293,0.0233778917170237,-0.69743026307758,-1.24,0.62,9.7
12.9576573,180,180,2.2834,0,0,89.375,-6.1536826999318,5.01826369161287,0.709210767258744,0.0649453702008179,0.0239882805347006,-0.701641945919551,-1.22,0.57,9.71
12.9778474,180,180,2.205,0,0,89.375,-6.07028721876726,4.98897728313838,0.707928950741622,0.0642739425013734,0.0241713971800037,-0.70298480131844,-1.22,0.55,9.71
12.9999134,180,180,2.205,0,0,89.5625,-5.93055079278321,4.98674541100892,0.708051028505158,0.0634193981566258,0.0244765915888421,-0.70298480131844,-1.21,0.54,9.71
13.1117619,180,180,2.205,0,0,89.5,-5.25892319920795,5.03192699518111,0.708539339559299,0.0570713544527864,0.0267350302142465,-0.70298480131844,-1.15,0.42,9.72
13.1307835,180,180,2.205,0,0,89.5625,-5.03579129205935,5.00040871457716,0.708417261795764,0.0564609656351096,0.0269181468595495,-0.703106879081975,-1.14,0.4,9.73
13.1467196,180,180,2.205,0,0,89.5625,-4.97945034723984,5.02746325092219,0.708478300677532,0.0551791491179882,0.0273454190319233,-0.703106879081975,-1.14,0.38,9.73
13.2446333,180,180,2.2736,0,0,89.5625,-4.22442727250004,5.04335842661989,0.708661417322835,0.0494414942318257,0.0292986632484893,-0.703289995727278,-1.08,0.28,9.74
13.2626728,180,180,2.401,0,0,89.5,-4.05763631017096,4.98478560967092,0.708722456204602,0.0480986388329366,0.0297869743026308,-0.703289995727278,-1.07,0.24,9.74
13.2788914,180,180,2.401,0,0,89.5,-3.86155893936738,5.00960827388648,0.70878349508637,0.0467557834340475,0.0302142464750046,-0.703289995727278,-1.06,0.23,9.74
13.3767387,180,180,2.5872,0,0,89.5,-3.10653586462759,5.02550344958418,0.709149728376976,0.040041506439602,0.032655801745712,-0.703228956845511,-1,0.1,9.75
13.3969085,180,180,2.5872,0,0,89.5,-2.91045849382401,5.05032611379975,0.709210767258744,0.0386986510407129,0.0331441127998535,-0.703228956845511,-0.99,0.08,9.75
13.4127687,180,180,2.5872,0,0,89.5,-2.82706301265947,5.02103970532526,0.709210767258744,0.0380272233412684,0.0333882683269243,-0.703228956845511,-0.98,0.05,9.75
13.5106598,180,180,2.8028,0,0,89.4375,-2.07203993791967,5.03693488102297,0.709454922785815,0.0315571018738937,0.0357077458340963,-0.703228956845511,-0.93,-0.05,9.76
13.5297664,180,180,3.038,0,0,89.125,-1.93230351193562,5.0347030088935,0.711591283647684,0.0302752853567723,0.0361960568882378,-0.701092595983642,-0.92,-0.07,9.76
13.5468203,180,180,3.038,0,0,89.125,-1.79256708595156,5.03247113676404,0.711652322529451,0.0291155466031862,0.0366233290606116,-0.701092595983642,-0.91,-0.09,9.76
13.6456781,180,180,3.2732,0,0,89.125,-1.23362138201534,5.02354364824618,0.711713361411219,0.0241713971800037,0.0383324177501068,-0.701092595983642,-0.86,-0.19,9.76
13.6647859,180,180,3.2732,0,0,89.125,-1.09388495603128,5.02131177611672,0.711713361411219,0.0233778917170237,0.0386376121589452,-0.701092595983642,-0.86,-0.2,9.76
13.6809109,180,180,3.2732,0,0,88.75,-1.01048947486674,4.99202536764223,0.71378868339132,0.0225233473722761,0.0389428065677837,-0.698956235121773,-0.85,-0.21,9.76
13.7776754,180,180,3.479,0,0,88.375,-0.75807115924365,5.04390256820282,0.71934322163218,0.020020753219801,0.039858389794299,-0.693340657999145,-0.83,-0.25,9.76
13.7967758,180,180,3.479,0,0,87.875,-0.731016622898624,4.9875616233833,0.71934322163218,0.0196545199291949,0.0399804675578343,-0.693340657999145,-0.83,-0.26,9.76
13.812685,180,180,3.6554,0,0,87.875,-0.674675678079109,5.01461615972833,0.71934322163218,0.0194714032838918,0.0399804675578343,-0.693340657999145,-0.82,-0.26,9.76
13.9107848,180,180,3.7828,0,0,87.375,-0.731016622898624,4.9875616233833,0.722456204602332,0.0196545199291949,0.0397973509125313,-0.690105597265458,-0.82,-0.26,9.76
13.9297785,180,180,3.7828,0,0,87.375,-0.731016622898624,4.9875616233833,0.724531526582433,0.0198986754562656,0.0397363120307636,-0.687908197521821,-0.83,-0.25,9.76
13.9457824,180,180,3.7828,0,0,87,-0.814412104063166,5.01684803185779,0.724531526582433,0.0200817921015687,0.0396752731489959,-0.687908197521821,-0.83,-0.24,9.76
14.0477078,180,180,3.8612,0,0,86.9375,-1.20656684567031,4.96720270342667,0.724958798754807,0.0232558139534884,0.0386376121589452,-0.68741988646768,-0.86,-0.18,9.76
14.0687087,180,180,3.8612,0,0,86.9375,-1.28996232683485,4.99648911190116,0.724958798754807,0.024110358298236,0.0383324177501068,-0.68741988646768,-0.87,-0.17,9.76
14.0847228,180,180,3.8612,0,0,86.8125,-1.42969875281891,4.99872098403062,0.725447109808948,0.0249649026429836,0.0380882622230361,-0.686870536531771,-0.87,-0.15,9.76
14.1856915,180,180,3.8122,0,0,86.875,-2.04498540157465,4.98059393620345,0.72514191540011,0.0302142464750046,0.0362570957700055,-0.687053653177074,-0.92,-0.05,9.76
14.2048629,180,180,3.8122,0,0,86.875,-2.18472182755871,4.98282580833291,0.725080876518342,0.0313739852285906,0.0358908624793994,-0.687114692058841,-0.93,-0.03,9.76
14.2208721,180,180,3.8122,0,0,86.875,-2.24106277237822,4.95577127198789,0.725080876518342,0.0319233351644998,0.0356467069523286,-0.687114692058841,-0.93,-0.02,9.76
14.3217766,180,180,3.7044,0,0,87,-2.9397449022985,4.96693063263521,0.724165293291827,0.0379661844595007,0.0335103460904596,-0.687847158640054,-0.99,0.09,9.75
14.3410388,180,180,3.7044,0,0,87.1875,-3.07948132828256,4.96916250476467,0.723249710065312,0.0392480009766221,0.0330220350363181,-0.688762741866569,-0.99,0.11,9.75
14.3576261,180,180,3.7044,0,0,87.1875,-3.21921775426662,4.97139437689413,0.723188671183544,0.0405298174937435,0.0325337239821766,-0.688762741866569,-1,0.13,9.75
14.4556956,180,180,3.5476,0,0,87.375,-4.03058177382593,4.9284446648514,0.721723738021119,0.0471220167246536,0.0303363242385399,-0.689983519501923,-1.06,0.25,9.74
14.4746503,180,180,3.3516,0,0,87.5,-4.17031819980999,4.93067653698086,0.720930232558139,0.0484648721235427,0.0298480131843985,-0.690715986083135,-1.07,0.28,9.74
14.4927041,180,180,3.3516,0,0,87.5,-4.25371368097453,4.95996294545535,0.720869193676372,0.0497466886406641,0.0294207410120247,-0.690715986083135,-1.08,0.29,9.74
14.5908331,180,180,3.136,0,0,88.125,-5.09213223687887,4.97335417823213,0.717023744125008,0.0560947323445034,0.0270402246230849,-0.694317280107428,-1.14,0.42,9.73
14.6109797,180,180,3.136,0,0,88.125,-5.14847318169838,4.94629964188711,0.71696270524324,0.0572544710980895,0.0266739913324788,-0.694317280107428,-1.15,0.44,9.72
14.6310884,180,180,3.136,0,0,88.3125,-5.28820960768244,4.94853151401657,0.715864005371422,0.0583531709699078,0.026246719160105,-0.695415979979247,-1.16,0.46,9.72
14.7488282,180,180,2.695,0,0,88.9375,-5.90349625643818,4.9304044661894,0.711835439174754,0.063175242629555,0.0242324360617713,-0.699200390648843,-1.2,0.55,9.71
14.7680478,180,180,2.695,0,0,88.9375,-5.98689173760272,4.95969087466389,0.710004272721724,0.0640297869743026,0.0238051638893975,-0.700970518220106,-1.21,0.56,9.71
14.7840869,180,180,2.695,0,0,89.25,-6.04323268242224,4.93263633831886,0.710004272721724,0.0642739425013734,0.0237441250076299,-0.700970518220106,-1.21,0.56,9.71
14.8846907,180,180,2.5088,0,0,89.625,-6.18296910840629,4.93486821044833,0.707440639687481,0.0656778367820302,0.0230726973081853,-0.703473112372581,-1.22,0.59,9.71
14.9027765,180,180,2.5088,0,0,89.625,-6.18296910840629,4.93486821044833,0.707440639687481,0.0656778367820302,0.0230726973081853,-0.703412073490814,-1.22,0.59,9.71
14.918703,180,180,2.5088,0,0,89.75,-6.18296910840629,4.93486821044833,0.706708173106269,0.0655557590184948,0.0230116584264176,-0.704205578953794,-1.22,0.59,9.71
15.020623,180,180,2.2736,0,0,90.125,-5.9598372012577,4.90334992984437,0.704693890007935,0.0635414759201611,0.0234999694805591,-0.706341939815663,-1.2,0.55,9.71
15.0398114,180,180,2.2736,0,0,90.125,-5.90349625643818,4.9304044661894,0.704754928889703,0.0629310871024843,0.0236830861258622,-0.706341939815663,-1.19,0.54,9.71
15.0567446,180,180,2.2736,0,0,90.125,-5.84715531161867,4.95745900253443,0.70481596777147,0.062198620521272,0.0239272416529329,-0.706341939815663,-1.19,0.52,9.71
15.1728319,180,180,2.254,0,0,90.4375,-5.14847318169838,4.94629964188711,0.702923762436672,0.0570713544527864,0.0255142525788928,-0.708600378441067,-1.14,0.43,9.72
15.1930025,180,180,2.254,0,0,90.4375,-5.00873675571433,4.94406776975764,0.70298480131844,0.0559726545809681,0.0258804858694989,-0.708600378441067,-1.13,0.41,9.73
15.208801,180,180,2.2932,0,0,90.4375,-4.86900032973027,4.94183589762818,0.703106879081975,0.054812915827382,0.026246719160105,-0.708600378441067,-1.12,0.39,9.73
15.3088832,180,180,2.401,0,0,90.3125,-4.17031819980999,4.93067653698086,0.70377830678142,0.0487700665323811,0.0282610022584386,-0.708234145150461,-1.06,0.28,9.74
15.3277623,180,180,2.401,0,0,90.3125,-4.00352723748091,4.87210372003188,0.704083501190258,0.0475492888970274,0.0286882744308124,-0.70798998962339,-1.05,0.25,9.74
15.343669,180,180,2.401,0,0,90.3125,-3.94718629266139,4.89915825637691,0.704144540072026,0.0469389000793505,0.0289324299578832,-0.70798998962339,-1.05,0.24,9.74
15.3588665,180,180,2.401,0,0,90.25,-3.80744986667733,4.89692638424745,0.704205578953794,0.0456570835622291,0.029359702130257,-0.70798998962339,-1.03,0.22,9.74
15.4768073,180,180,2.5578,0,0,90,-2.96903131077299,4.88353515147066,0.706097784288592,0.0388207288042483,0.0318622962827321,-0.706464017579198,-0.97,0.09,9.75
15.4957975,180,180,2.7538,0,0,90,-2.85634942113396,4.93764422416072,0.706158823170359,0.0369895623512177,0.0325947628639443,-0.706464017579198,-0.96,0.06,9.75
15.5108023,180,180,2.7538,0,0,90,-2.63321751398536,4.90612594355676,0.706158823170359,0.0363791735335409,0.0327778795092474,-0.70640297869743,-0.95,0.04,9.75
15.5259242,180,180,2.7538,0,0,90,-2.57687656916585,4.93318047990179,0.706219862052127,0.035768784715864,0.0330220350363181,-0.70640297869743,-0.95,0.03,9.76
15.6268402,180,180,2.9792,0,0,90,-1.93453538406508,4.89496658290945,0.706341939815663,0.0301532075932369,0.0350973570164195,-0.70640297869743,-0.9,-0.06,9.76
15.6457513,180,180,2.9792,0,0,90,-1.87819443924557,4.92202111925447,0.70640297869743,0.0286882744308124,0.0356467069523286,-0.70640297869743,-0.89,-0.09,9.76
15.6619619,180,180,2.9792,0,0,90,-1.73845801326151,4.91978924712501,0.70640297869743,0.0281999633766709,0.0358298235976317,-0.70640297869743,-0.88,-0.1,9.76
15.7608451,180,180,3.1948,0,0,89.9375,-1.2358532541448,4.88380722226213,0.706464017579198,0.0242324360617713,0.0372947567600562,-0.706464017579198,-0.85,-0.18,9.76
15.7797636,180,180,3.4006,0,0,89.9375,-1.17951230932528,4.91086175860715,0.706464017579198,0.0239882805347006,0.0374168345235915,-0.706464017579198,-0.84,-0.19,9.76
15.7960054,180,180,3.4006,0,0,89.9375,-1.12317136450577,4.93791629495218,0.706464017579198,0.0232558139534884,0.0377830678141976,-0.706464017579198,-0.84,-0.2,9.76
15.9098949,180,180,3.577,0,0,90,-0.927093993702196,4.96273895916774,0.70640297869743,0.0218519196728316,0.0383934566318745,-0.706525056460966,-0.83,-0.22,9.76
15.9288909,180,180,3.577,0,0,90,-0.927093993702196,4.96273895916774,0.70640297869743,0.0217908807910639,0.0383934566318745,-0.706525056460966,-0.83,-0.22,9.76
15.9477819,180,180,3.577,0,0,90,-0.927093993702196,4.96273895916774,0.706341939815663,0.0219129585545993,0.0383934566318745,-0.706525056460966,-0.83,-0.22,9.76
16.0467633,180,180,3.7926,0,0,89.5,-1.06683041968625,4.9649708312972,0.709271806140512,0.0233168528352561,0.0379661844595007,-0.703595190136117,-0.84,-0.19,9.76
16.0637044,180,180,3.7926,0,0,89.5,-1.12317136450577,4.93791629495218,0.709271806140512,0.0235610083623268,0.037905145577733,-0.703656229017884,-0.85,-0.19,9.76
16.077943,180,180,3.7926,0,0,89.25,-1.20656684567031,4.96720270342667,0.710858817066471,0.0238051638893975,0.0378441066959653,-0.702008179210157,-0.85,-0.18,9.76
16.0927974,180,180,3.7926,0,0,89.25,-1.26290779048982,4.94014816708164,0.710797778184704,0.0244155527070744,0.0376609900506623,-0.702008179210157,-0.86,-0.17,9.76
16.2018488,180,180,3.8122,0,0,88.9375,-1.82185349442605,4.9490756555995,0.712873100164805,0.0287493133125801,0.0361960568882378,-0.69981077946652,-0.9,-0.09,9.76
16.2207509,180,180,3.8122,0,0,88.6875,-1.90524897559059,4.97836206407399,0.714215955563694,0.0296648965390954,0.0359519013611671,-0.698467924067631,-0.9,-0.07,9.76
16.2367314,180,180,3.7828,0,0,88.6875,-1.96158992041011,4.95130752772896,0.714154916681926,0.0306415186473784,0.0355856680705609,-0.698467924067631,-0.91,-0.05,9.76
16.3317926,180,180,3.6946,0,0,88.625,-2.57687656916585,4.93318047990179,0.714643227736068,0.0354635903070256,0.0339376182628334,-0.697857535249954,-0.96,0.04,9.75
16.3518686,180,180,3.6946,0,0,88.625,-2.71661299514991,4.93541235203125,0.7145821888543,0.0366233290606116,0.0335103460904596,-0.697857535249954,-0.97,0.05,9.75
16.3671615,180,180,3.6946,0,0,88.625,-2.80000847631445,4.96469876050574,0.714338033327229,0.0377830678141976,0.0330830739180858,-0.698101690777025,-0.98,0.07,9.75
16.4669059,180,180,3.5574,0,0,88.6875,-3.49869060623473,4.97585812115306,0.713910761154856,0.0430934505279863,0.0313129463468229,-0.698284807422328,-1.03,0.18,9.75
16.4857997,180,180,3.5574,0,0,88.9375,-3.6947679770383,4.9510354569375,0.712567905755967,0.0449246169810169,0.0305804797656107,-0.699566623939449,-1.04,0.2,9.74
16.5040399,180,180,3.5574,0,0,88.9375,-3.77816345820284,4.98032186541199,0.712506866874199,0.0461453946163706,0.0301532075932369,-0.699566623939449,-1.05,0.23,9.74
16.6157934,180,180,3.185,0,0,89.0625,-4.58952747776216,4.93737215336925,0.711652322529451,0.0521882439113715,0.0281999633766709,-0.700115973875359,-1.11,0.35,9.73
16.6350366,180,180,3.185,0,0,89.0625,-4.6729229589267,4.96665856184374,0.711530244765916,0.0538973326008668,0.0276506134407618,-0.700115973875359,-1.12,0.37,9.73
16.6548825,180,180,3.185,0,0,89.0625,-4.8960548660753,4.9981768424477,0.711530244765916,0.0549960324726851,0.0272843801501556,-0.700054934993591,-1.13,0.39,9.73
16.7510864,180,180,2.9694,0,0,89.0625,-5.45500057001152,5.00710433096555,0.711347128120613,0.0592687541964231,0.0258194469877312,-0.699993896111823,-1.17,0.48,9.72
16.7698073,180,180,2.9694,0,0,89.0625,-5.51134151483104,4.98004979462052,0.711286089238845,0.0596349874870292,0.0256363303424281,-0.699932857230055,-1.17,0.48,9.72
16.7837301,180,180,2.9694,0,0,89.375,-5.65107794081509,4.98228166674999,0.709149728376976,0.0609168040041506,0.025086980406519,-0.702008179210157,-1.18,0.5,9.72
16.798698,180,180,2.7636,0,0,89.375,-5.65107794081509,4.98228166674999,0.709149728376976,0.0612219984129891,0.0249649026429836,-0.702008179210157,-1.18,0.5,9.72
16.8987963,180,180,2.5774,0,0,89.8125,-5.93055079278321,4.98674541100892,0.706464017579198,0.0637245925654642,0.0240493194164683,-0.704510773362632,-1.21,0.55,9.71
16.9168921,180,180,2.5774,0,0,89.8125,-5.98689173760272,4.95969087466389,0.706464017579198,0.0639077092107673,0.0239882805347006,-0.704510773362632,-1.21,0.55,9.71
16.9317832,180,180,2.5774,0,0,89.9375,-6.01394627394775,5.0160318194834,0.705487395470915,0.064151864737838,0.0238662027711652,-0.705487395470915,-1.21,0.55,9.71
16.9458828,180,180,2.5774,0,0,89.9375,-6.01394627394775,5.0160318194834,0.705487395470915,0.0642129036196057,0.0238051638893975,-0.705487395470915,-1.21,0.55,9.71
17.044906,180,180,2.4304,0,0,90.3125,-5.93055079278321,4.98674541100892,0.703595190136117,0.0634804370383935,0.0238662027711652,-0.707440639687481,-1.2,0.54,9.71
17.0640614,180,180,2.4304,0,0,90.25,-5.93055079278321,4.98674541100892,0.703595190136117,0.0632973203930904,0.0239272416529329,-0.707440639687481,-1.2,0.54,9.71
17.0860166,180,180,2.3422,0,0,90.3125,-5.84715531161867,4.95745900253443,0.703595190136117,0.0625648538118782,0.0241713971800037,-0.707501678569249,-1.2,0.52,9.71
