Time (s),Setpoint (deg),Motor Position (deg),Tension 1 (N),Tension 2 (N),Tension 3 (N),Heading (deg),Pitch (deg),Roll (deg),Quaternion W,Quaternion X,Quaternion Y,Quaternion Z,Gravity X,Gravity Y,Gravity Z
0,0,0,0,0,0,0,0,0,0,0,0,0,0,0,0
0.019239,0,-0.45,0.9996,0,0,75.375,-0.620566605389057,4.9019342700893,0.790514557773302,0.0143441372154062,0.0412012451931881,-0.610999206494537,-0.81,-0.27,9.76
0.1462302,0,0,0.9702,0,0,75.0625,-0.564225660569542,4.92898880643433,0.791979490935726,0.013611670634194,0.0416895562473295,-0.609045962277971,-0.81,-0.28,9.76
0.1682548,0,0,0.9702,0,0,75.0625,-0.507884715750027,4.95604334277935,0.791979490935726,0.0134895928706586,0.0418116340108649,-0.609045962277971,-0.81,-0.28,9.76
0.1873676,0,0,0.9506,0,0,74.9375,-0.507884715750027,4.95604334277935,0.792956113044009,0.0133675151071232,0.0419337117744003,-0.60776414576085,-0.81,-0.29,9.76
0.2913418,0,0,0.9408,0,0,74.625,-0.451543770930511,4.98309787912438,0.794360007324666,0.0128792040529817,0.0422389061832387,-0.605932979307819,-0.81,-0.3,9.76
0.3153613,0,0,0.9408,0,0,74.625,-0.451543770930511,4.98309787912438,0.794360007324666,0.0128181651712141,0.0422389061832387,-0.605932979307819,-0.81,-0.3,9.76
0.3322649,0,0,0.9408,0,0,74.3125,-0.451543770930511,4.98309787912438,0.796191173777696,0.0125129707623756,0.0423609839467741,-0.603491424037112,-0.8,-0.3,9.76
0.4310773,0,0,0.9604,0,0,74.1875,-0.311807344946454,4.98086600699491,0.797656106940121,0.0111090764817189,0.0426051394738448,-0.601599218702313,-0.79,-0.32,9.76
0.4502341,0,0,0.9604,0,0,74,-0.255466400126939,5.00792054333994,0.797656106940121,0.0108649209546481,0.0426661783556125,-0.601599218702313,-0.79,-0.33,9.76
0.4663114,0,0,0.9898,0,0,74,-0.255466400126939,5.00792054333994,0.797656106940121,0.0106818043093451,0.0427272172373802,-0.601599218702313,-0.79,-0.33,9.76
0.5710641,0,0,1.029,0,0,73.75,-0.115729974142883,5.00568867121047,0.799060001220778,0.00921687114692059,0.0429103338826833,-0.599768052249283,-0.78,-0.36,9.76
0.589264,0,0,1.029,0,0,73.75,-0.115729974142883,5.00568867121047,0.799182078984313,0.00897271561984984,0.042971372764451,-0.599523896722212,-0.77,-0.36,9.76
0.6074497,0,0,1.029,0,0,73.75,-0.0323344929783413,4.97640226273599,0.799182078984313,0.00885063785631447,0.042971372764451,-0.59958493560398,-0.77,-0.36,9.76
0.7371791,0,0,1.0682,0,0,73.4375,0.0510609881861999,4.9471158542615,0.800830128792041,0.00799609351156687,0.042971372764451,-0.597387535860343,-0.76,-0.37,9.76
0.7596086,0,0,1.0878,0,0,73.4375,0.0510609881861999,4.9471158542615,0.800830128792041,0.00799609351156687,0.042971372764451,-0.597448574742111,-0.76,-0.37,9.76
0.8842649,0,0,1.1074,0,0,73.0625,-0.0323344929783413,4.97640226273599,0.802478178599768,0.00817921015686993,0.042971372764451,-0.595129097234939,-0.77,-0.37,9.76
0.9043045,0,0,1.1074,0,0,73.0625,-0.0323344929783413,4.97640226273599,0.802478178599768,0.0083012879204053,0.042971372764451,-0.595129097234939,-0.77,-0.37,9.76
0.9213213,0,0,1.1074,0,0,73.0625,-0.0323344929783413,4.97640226273599,0.802478178599768,0.00842336568394067,0.042971372764451,-0.595190136116706,-0.77,-0.36,9.76
1.0263229,0,0,1.1172,0,0,73.125,-0.115729974142883,5.00568867121047,0.802417139718,0.0091558322651529,0.0427882561191479,-0.595312213880242,-0.78,-0.35,9.76
1.0583648,0,0,1.1172,0,0,73.125,-0.172070918962398,4.97863413486545,0.802356100836233,0.00933894891045596,0.0427272172373802,-0.595312213880242,-0.78,-0.34,9.76
1.1653407,0,0,1.1074,0,0,73.125,-0.228411863781913,4.95157959852042,0.802295061954465,0.0104376487822743,0.0424830617103095,-0.595373252762009,-0.78,-0.33,9.76
1.1855594,0,0,1.1074,0,0,73.125,-0.311807344946454,4.98086600699491,0.802295061954465,0.0106207654275774,0.0424220228285418,-0.595434291643777,-0.79,-0.32,9.76
1.2021993,0,0,1.1074,0,0,73.125,-0.311807344946454,4.98086600699491,0.802295061954465,0.0108649209546481,0.0423609839467741,-0.595434291643777,-0.79,-0.32,9.76
1.299536,0,0,1.0976,0,0,73.125,-0.451543770930511,4.98309787912438,0.802234023072697,0.0120246597082341,0.0420557895379357,-0.595495330525545,-0.8,-0.3,9.76
1.3193281,0,0,1.0682,0,0,73.125,-0.451543770930511,4.98309787912438,0.802234023072697,0.0122077763535372,0.0420557895379357,-0.595495330525545,-0.8,-0.29,9.76
1.3363616,0,0,1.0682,0,0,73.125,-0.507884715750027,4.95604334277935,0.802234023072697,0.0123298541170726,0.0420557895379357,-0.595495330525545,-0.8,-0.29,9.76
1.4365552,0,0,1.0388,0,0,73.125,-0.647621141734083,4.95827521490881,0.80217298419093,0.0134285539888909,0.0417505951290972,-0.595556369407312,-0.81,-0.27,9.76
1.4553925,0,0,1.0388,0,0,73.125,-0.647621141734083,4.95827521490881,0.80217298419093,0.013611670634194,0.0417505951290972,-0.595556369407312,-0.81,-0.27,9.76
1.4894606,0,0,1.0094,0,0,73.125,-0.647621141734083,4.95827521490881,0.80217298419093,0.0138558261612647,0.0416285173655619,-0.59561740828908,-0.81,-0.26,9.76
1.5892149,0,0,0.9702,0,0,73.1875,-0.703962086553598,4.93122067856379,0.80217298419093,0.0143441372154062,0.0412012451931881,-0.59561740828908,-0.81,-0.25,9.76
1.6103229,0,0,0.9702,0,0,73.1875,-0.760303031373114,4.90416614221876,0.802111945309162,0.0144051760971739,0.0411402063114204,-0.59561740828908,-0.81,-0.25,9.76
1.6273506,0,0,0.9702,0,0,73.1875,-0.760303031373114,4.90416614221876,0.802111945309162,0.0144051760971739,0.0411402063114204,-0.595678447170848,-0.81,-0.25,9.76
1.7252732,0,0,0.9408,0,0,73.1875,-0.760303031373114,4.90416614221876,0.802111945309162,0.0144051760971739,0.0410791674296527,-0.595678447170848,-0.81,-0.25,9.76
1.7442046,0,0,0.9408,0,0,73.1875,-0.760303031373114,4.90416614221876,0.802111945309162,0.0144051760971739,0.0410791674296527,-0.595678447170848,-0.81,-0.25,9.76
1.7623986,0,0,0.9408,0,0,73.1875,-0.760303031373114,4.90416614221876,0.802111945309162,0.0144051760971739,0.0410791674296527,-0.595678447170848,-0.81,-0.25,9.76
1.8651285,0,0,0.8918,0,0,73.1875,-0.760303031373114,4.90416614221876,0.802111945309162,0.0144051760971739,0.0410791674296527,-0.595678447170848,-0.81,-0.25,9.76
1.88323,0,0,0.8918,0,0,73.1875,-0.760303031373114,4.90416614221876,0.802111945309162,0.0144051760971739,0.0410791674296527,-0.595678447170848,-0.81,-0.25,9.76
1.8983321,0,0,0.8918,0,0,73.1875,-0.760303031373114,4.90416614221876,0.802111945309162,0.0144051760971739,0.0410791674296527,-0.595678447170848,-0.81,-0.25,9.76
1.9993463,0,0,0.882,0,0,73.1875,-0.760303031373114,4.90416614221876,0.802111945309162,0.0144051760971739,0.0410791674296527,-0.595678447170848,-0.81,-0.25,9.76
2.018314,0,0,0.882,0,0,73.1875,-0.760303031373114,4.90416614221876,0.802111945309162,0.0144051760971739,0.0410791674296527,-0.595678447170848,-0.81,-0.25,9.76
2.0342745,0,0,0.882,0,0,73.1875,-0.760303031373114,4.90416614221876,0.802111945309162,0.0144051760971739,0.0410791674296527,-0.595678447170848,-0.81,-0.25,9.76
2.1323525,0,0,0.882,0,0,73.1875,-0.703962086553598,4.93122067856379,0.802111945309162,0.0142220594518708,0.0412622840749557,-0.59561740828908,-0.81,-0.25,9.76
2.1514343,0,0,0.882,0,0,73.1875,-0.703962086553598,4.93122067856379,0.80217298419093,0.0140389428065678,0.0413233229567234,-0.59561740828908,-0.81,-0.26,9.76
2.2723806,0,0,0.8918,0,0,73.1875,-0.647621141734083,4.95827521490881,0.80217298419093,0.0134285539888909,0.0418116340108649,-0.59561740828908,-0.81,-0.27,9.76
2.2931746,0,0,0.8918,0,0,73.1875,-0.591280196914568,4.98532975125384,0.80217298419093,0.0133675151071232,0.0418726728926326,-0.59561740828908,-0.81,-0.27,9.76
2.3086276,0,0,0.8918,0,0,73.125,-0.591280196914568,4.98532975125384,0.80217298419093,0.0132454373435879,0.0419337117744003,-0.59561740828908,-0.81,-0.28,9.76
2.4292183,0,0,0.9408,0,0,73.125,-0.534939252095052,5.01238428759887,0.80217298419093,0.0130012818165171,0.0421168284197034,-0.595556369407312,-0.81,-0.28,9.76
2.4516492,0,0,0.9408,0,0,73.125,-0.534939252095052,5.01238428759887,0.80217298419093,0.0129402429347494,0.042177867301471,-0.595556369407312,-0.81,-0.29,9.76
2.5724509,0,0,0.9702,0,0,73.1875,-0.311807344946454,4.98086600699491,0.802111945309162,0.0111090764817189,0.0424830617103095,-0.59561740828908,-0.79,-0.32,9.76
2.5915769,0,0,0.9702,0,0,73.1875,-0.311807344946454,4.98086600699491,0.802111945309162,0.0108649209546481,0.0425441005920772,-0.595678447170848,-0.79,-0.32,9.76
2.6191713,0,0,1.0094,0,0,73.1875,-0.255466400126939,5.00792054333994,0.802111945309162,0.0104376487822743,0.0426051394738448,-0.595678447170848,-0.79,-0.33,9.76
2.7174196,0,0,1.0388,0,0,73.1875,-0.115729974142883,5.00568867121047,0.802050906427394,0.00921687114692059,0.0427882561191479,-0.595739486052616,-0.78,-0.35,9.76
2.737248,0,0,1.0388,0,0,73.1875,-0.0886754377978567,4.94934772639096,0.802050906427394,0.00897271561984984,0.0428492950009156,-0.595739486052616,-0.77,-0.35,9.76
2.7544301,0,0,1.0388,0,0,73.1875,-0.0886754377978567,4.94934772639096,0.802050906427394,0.00878959897454679,0.0428492950009156,-0.595739486052616,-0.77,-0.36,9.76
2.8533357,0,0,1.0682,0,0,73.1875,-0.0323344929783413,4.97640226273599,0.802050906427394,0.0083012879204053,0.0428492950009156,-0.595800524934383,-0.77,-0.37,9.76
2.871576,0,0,1.0682,0,0,73.1875,-0.00527995663331549,4.92006131791647,0.801989867545627,0.00817921015686993,0.0427882561191479,-0.595800524934383,-0.76,-0.37,9.76
2.8885915,0,0,1.0878,0,0,73.1875,-0.00527995663331549,4.92006131791647,0.801989867545627,0.00811817127510224,0.0427272172373802,-0.595800524934383,-0.76,-0.37,9.76
2.9863701,0,0,1.1074,0,0,73.1875,-0.00527995663331549,4.92006131791647,0.801928828663859,0.0083012879204053,0.0427272172373802,-0.595922602697919,-0.76,-0.36,9.76
3.005317,0,0,1.1074,0,0,73.1875,-0.00527995663331549,4.92006131791647,0.801928828663859,0.00824024903863761,0.0426661783556125,-0.595922602697919,-0.76,-0.36,9.76
3.0218363,180,0,1.1074,0,0,73.1875,-0.00527995663331549,4.92006131791647,0.801928828663859,0.00824024903863761,0.0426051394738448,-0.595922602697919,-0.76,-0.36,9.76
3.1523902,180,30.15,1.1172,0,0,73.1875,-0.0616209014528308,4.89300678157144,0.801867789782091,0.00860648232924373,0.0422999450650064,-0.595983641579686,-0.76,-0.35,9.77
3.1723457,180,40.05,1.1172,0,0,73.1875,-0.0616209014528308,4.89300678157144,0.801867789782091,0.00878959897454679,0.0422999450650064,-0.596044680461454,-0.76,-0.35,9.77
3.1903872,180,49.5,1.1172,0,0,73.1875,-0.0616209014528308,4.89300678157144,0.801867789782091,0.00878959897454679,0.0422389061832387,-0.596044680461454,-0.76,-0.35,9.77
3.3013827,180,124.2,1.1662,0,0,73.25,-0.145016382617372,4.92229319004593,0.801745712018556,0.00921687114692059,0.0422999450650064,-0.596227797106757,-0.77,-0.34,9.76
3.3214005,180,135.45,1.1662,0,0,73.25,-0.145016382617372,4.92229319004593,0.801684673136788,0.00921687114692059,0.0422389061832387,-0.596288835988525,-0.77,-0.34,9.76
3.3386429,180,144.45,1.1662,0,0,73.25,-0.145016382617372,4.92229319004593,0.801684673136788,0.00921687114692059,0.0422389061832387,-0.596288835988525,-0.77,-0.34,9.77
3.4686014,180,179.55,1.813,0,0,73.3125,-0.257698272256403,4.86818411735588,0.801318439846182,0.0102545321369713,0.0418726728926326,-0.596777147042666,-0.77,-0.32,9.77
3.4892998,180,180,1.813,0,0,73.3125,-0.257698272256403,4.86818411735588,0.801318439846182,0.0107428431911127,0.0417505951290972,-0.596838185924434,-0.78,-0.31,9.77
3.5063535,180,180,1.813,0,0,73.3125,-0.397434698240459,4.87041598948535,0.801257400964414,0.011475309772325,0.0415674784837942,-0.596899224806202,-0.78,-0.3,9.77
3.6061825,180,180,2.4892,0,0,73.375,-0.927093993702196,4.96273895916774,0.800952206555576,0.0168467313678813,0.0409570896661173,-0.59720441921504,-0.84,-0.21,9.76
3.6255338,180,180,2.4892,0,0,73.375,-1.06683041968625,4.9649708312972,0.800891167673808,0.0175791979490936,0.0408960507843496,-0.59720441921504,-0.85,-0.18,9.76
3.64227,180,180,3.1948,0,0,73.375,-1.26290779048982,4.94014816708164,0.800830128792041,0.0191662088750534,0.0405908563755112,-0.597326496978575,-0.86,-0.17,9.76
3.7403126,180,180,3.7142,0,0,73.4375,-2.32445825354276,4.98505768046238,0.800463895501434,0.028383080021974,0.039064884331319,-0.597509613623878,-0.94,-0.01,9.76
3.7607049,180,180,3.7142,0,0,73.4375,-2.54759016069136,5.01657596106633,0.800402856619667,0.0304584020020753,0.0386986510407129,-0.597509613623878,-0.96,0.02,9.75
3.7784155,180,180,3.7142,0,0,73.4375,-2.74366753149493,4.99175329685077,0.800341817737899,0.0325947628639443,0.0382713788683391,-0.597570652505646,-0.98,0.06,9.75
3.8733466,180,180,3.9004,0,0,73.5,-3.80521799454787,5.0366628102315,0.799975584447293,0.0426661783556125,0.0365622901788439,-0.597509613623878,-1.07,0.24,9.74
3.8923481,180,180,3.9004,0,0,73.5,-4.08469084651598,5.04112655449043,0.799914545565525,0.0437038393456632,0.0363791735335409,-0.597509613623878,-1.09,0.27,9.74
3.9083021,180,180,3.9004,0,0,73.5,-4.3641636984841,5.04559029874936,0.79979246780199,0.0458402002075322,0.0359519013611671,-0.597570652505646,-1.1,0.29,9.74
4.0044403,180,180,3.7828,0,0,73.5,-5.48205510635655,5.06344527578507,0.799243117866081,0.0560336934627358,0.0343038515534395,-0.597509613623878,-1.19,0.47,9.72
4.0236136,180,180,3.479,0,0,73.5625,-5.76152795832466,5.06790902004399,0.799121040102545,0.0581090154428371,0.0338765793810657,-0.597448574742111,-1.21,0.51,9.71
4.0419109,180,180,3.479,0,0,73.5625,-5.90126438430872,5.07014089217346,0.799060001220778,0.0591466764328877,0.0336934627357627,-0.597448574742111,-1.23,0.55,9.71
4.1394756,180,180,3.136,0,0,73.5625,-6.96281484736166,5.11505040555419,0.798571690166636,0.0683635475798083,0.0322285295733382,-0.597265458096808,-1.3,0.69,9.69
4.1583837,180,180,3.136,0,0,73.5625,-7.15889221816523,5.09022774133863,0.798449612403101,0.0700115973875359,0.0319233351644998,-0.59720441921504,-1.32,0.72,9.69
4.1753674,180,180,3.136,0,0,73.5625,-7.32568318049431,5.14880055828761,0.798388573521333,0.0716596471952634,0.0316181407556614,-0.597143380333272,-1.33,0.75,9.68
4.2744575,180,180,2.7832,0,0,73.5625,-8.02436531041459,5.15995991893493,0.798022340230727,0.0776414576084966,0.0305804797656107,-0.596899224806202,-1.38,0.85,9.67
4.2944324,180,180,2.4598,0,0,73.5625,-8.13704720005362,5.10585084624487,0.798022340230727,0.0784960019532442,0.0304584020020753,-0.596838185924434,-1.39,0.87,9.66
4.3104017,180,180,2.4598,0,0,73.5625,-8.22044268121816,5.13513725471936,0.798022340230727,0.0788011963620826,0.0303973631203076,-0.596838185924434,-1.4,0.88,9.66
4.4085016,180,180,2.1952,0,0,73.5625,-8.36017910720222,5.13736912684883,0.798022340230727,0.0802661295245071,0.0303363242385399,-0.596594030397363,-1.41,0.9,9.66
4.4296451,180,180,2.1952,0,0,73.5625,-8.36017910720222,5.13736912684883,0.798022340230727,0.0802661295245071,0.0303973631203076,-0.596594030397363,-1.41,0.89,9.66
4.4453763,180,180,2.1952,0,0,73.5,-8.30383816238271,5.16442366319385,0.798083379112495,0.0797778184703656,0.030519440883843,-0.596594030397363,-1.41,0.89,9.66
4.5444465,180,180,2.009,0,0,75.1875,-7.82828793961102,5.18478258315049,0.789476896783251,0.0764206799731429,0.0302142464750046,-0.608374534578527,-1.38,0.82,9.67
4.5644738,180,180,2.009,0,0,75.1875,-7.68855151362696,5.18255071102102,0.789537935665019,0.0753219801013245,0.0304584020020753,-0.608374534578527,-1.37,0.8,9.67
4.5804405,180,180,1.9208,0,0,75.9375,-7.60515603246242,5.15326430254654,0.785753524995422,0.0748947079289507,0.0300921687114692,-0.613318684001709,-1.35,0.77,9.68
4.6773887,180,180,1.9306,0,0,76.5,-6.85013295772263,5.16915947824424,0.782884697552341,0.0686687419886468,0.0311908685832876,-0.617652444607215,-1.29,0.64,9.69
4.6964726,180,180,1.9306,0,0,77.0625,-6.71039653173857,5.16692760611478,0.780076908991027,0.0664103033632424,0.0313739852285906,-0.621436855276811,-1.28,0.63,9.7
4.7124577,180,180,1.9306,0,0,77.0625,-6.37458273495094,5.18951839820088,0.780198986754563,0.0647012146737472,0.0318012574009644,-0.621436855276811,-1.27,0.6,9.7
4.8114156,180,180,2.0384,0,0,78,-5.39642775306254,5.17389529329463,0.775376915094915,0.055606421290362,0.0334493072086919,-0.628212171153025,-1.19,0.43,9.72
4.8414336,180,180,2.0384,0,0,78,-5.25669132707849,5.17166342116517,0.774705487395471,0.0535921381920283,0.0338765793810657,-0.629249832143075,-1.16,0.37,9.72
4.8605305,180,180,2.2442,0,0,78.125,-4.7811411043068,5.1920223411218,0.774827565159006,0.0514557773301593,0.0343648904352072,-0.629249832143075,-1.14,0.33,9.73
4.9564404,180,180,2.5088,0,0,78.125,-3.46717232563078,5.19899002830166,0.775071720686077,0.0402856619666728,0.0369895623512177,-0.629616065433681,-1.05,0.15,9.74
4.977543,180,180,2.5088,0,0,78.125,-3.32743589964672,5.19675815617219,0.775132759567845,0.037905145577733,0.0375389122871269,-0.629677104315449,-1.03,0.11,9.75
4.9942941,180,180,2.5088,0,0,78.125,-3.04796304767861,5.19229441191327,0.775132759567845,0.036745406824147,0.0377830678141976,-0.629677104315449,-1.02,0.09,9.75
5.0944862,180,180,2.8224,0,0,78.125,-1.76328067747707,5.11586661792858,0.775437953976683,0.0254532136971251,0.0404077397302081,-0.629738143197217,-0.92,-0.11,9.76
5.1144247,180,180,2.8224,0,0,78.125,-1.51086236185398,5.16774381848917,0.775437953976683,0.0222791918452054,0.041018128547885,-0.629738143197217,-0.89,-0.16,9.76
5.1294616,180,180,3.1556,0,0,78.125,-1.28773045470539,5.13622553788521,0.775498992858451,0.0212415308551547,0.0412622840749557,-0.629799182078984,-0.88,-0.18,9.76
5.2284487,180,180,3.4888,0,0,78.125,-0.282520936471965,5.06426148815945,0.775498992858451,0.0127571262894464,0.0427272172373802,-0.629860220960752,-0.8,-0.33,9.76
5.2474637,180,180,3.4888,0,0,78.125,-0.199125455307424,5.03497507968496,0.775498992858451,0.0119636208264665,0.0429103338826833,-0.629860220960752,-0.78,-0.37,9.76
5.2644587,180,180,3.4888,0,0,78.125,-0.0593890293233672,5.0327432075555,0.775498992858451,0.00988829884636513,0.0432765671732894,-0.629860220960752,-0.78,-0.38,9.76
5.3664678,180,180,3.7828,0,0,78.125,0.555897619432375,5.05087025538267,0.775376915094915,0.00549349935909174,0.044131111518037,-0.629982298724287,-0.73,-0.46,9.76
5.3893347,180,180,3.7828,0,0,78.1875,0.639293100596916,5.02158384690818,0.775376915094915,0.00488311054141488,0.0442531892815724,-0.630043337606055,-0.73,-0.47,9.76
5.4055525,180,180,3.7828,0,0,78.1875,0.695634045416431,5.04863838325321,0.775376915094915,0.00445583836904108,0.0443752670451077,-0.630043337606055,-0.72,-0.48,9.76
5.5032468,180,180,4.1846,0,0,78.1875,0.639293100596916,5.02158384690818,0.775193798449612,0.00451687725080877,0.0442531892815724,-0.630226454251358,-0.72,-0.47,9.76
5.5228159,180,180,4.1846,0,0,77.6875,0.639293100596916,5.02158384690818,0.778001587010926,0.00469999389611182,0.0442531892815724,-0.626808276872368,-0.73,-0.47,9.76
5.5468111,180,180,4.1846,0,0,77.6875,0.555897619432375,5.05087025538267,0.777940548129158,0.005249343832021,0.044131111518037,-0.626869315754135,-0.73,-0.46,9.76
5.6474021,180,180,4.2728,0,0,77.375,0.0803473966606896,5.03051133542604,0.779649636818654,0.00952206555575902,0.0433376060550571,-0.624732954892266,-0.77,-0.38,9.76
5.6654059,180,180,4.2728,0,0,77.375,-0.0593890293233672,5.0327432075555,0.779588597936886,0.0107428431911127,0.0430934505279863,-0.624793993774034,-0.79,-0.36,9.76
5.6814951,180,180,4.2728,0,0,77.3125,-0.22617999165245,5.09131602450448,0.780137947872795,0.0119636208264665,0.0429103338826833,-0.624122566074589,-0.8,-0.34,9.76
5.7785039,180,180,4.2728,0,0,77.25,-1.03754401121176,5.04836631246175,0.780198986754563,0.019837636574498,0.0411402063114204,-0.624000488311054,-0.87,-0.2,9.76
5.7975291,180,180,4.1944,0,0,77.25,-1.26067591836036,5.0798845930657,0.780137947872795,0.0206921809192456,0.0409570896661173,-0.624000488311054,-0.88,-0.16,9.76
5.8154493,180,180,4.1944,0,0,77.3125,-1.45675328916393,5.05506192885014,0.780076908991027,0.0224012696087408,0.0406518952572789,-0.624061527192822,-0.89,-0.15,9.76
5.9164621,180,180,4.0474,0,0,77.3125,-2.51830375221687,5.09997144223087,0.779710675700421,0.0318012574009644,0.0385155343954099,-0.624244643838125,-0.98,0.03,9.75
5.9383338,180,180,4.0474,0,0,77.3125,-2.60169923338141,5.12925785070536,0.779588597936886,0.034609045962278,0.037905145577733,-0.624305682719893,-1,0.06,9.75
5.9545017,180,180,4.0474,0,0,77.375,-2.93751303016904,5.10666705861926,0.779527559055118,0.0355856680705609,0.03772202893243,-0.624305682719893,-1.01,0.08,9.75
6.0522779,180,180,3.8318,0,0,77.375,-4.19514086402555,5.12675390778443,0.779100286882744,0.0457181224439968,0.0354025514252579,-0.62436672160166,-1.1,0.26,9.74
6.0714205,180,180,3.5672,0,0,77.375,-4.25148180884506,5.09969937143941,0.779039248000977,0.0467557834340475,0.0351583958981871,-0.62436672160166,-1.1,0.28,9.73
6.0877087,180,180,3.5672,0,0,77.375,-4.39121823482912,5.10193124356887,0.778856131355674,0.0497466886406641,0.0345480070805103,-0.62436672160166,-1.13,0.33,9.73
6.186533,180,180,3.2634,0,0,77.4375,-5.59250512386611,5.14907262907907,0.778367820301532,0.0596960263687969,0.0322285295733382,-0.624183604956357,-1.22,0.51,9.71
6.2054784,180,180,3.2634,0,0,77.4375,-5.92831892065374,5.12648183699297,0.778367820301532,0.0605505707135445,0.0320454129280352,-0.624183604956357,-1.23,0.54,9.71
6.2248949,180,180,3.2634,0,0,77.4375,-6.01171440181828,5.15576824546746,0.778306781419764,0.0614051150582921,0.0318622962827321,-0.624183604956357,-1.24,0.56,9.71
6.3604305,180,180,2.6362,0,0,77.4375,-7.24228769932977,5.11951414981312,0.777818470365623,0.0719038027223341,0.0294817798937923,-0.623817371665751,-1.33,0.74,9.68
6.3804193,180,180,2.6362,0,0,77.4375,-7.38202412531383,5.12174602194258,0.777757431483855,0.0729414637123848,0.0292376243667216,-0.623756332783983,-1.34,0.76,9.68
6.3974717,180,180,2.6362,0,0,77.4375,-7.46541960647837,5.15103243041707,0.777696392602088,0.0738570469389001,0.0289324299578832,-0.623695293902216,-1.34,0.77,9.68
6.4962916,180,180,2.3716,0,0,77.4375,-7.80123340326599,5.12844163833097,0.77763535372032,0.0762986022096075,0.0284441189037417,-0.623512177256913,-1.36,0.81,9.67
6.5144329,180,180,2.3716,0,0,77.4375,-7.80123340326599,5.12844163833097,0.777696392602088,0.0763596410913752,0.028383080021974,-0.623451138375145,-1.36,0.81,9.67
6.5306732,180,180,2.156,0,0,78.125,-7.80123340326599,5.12844163833097,0.773911981932491,0.0764206799731429,0.0279558078496002,-0.628090093389489,-1.36,0.81,9.67
6.6503965,180,180,2.0188,0,0,79.125,-7.38202412531383,5.12174602194258,0.768296404809864,0.0731856192394555,0.0279558078496002,-0.635414759201611,-1.33,0.75,9.68
6.6685208,180,180,2.0188,0,0,79.125,-7.29862864414928,5.09245961346809,0.765793810657389,0.0723310748947079,0.0278947689678325,-0.638527742171763,-1.32,0.73,9.68
6.6855429,180,180,2.0188,0,0,79.625,-7.15889221816523,5.09022774133863,0.765793810657389,0.0717817249587988,0.0280168467313679,-0.638527742171763,-1.31,0.72,9.69
6.7825076,180,180,1.9698,0,0,80.4375,-6.40386914342543,5.10612291703634,0.761521088933651,0.0654947201367271,0.0291155466031862,-0.644265397057926,-1.26,0.61,9.7
6.8025613,180,180,1.9698,0,0,80.4375,-6.26413271744137,5.10389104490687,0.761643166697186,0.0640297869743026,0.0294207410120247,-0.644265397057926,-1.24,0.58,9.7
6.8193518,180,180,2.0188,0,0,80.5625,-6.04100081029277,5.07237276430292,0.761032777879509,0.0625038149301105,0.0297259354208631,-0.645058902520906,-1.23,0.55,9.71
6.9223552,180,180,2.156,0,0,80.5625,-5.14624130956892,5.08603606787116,0.76127693340658,0.0551791491179882,0.0316181407556614,-0.645364096929744,-1.16,0.4,9.72
6.9415591,180,180,2.156,0,0,80.5625,-4.86676845760081,5.08157232361224,0.761399011170115,0.0524323994384423,0.0322895684551059,-0.645425135811512,-1.14,0.37,9.73
6.9605821,180,180,2.156,0,0,80.5625,-4.64363655045221,5.05005404300828,0.761521088933651,0.0506012329854117,0.0327778795092474,-0.645425135811512,-1.12,0.34,9.73
7.0597985,180,180,2.3716,0,0,80.5,-3.46940419776024,5.0592536023176,0.761948361106024,0.0407129341390466,0.0352804736617225,-0.64548617469328,-1.04,0.16,9.74
7.0785002,180,180,2.3716,0,0,80.5,-3.32966777177618,5.05702173018814,0.762009399987792,0.0396752731489959,0.0355246291887933,-0.64548617469328,-1.03,0.14,9.75
7.0945418,180,180,2.6362,0,0,80.5,-3.13359040097261,5.0818443944037,0.76207043886956,0.0376609900506623,0.0360129402429347,-0.64548617469328,-1,0.08,9.75
7.192534,180,180,2.94,0,0,80.5,-2.07203993791967,5.03693488102297,0.762314594396631,0.0286272355490447,0.0382713788683391,-0.645547213575047,-0.92,-0.07,9.76
7.2115435,180,180,2.94,0,0,80.5,-1.73622614113205,5.05952567310906,0.762375633278398,0.0257584081059635,0.0389428065677837,-0.645547213575047,-0.9,-0.1,9.76
7.2290455,180,180,2.94,0,0,80.5,-1.6528306599675,5.03023926463457,0.762375633278398,0.0247817859976805,0.0391869620948544,-0.645547213575047,-0.9,-0.12,9.76
7.3495088,180,180,3.2536,0,0,80.5,-0.451543770930511,4.98309787912438,0.762436672160166,0.0147103705060123,0.0414454007202588,-0.645669291338583,-0.8,-0.3,9.76
7.3685196,180,180,3.5378,0,0,80.5,-0.36814828976597,4.95381147064989,0.762436672160166,0.0140999816883355,0.0415674784837942,-0.645669291338583,-0.79,-0.32,9.76
7.3856088,180,180,3.5378,0,0,80.5,-0.228411863781913,4.95157959852042,0.762436672160166,0.0130012818165171,0.0418116340108649,-0.64573033022035,-0.78,-0.33,9.76
7.4856325,180,180,3.7926,0,0,80.5,0.247138358989772,4.97193851847706,0.762314594396631,0.00903375450161753,0.0428492950009156,-0.645791369102118,-0.75,-0.41,9.76
7.5115448,180,180,3.7926,0,0,80.5,0.303479303809287,4.99899305482208,0.762253555514863,0.00848440456570836,0.042971372764451,-0.645852407983886,-0.75,-0.41,9.76
7.6205275,180,180,3.9984,0,0,80,0.247138358989772,4.97193851847706,0.765122382957944,0.00854544344747604,0.0430934505279863,-0.642495269486663,-0.75,-0.41,9.76
7.6395886,180,180,3.9984,0,0,80,0.220083822644746,5.02827946329657,0.765122382957944,0.00903375450161753,0.042971372764451,-0.642495269486663,-0.75,-0.4,9.76
7.6596612,180,180,4.1258,0,0,80,0.163742877825231,5.00122492695155,0.765061344076177,0.00933894891045596,0.042971372764451,-0.642556308368431,-0.76,-0.39,9.76
7.7657204,180,180,4.1748,0,0,79.25,-0.338861881291481,5.03720695181443,0.769517182445218,0.0137337483977294,0.042177867301471,-0.637184886772874,-0.8,-0.32,9.76
7.7944086,180,180,4.1748,0,0,79,-0.561993788440078,5.06872523241838,0.770798998962339,0.0154428370872246,0.0418726728926326,-0.635597875846915,-0.82,-0.28,9.76
7.8115942,180,180,4.1748,0,0,79,-0.75807115924365,5.04390256820282,0.770737960080571,0.0167856924861137,0.0415674784837942,-0.635658914728682,-0.83,-0.26,9.76
7.9074131,180,180,4.1552,0,0,78.75,-1.59648971514799,5.0572938009796,0.771897698834157,0.0243545138253067,0.0399804675578343,-0.634071903802722,-0.9,-0.12,9.76
7.9276148,180,180,4.0474,0,0,78.75,-1.73622614113205,5.05952567310906,0.77183665995239,0.0260636025148019,0.0396142342672282,-0.63413294268449,-0.92,-0.09,9.76
7.9435895,180,180,4.0474,0,0,78.8125,-1.95935804828064,5.09104395371302,0.77183665995239,0.0269181468595495,0.0393700787401575,-0.63413294268449,-0.93,-0.08,9.76
8.0435615,180,180,3.8808,0,0,78.8125,-2.88117208534952,5.13372159496429,0.771409387780016,0.0355856680705609,0.0374168345235915,-0.634316059329793,-1,0.07,9.75
8.0638052,180,180,3.8808,0,0,78.8125,-3.0772494561531,5.10889893074873,0.771348348898248,0.0373557956418238,0.0369895623512177,-0.634316059329793,-1.03,0.12,9.75
8.0795709,180,180,3.8808,0,0,78.8125,-3.30038136330169,5.14041721135268,0.771287310016481,0.0392480009766221,0.0366233290606116,-0.634316059329793,-1.04,0.13,9.75
8.1784434,180,180,3.6554,0,0,78.875,-4.41827277117415,5.15827218838839,0.770798998962339,0.048403833241775,0.0345480070805103,-0.634377098211561,-1.12,0.3,9.73
8.1976116,180,180,3.6554,0,0,78.875,-4.61435014197772,5.13344952417282,0.770737960080571,0.0502960385765733,0.0340596960263688,-0.634377098211561,-1.14,0.33,9.73
8.2138293,180,180,3.3908,0,0,78.875,-4.75408656796178,5.13568139630229,0.770615882317036,0.0521272050296039,0.033632423853995,-0.634316059329793,-1.15,0.36,9.73
8.3195131,180,180,3.1066,0,0,78.875,-5.87197797583423,5.153536373338,0.770188610144662,0.060855765122383,0.031679179637429,-0.634193981566258,-1.23,0.52,9.71
8.3375508,180,180,3.1066,0,0,78.9375,-6.09510988298283,5.18505465394195,0.770127571262894,0.0625038149301105,0.0313129463468229,-0.63413294268449,-1.24,0.55,9.71
8.3557976,180,180,3.1066,0,0,78.9375,-6.15145082780234,5.15800011759693,0.770066532381127,0.0639687480925349,0.0309467130562168,-0.63413294268449,-1.26,0.58,9.7
8.4655392,180,180,2.8126,0,0,78.9375,-7.07326486487122,5.2006777588482,0.769761337972288,0.0706219862052127,0.0294207410120247,-0.633827748275652,-1.32,0.7,9.69
8.4854577,180,180,2.8126,0,0,78.9375,-7.12960580969074,5.17362322250317,0.769700299090521,0.071537569431728,0.0292376243667216,-0.633827748275652,-1.32,0.71,9.68
8.5026084,180,180,2.5382,0,0,78.9375,-7.18594675451025,5.14656868615814,0.769700299090521,0.0722089971311726,0.0289934688396509,-0.633766709393884,-1.33,0.72,9.68
8.6055722,180,180,2.3128,0,0,79.5,-7.40907866165885,5.1780869667621,0.766160043947995,0.0741012024659708,0.0281999633766709,-0.637856314472319,-1.35,0.76,9.68
8.6244754,180,180,2.3128,0,0,80.125,-7.40907866165885,5.1780869667621,0.762924983214307,0.0741622413477385,0.0278337300860648,-0.641701764023683,-1.34,0.75,9.68
8.6427559,180,180,2.3128,0,0,80.125,-7.40907866165885,5.1780869667621,0.762924983214307,0.0739791247024355,0.0278947689678325,-0.641701764023683,-1.34,0.75,9.68
8.7475812,180,180,2.1462,0,0,80.8125,-7.0462103285262,5.14433681402868,0.758957455899408,0.0714154916681926,0.0279558078496002,-0.646706952328633,-1.32,0.7,9.69
8.766851,180,180,2.1462,0,0,80.8125,-7.0462103285262,5.14433681402868,0.758957455899408,0.0709882194958188,0.0280778856131356,-0.646706952328633,-1.31,0.69,9.69
8.7855578,180,180,2.058,0,0,81.125,-6.90647390254214,5.14210494189922,0.757553561618751,0.0700726362693035,0.0281389244949033,-0.648477079899896,-1.3,0.68,9.69
8.8816498,180,180,2.0482,0,0,81.75,-6.20779177262186,5.1309455812519,0.754135384239761,0.0643960202649087,0.0291155466031862,-0.652993957150705,-1.24,0.56,9.71
8.9005579,180,180,2.0482,0,0,81.75,-6.15145082780234,5.15800011759693,0.754257462003296,0.0630531648660197,0.0294817798937923,-0.652993957150705,-1.23,0.54,9.71
8.9155377,180,180,2.0482,0,0,81.75,-5.98465986547326,5.09942730064795,0.754074345357993,0.0617103094671306,0.0297869743026308,-0.653299151559543,-1.23,0.53,9.71
9.0256662,180,180,2.1364,0,0,81.75,-5.00650488358486,5.0838041957417,0.754379539766831,0.0533479826649576,0.0318622962827321,-0.653543307086614,-1.15,0.38,9.73
9.0445613,180,180,2.1364,0,0,81.75,-4.81042751278129,5.10862685995726,0.754501617530367,0.0516388939754624,0.0322895684551059,-0.653543307086614,-1.14,0.35,9.73
9.0635486,180,180,2.303,0,0,81.75,-4.61435014197772,5.13344952417282,0.754562656412134,0.0507843496307148,0.0325337239821766,-0.653543307086614,-1.12,0.31,9.73
9.1756373,180,180,2.5186,0,0,81.625,-3.32966777177618,5.05702173018814,0.755600317402185,0.040041506439602,0.0352194347799548,-0.652993957150705,-1.03,0.14,9.75
9.1945103,180,180,2.5186,0,0,81.625,-3.13359040097261,5.0818443944037,0.755661356283953,0.0381493011048038,0.0357077458340963,-0.652993957150705,-1.01,0.1,9.75
9.2095587,180,180,2.5186,0,0,81.625,-2.99385397498856,5.07961252227424,0.755661356283953,0.0372337178782885,0.0359519013611671,-0.652993957150705,-1,0.09,9.75
9.3226141,180,180,2.793,0,0,81.625,-1.8759625671161,5.06175754523853,0.755905511811024,0.0264908746871757,0.0386376121589452,-0.65311603491424,-0.91,-0.1,9.76
9.3425105,180,180,3.0772,0,0,81.625,-1.6528306599675,5.03023926463457,0.755966550692791,0.0248428248794482,0.0390038454495514,-0.65311603491424,-0.89,-0.13,9.76
9.3585864,180,180,3.0772,0,0,81.625,-1.51309423398345,5.02800739250511,0.755966550692791,0.0240493194164683,0.0392480009766221,-0.65311603491424,-0.88,-0.14,9.76
9.4825655,180,180,3.3614,0,0,81.625,-0.591280196914568,4.98532975125384,0.755966550692791,0.0156259537325276,0.041018128547885,-0.653238112677776,-0.8,-0.29,9.76
9.5045405,180,180,3.3614,0,0,81.625,-0.424489234585485,4.92675693430486,0.755966550692791,0.01477140938778,0.0412012451931881,-0.653238112677776,-0.79,-0.3,9.76
9.5246109,180,180,3.6162,0,0,81.625,-0.311807344946454,4.98086600699491,0.755966550692791,0.0139779039248001,0.0413843618384911,-0.653238112677776,-0.79,-0.32,9.76
9.6416252,180,180,3.8318,0,0,81.625,-0.00527995663331549,4.92006131791647,0.755844472929256,0.0115363486540927,0.0417505951290972,-0.653421229323079,-0.76,-0.36,9.76
9.6625556,180,180,3.8318,0,0,81.6875,-0.00527995663331549,4.92006131791647,0.755783434047488,0.0115363486540927,0.0417505951290972,-0.653482268204846,-0.76,-0.36,9.76
9.6784457,180,180,3.8318,0,0,81.6875,-0.00527995663331549,4.92006131791647,0.755783434047488,0.0115363486540927,0.0417505951290972,-0.653482268204846,-0.76,-0.36,9.76
9.793618,180,180,3.9886,0,0,80.8125,-0.36814828976597,4.95381147064989,0.760727583470671,0.0138558261612647,0.0412622840749557,-0.647744613318684,-0.79,-0.31,9.76
9.8135324,180,180,4.0768,0,0,80.3125,-0.424489234585485,4.92675693430486,0.763413294268449,0.0144662149789416,0.0411402063114204,-0.644570591466764,-0.79,-0.3,9.76
9.8296204,180,180,4.0768,0,0,80.3125,-0.507884715750027,4.95604334277935,0.763352255386681,0.0153817982054569,0.041018128547885,-0.644631630348532,-0.8,-0.28,9.76
9.9426131,180,180,4.0866,0,0,80.125,-1.34630327165437,4.96943457555613,0.764573033022035,0.021973997436367,0.0395531953854605,-0.643044619422572,-0.86,-0.16,9.76
9.9624809,180,180,4.0866,0,0,80.125,-1.40264421647388,4.94238003921111,0.764573033022035,0.0233778917170237,0.0391869620948544,-0.642983580540805,-0.88,-0.14,9.76
9.9784766,180,180,4.0866,0,0,80.0625,-1.48603969763842,4.9716664476856,0.764573033022035,0.024110358298236,0.039064884331319,-0.642983580540805,-0.89,-0.11,9.76
10.1076451,180,180,3.9004,0,0,80.125,-2.68732658667542,5.01880783319579,0.764206799731429,0.0343038515534395,0.0366233290606116,-0.643166697186108,-0.98,0.06,9.75
10.1274698,180,180,3.9004,0,0,80.125,-2.82706301265947,5.02103970532526,0.764145760849661,0.0350973570164195,0.0364402124153086,-0.643166697186108,-1,0.09,9.75
10.1435042,180,180,3.9004,0,0,80.125,-3.10653586462759,5.02550344958418,0.764023683086126,0.0375999511688946,0.035768784715864,-0.643166697186108,-1.01,0.11,9.75
10.2456783,180,180,3.7142,0,0,80.1875,-4.08469084651598,5.04112655449043,0.763596410913752,0.0459622779710676,0.0338155404992981,-0.643227736067875,-1.08,0.26,9.74
10.2655651,180,180,3.4888,0,0,80.1875,-4.22442727250004,5.04335842661989,0.763596410913752,0.0468168223158152,0.0335713849722273,-0.643227736067875,-1.1,0.3,9.73
10.2817216,180,180,3.4888,0,0,80.1875,-4.50390012446815,5.04782217087882,0.763413294268449,0.049380455350058,0.0329609961545504,-0.643227736067875,-1.11,0.32,9.73
10.3846603,180,180,3.2242,0,0,80.25,-5.48205510635655,5.06344527578507,0.763047060977843,0.0575596655069279,0.0311298297015199,-0.643166697186108,-1.19,0.46,9.72
10.4039398,180,180,3.2242,0,0,80.25,-5.62179153234061,5.06567714791453,0.762986022096075,0.0590856375511201,0.0307025575291461,-0.64310565830434,-1.2,0.49,9.71
10.4337215,180,180,3.2242,0,0,80.25,-5.90126438430872,5.07014089217346,0.76286394433254,0.0612219984129891,0.0302142464750046,-0.643044619422572,-1.22,0.53,9.71
10.5306788,180,180,2.9498,0,0,80.6875,-6.54360556940949,5.1083547891658,0.760056155771226,0.0669596532991516,0.0288103521943478,-0.645791369102118,-1.27,0.63,9.7
10.5536361,180,180,2.6852,0,0,80.6875,-6.73968294021306,5.08353212495024,0.759995116889459,0.068424586461576,0.0284441189037417,-0.64573033022035,-1.29,0.65,9.69
10.571625,180,180,2.6852,0,0,81.125,-6.76673747655808,5.13987306976975,0.75730940609168,0.0689739363974852,0.0280778856131356,-0.64890435207227,-1.29,0.66,9.69
10.6726011,180,180,2.45,0,0,82.125,-7.10255127334571,5.11728227768366,0.751754867850821,0.0720258804858695,0.0269181468595495,-0.655008240249039,-1.32,0.71,9.69
10.690683,180,180,2.45,0,0,82.125,-7.12960580969074,5.17362322250317,0.751754867850821,0.0721479582494049,0.0269791857413172,-0.655008240249039,-1.32,0.71,9.69
10.7066294,180,180,2.45,0,0,82.125,-7.12960580969074,5.17362322250317,0.751754867850821,0.0722089971311726,0.0270402246230849,-0.655008240249039,-1.32,0.71,9.69
10.8057691,180,180,2.2638,0,0,82.875,-6.98986938370668,5.17139135037371,0.747482146127083,0.0709271806140511,0.0270402246230849,-0.660074467435757,-1.31,0.68,9.69
10.8256008,180,180,2.156,0,0,82.9375,-6.90647390254214,5.14210494189922,0.747054873954709,0.0703167917963743,0.0271623023866203,-0.660562778489898,-1.3,0.67,9.69
10.8437362,180,180,2.156,0,0,82.9375,-6.85013295772263,5.16915947824424,0.747115912836477,0.0695843252151621,0.027406457913691,-0.660562778489898,-1.3,0.66,9.69
10.9447086,180,180,2.1168,0,0,83.25,-6.23484630896688,5.18728652607141,0.745589940792285,0.0648843313190502,0.0286272355490447,-0.662699139351767,-1.26,0.57,9.7
10.9636155,180,180,2.1168,0,0,83.25,-6.09510988298283,5.18505465394195,0.745467863028749,0.0637245925654642,0.0289324299578832,-0.662943294878838,-1.25,0.55,9.71
10.9795494,180,180,2.1168,0,0,83.25,-6.01171440181828,5.15576824546746,0.745528901910517,0.0631142037477873,0.0291155466031862,-0.662943294878838,-1.24,0.54,9.71
11.0887248,180,180,2.156,0,0,83.25,-5.11695490109443,5.16943154903571,0.745895135201123,0.0559116156992004,0.0311298297015199,-0.663065372642373,-1.17,0.39,9.72
11.1075774,180,180,2.2736,0,0,83.25,-4.97721847511037,5.16719967690624,0.745956174082891,0.0544466825367759,0.031496062992126,-0.663126411524141,-1.16,0.38,9.72
11.1227136,180,180,2.2736,0,0,83.25,-4.7811411043068,5.1920223411218,0.746078251846426,0.0529207104925838,0.0319843740462675,-0.663065372642373,-1.15,0.35,9.73
11.2305994,180,180,2.4598,0,0,83,-3.74664517759889,5.20345377256059,0.747726301654154,0.044131111518037,0.0344869681987426,-0.661783556125252,-1.07,0.19,9.74
11.2486548,180,180,2.4598,0,0,83,-3.66324969643435,5.1741673640861,0.747787340535921,0.0424220228285418,0.0349752792528841,-0.661783556125252,-1.06,0.16,9.74
11.2656169,180,180,2.4598,0,0,82.8125,-3.44011778928575,5.14264908348214,0.748947079289507,0.0415064396020265,0.0352804736617225,-0.66050173960813,-1.05,0.15,9.74
11.3876279,180,180,2.9498,0,0,82.75,-2.3222263814133,5.12479410644643,0.749252273698346,0.0307635964109138,0.0382103399865714,-0.660562778489898,-0.95,-0.04,9.75
11.4075947,180,180,2.9498,0,0,82.75,-2.12614901060973,5.149616770662,0.749252273698346,0.0292376243667216,0.0386376121589452,-0.660562778489898,-0.94,-0.07,9.76
11.4235828,180,180,2.9498,0,0,82.75,-1.95935804828064,5.09104395371302,0.749313312580114,0.0285051577855094,0.0388207288042483,-0.660562778489898,-0.93,-0.08,9.76
11.5346001,180,180,3.2144,0,0,82.75,-1.06459854755679,5.10470725728126,0.749374351461881,0.0211194530916194,0.0406518952572789,-0.660684856253433,-0.86,-0.22,9.76
11.5689607,180,180,3.4692,0,0,82.75,-0.981203066392248,5.07542084880677,0.749374351461881,0.0195934810474272,0.0409570896661173,-0.660684856253433,-0.85,-0.25,9.76
11.6806967,180,180,3.6848,0,0,82.1875,-0.422257362456022,5.06649336028892,0.752853567722639,0.0152597204419215,0.041994750656168,-0.656778367820302,-0.81,-0.31,9.76
11.7019515,180,180,3.6848,0,0,82.1875,-0.365916417636506,5.09354789663394,0.752792528840872,0.0148934871513154,0.041994750656168,-0.656839406702069,-0.81,-0.32,9.76
11.7330899,180,180,3.6848,0,0,81.6875,-0.338861881291481,5.03720695181443,0.755539278520417,0.0144051760971739,0.041994750656168,-0.653726423731917,-0.8,-0.32,9.76
11.856501,180,180,3.969,0,0,80.875,-0.478598307275537,5.03943882394389,0.760422389061832,0.0153207593236892,0.0416895562473295,-0.648049807727522,-0.81,-0.3,9.76
11.8756554,180,180,3.969,0,0,80.6875,-0.534939252095052,5.01238428759887,0.76127693340658,0.0161142647866691,0.0414454007202588,-0.646951107855704,-0.82,-0.28,9.76
11.8917415,180,180,3.969,0,0,80.6875,-0.618334733259594,5.04167069607336,0.76127693340658,0.0164194591955075,0.0413843618384911,-0.647012146737472,-0.82,-0.27,9.76
11.9897729,180,180,4.0082,0,0,80.375,-1.15022590085079,4.99425723977169,0.763047060977843,0.021180491973387,0.0401635842031374,-0.644814746993835,-0.86,-0.19,9.76
12.0086454,180,180,4.0082,0,0,80.375,-1.28996232683485,4.99648911190116,0.763047060977843,0.0217298419092962,0.0399804675578343,-0.644875785875603,-0.87,-0.18,9.76
12.0257038,180,180,4.0082,0,0,80.3125,-1.42969875281891,4.99872098403062,0.763535372031984,0.0229506195446499,0.0397363120307636,-0.644265397057926,-0.89,-0.14,9.76
12.1227182,180,180,3.9886,0,0,80.25,-2.21177636390373,5.03916675315243,0.763474333150217,0.0297869743026308,0.0378441066959653,-0.644143319294391,-0.94,-0.03,9.76
12.1409083,180,180,3.8906,0,0,80.25,-2.32445825354276,4.98505768046238,0.763474333150217,0.030519440883843,0.0376609900506623,-0.644143319294391,-0.95,0,9.76
12.1638371,180,180,3.8906,0,0,80.3125,-2.54759016069136,5.01657596106633,0.763352255386681,0.0327168406274797,0.0371116401147531,-0.644204358176158,-0.96,0.02,9.75
12.2826287,180,180,3.7436,0,0,80.3125,-3.6091406237443,5.06148547444706,0.762924983214307,0.0418116340108649,0.0346700848440457,-0.644326435939694,-1.04,0.18,9.74
12.3027673,180,180,3.7436,0,0,80.3125,-3.80521799454787,5.0366628102315,0.762802905450772,0.0433986449368248,0.0342428126716719,-0.644326435939694,-1.06,0.21,9.74
12.3222507,180,180,3.5476,0,0,80.375,-3.94495442053193,5.03889468236097,0.762741866569004,0.0449246169810169,0.0338155404992981,-0.644326435939694,-1.07,0.24,9.74
12.4517397,180,180,3.3124,0,0,80.375,-5.11918677322389,5.02969512305165,0.762253555514863,0.054812915827382,0.0313129463468229,-0.644326435939694,-1.16,0.42,9.72
12.4707558,180,180,3.3124,0,0,80.375,-5.31526414402747,5.00487245883609,0.762192516633095,0.0562168101080388,0.0309467130562168,-0.644265397057926,-1.17,0.44,9.72
12.4867767,180,180,3.3124,0,0,80.375,-5.39865962519201,5.03415886731058,0.76207043886956,0.0576207043886956,0.0305804797656107,-0.644265397057926,-1.18,0.47,9.72
12.5879159,180,180,3.0576,0,0,80.375,-6.21002364475132,4.99120915526784,0.761826283342489,0.0636635536836965,0.0289934688396509,-0.644082280412623,-1.23,0.58,9.71
12.6097718,180,180,2.8028,0,0,80.75,-6.29341912591586,5.02049556374233,0.759628883598853,0.0647012146737472,0.0285661966672771,-0.646645913446866,-1.24,0.6,9.7
12.6276539,180,180,2.8028,0,0,80.75,-6.43315555189992,5.0227274358718,0.759567844717085,0.0656167979002625,0.0283220411402063,-0.646584874565098,-1.25,0.61,9.7
12.7386287,180,180,2.5774,0,0,81.5,-6.76896934868755,5.0001366437857,0.755356161875114,0.0688518586339498,0.0270402246230849,-0.651223829579442,-1.27,0.67,9.69
12.7576688,180,180,2.5774,0,0,81.8125,-6.85236482985209,5.02942305226019,0.753402917658548,0.0692180919245559,0.0267960690960142,-0.653482268204846,-1.28,0.67,9.69
12.7757786,180,180,2.5774,0,0,81.8125,-6.85236482985209,5.02942305226019,0.753402917658548,0.0693401696880913,0.0267960690960142,-0.653421229323079,-1.28,0.68,9.69
12.876696,180,180,2.254,0,0,82.375,-6.71262840386803,5.02719118013072,0.750350973570164,0.0686687419886468,0.0268571079777818,-0.657022523347372,-1.27,0.66,9.7
12.8957156,180,180,2.254,0,0,82.375,-6.65628745904852,5.05424571647575,0.750412012451932,0.0681804309345053,0.0270402246230849,-0.657022523347372,-1.27,0.65,9.7
12.9107228,180,180,2.254,0,0,82.375,-6.65628745904852,5.05424571647575,0.747970457181224,0.0679973142892022,0.0268571079777818,-0.659830311908686,-1.27,0.64,9.7
13.0136713,180,180,2.1854,0,0,82.875,-6.23707818109635,5.04755010008736,0.747176951718244,0.0635414759201611,0.0280778856131356,-0.66105108954404,-1.23,0.56,9.71
13.0356776,180,180,2.1854,0,0,82.9375,-6.04100081029277,5.07237276430292,0.747237990600012,0.0625038149301105,0.028383080021974,-0.66105108954404,-1.22,0.54,9.71
13.0517221,180,180,2.1854,0,0,82.9375,-5.90126438430872,5.07014089217346,0.74729902948178,0.0619544649942013,0.0285661966672771,-0.66105108954404,-1.21,0.52,9.71
13.1486771,180,180,2.1952,0,0,83,-5.20258225438844,5.05898153152614,0.747237990600012,0.0560947323445034,0.0302752853567723,-0.661600439479949,-1.17,0.42,9.72
13.1676939,180,180,2.2736,0,0,83,-5.14624130956892,5.08603606787116,0.74729902948178,0.0554233046450589,0.0304584020020753,-0.661600439479949,-1.16,0.41,9.72
13.1869964,180,180,2.2736,0,0,83,-4.86676845760081,5.08157232361224,0.747421107245315,0.0534700604284929,0.0310077519379845,-0.661539400598181,-1.14,0.38,9.73
13.2908113,180,180,2.4206,0,0,82.875,-4.05540443804149,5.12452203565497,0.748336690471831,0.0465116279069767,0.0331441127998535,-0.660990050662272,-1.08,0.23,9.74
13.3098092,180,180,2.4206,0,0,82.875,-3.88861347571241,5.06594921870599,0.748458768235366,0.0450466947445523,0.0335713849722273,-0.660867972898736,-1.07,0.22,9.74
13.3256666,180,180,2.4206,0,0,82.875,-3.77593158607338,5.12005829139604,0.748519807117134,0.0442531892815724,0.0338155404992981,-0.660867972898736,-1.06,0.19,9.74
13.4247405,180,180,2.6166,0,0,82.375,-2.88117208534952,5.13372159496429,0.75126655679668,0.0365622901788439,0.0361960568882378,-0.658060184337423,-1,0.07,9.75
13.4437887,180,180,2.8518,0,0,82.375,-2.71438112302044,5.07514877801531,0.751327595678447,0.0350363181346518,0.0366233290606116,-0.658121223219191,-0.99,0.04,9.75
13.4597035,180,180,2.8518,0,0,82.25,-2.51830375221687,5.09997144223087,0.752060062259659,0.0335103460904596,0.0371116401147531,-0.657327717756211,-0.97,0.01,9.75
13.5578279,180,180,3.1066,0,0,81.5625,-1.76328067747707,5.11586661792858,0.756332783983397,0.0263077580418727,0.0392480009766221,-0.652566684978331,-0.91,-0.11,9.76
13.5767629,180,180,3.1066,0,0,81.5625,-1.62354425149302,5.11363474579912,0.756332783983397,0.025086980406519,0.0396142342672282,-0.652566684978331,-0.9,-0.13,9.76
13.5958787,180,180,3.1066,0,0,81.5625,-1.54014877032847,5.08434833732463,0.756332783983397,0.0239882805347006,0.039858389794299,-0.652566684978331,-0.89,-0.15,9.76
13.6987106,180,180,3.3418,0,0,81.25,-0.924862121572733,5.1024753851518,0.758224989318196,0.0194103644021242,0.0412012451931881,-0.65049136299823,-0.86,-0.23,9.76
13.7177089,180,180,3.5672,0,0,81.25,-0.868521176753217,5.12952992149682,0.758224989318196,0.018861014466215,0.0413233229567234,-0.650552401879998,-0.85,-0.24,9.76
13.733726,180,180,3.5672,0,0,81.25,-0.785125695588676,5.10024351302233,0.758163950436428,0.0183116645303058,0.0414454007202588,-0.650552401879998,-0.85,-0.25,9.76
13.8306354,180,180,3.7436,0,0,81.25,-0.64538926960462,5.09801164089287,0.75810291155466,0.0168467313678813,0.0417505951290972,-0.650674479643533,-0.83,-0.28,9.76
13.8496819,180,180,3.7436,0,0,81.25,-0.64538926960462,5.09801164089287,0.760727583470671,0.0166636147225783,0.0418116340108649,-0.647561496673381,-0.83,-0.28,9.76
13.8648535,180,180,3.7436,0,0,80.75,-0.64538926960462,5.09801164089287,0.760727583470671,0.016724653604346,0.0418116340108649,-0.647561496673381,-0.83,-0.28,9.76
13.9630574,180,180,3.871,0,0,80.3125,-0.841466640408191,5.07318897667731,0.763474333150217,0.0182506256485381,0.0415064396020265,-0.644326435939694,-0.85,-0.25,9.76
13.9818713,180,180,3.871,0,0,80.3125,-0.868521176753217,5.12952992149682,0.763413294268449,0.0192272477568211,0.0412622840749557,-0.644387474821461,-0.86,-0.23,9.76
13.9978419,180,180,3.9396,0,0,80.3125,-0.981203066392248,5.07542084880677,0.763413294268449,0.0195934810474272,0.0411402063114204,-0.644387474821461,-0.86,-0.21,9.76
14.0947344,180,180,3.9396,0,0,80.0625,-1.54014877032847,5.08434833732463,0.764878227430873,0.0242324360617713,0.040041506439602,-0.642617347250198,-0.9,-0.14,9.76
14.1140274,180,180,3.9396,0,0,80,-1.67988519631253,5.08658020945409,0.765122382957944,0.0253921748153574,0.0397363120307636,-0.642190075077825,-0.91,-0.11,9.76
14.130835,180,180,3.9396,0,0,80,-1.76328067747707,5.11586661792858,0.765122382957944,0.0266129524507111,0.0394311176219252,-0.642251113959592,-0.92,-0.09,9.76
14.2286209,180,180,3.871,0,0,80,-2.51830375221687,5.09997144223087,0.764817188549106,0.0325337239821766,0.0378441066959653,-0.642373191723128,-0.98,0.02,9.75
14.2466875,180,180,3.871,0,0,80,-2.65804017820093,5.10220331436034,0.764756149667338,0.0339376182628334,0.0374778734053592,-0.642434230604895,-0.98,0.03,9.75
14.2616397,180,180,3.871,0,0,80.0625,-2.74143565936547,5.13148972283482,0.764634071903803,0.034609045962278,0.0372947567600562,-0.642495269486663,-0.99,0.04,9.75
14.2796992,180,180,3.7534,0,0,80.0625,-2.79777660418498,5.1044351864898,0.764573033022035,0.0366843679423793,0.036745406824147,-0.642556308368431,-1.01,0.08,9.75
14.3817034,180,180,3.577,0,0,80.25,-3.74887704972835,5.06371734657653,0.763352255386681,0.0430934505279863,0.0349142403711164,-0.643716047122017,-1.06,0.2,9.74
14.401909,180,180,3.577,0,0,80.25,-3.91566801205744,5.12229016352551,0.763230177623146,0.0444973448086431,0.0345480070805103,-0.643716047122017,-1.07,0.23,9.74
14.4188103,180,180,3.577,0,0,80.3125,-4.11174538286101,5.09746749930994,0.762802905450772,0.0459622779710676,0.0341207349081365,-0.644204358176158,-1.09,0.25,9.74
14.515776,180,180,3.3712,0,0,80.375,-4.92310940242032,5.05451778726721,0.762436672160166,0.0528596716108161,0.0322895684551059,-0.644204358176158,-1.15,0.38,9.73
14.5338558,180,180,3.3712,0,0,80.375,-5.00650488358486,5.0838041957417,0.762375633278398,0.0542025270097052,0.0319233351644998,-0.644204358176158,-1.16,0.4,9.72
14.5487726,180,180,3.3712,0,0,80.375,-5.14624130956892,5.08603606787116,0.762314594396631,0.054812915827382,0.0317402185191967,-0.644143319294391,-1.16,0.41,9.72
14.650089,180,180,2.9008,0,0,80.6875,-5.8449234394892,5.09719542851848,0.760178233534762,0.0607947262406153,0.0300311298297015,-0.64627968015626,-1.22,0.53,9.71
14.6687246,180,180,2.9008,0,0,81.125,-5.95760532912823,5.04308635582843,0.757919794909357,0.0618934261124336,0.02954281877556,-0.648782274308735,-1.23,0.55,9.71
14.6858287,180,180,2.9008,0,0,81.125,-6.04100081029277,5.07237276430292,0.757919794909357,0.0628090093389489,0.0292376243667216,-0.648782274308735,-1.23,0.56,9.71
14.7828045,180,180,2.6754,0,0,81.8125,-6.46021008824494,5.07906838069131,0.753830189830922,0.0663492644814747,0.0277726912042971,-0.653177073796008,-1.26,0.62,9.7
14.8017986,180,180,2.6754,0,0,82.1875,-6.51655103306446,5.05201384434628,0.751693828969053,0.0667765366538485,0.0274674967954587,-0.655679667948483,-1.26,0.63,9.7
14.8187254,180,180,2.6754,0,0,82.1875,-6.51655103306446,5.05201384434628,0.751632790087286,0.0669596532991516,0.027406457913691,-0.655679667948483,-1.26,0.63,9.7
14.916072,180,180,2.4892,0,0,82.8125,-6.57289197788397,5.02495930800126,0.747787340535921,0.0675700421168284,0.0268571079777818,-0.660013428553989,-1.26,0.64,9.7
14.934795,180,180,2.3422,0,0,82.8125,-6.57289197788397,5.02495930800126,0.747848379417689,0.0673258865897577,0.0269181468595495,-0.660013428553989,-1.26,0.63,9.7
14.9521065,180,180,2.3422,0,0,82.8125,-6.57289197788397,5.02495930800126,0.746139290728194,0.0670817310626869,0.0267960690960142,-0.661966672770555,-1.26,0.63,9.7
15.0758934,180,180,2.254,0,0,83.5,-6.09734175511229,5.04531822795789,0.744002929866325,0.0634193981566258,0.0275285356772264,-0.664713422450101,-1.22,0.56,9.71
15.0947776,180,180,2.254,0,0,83.5,-5.95760532912823,5.04308635582843,0.744063968748093,0.0625648538118782,0.0278337300860648,-0.664713422450101,-1.22,0.55,9.71
15.1107668,180,180,2.254,0,0,83.6875,-5.87420984796369,5.01379994735394,0.743270463285113,0.0616492705853629,0.0279558078496002,-0.665629005676616,-1.21,0.53,9.71
15.2116875,180,180,2.2932,0,0,83.6875,-5.25892319920795,5.03192699518111,0.743392541048648,0.0563999267533419,0.0294817798937923,-0.665934200085454,-1.16,0.43,9.72
15.2297861,180,180,2.2932,0,0,83.6875,-5.11918677322389,5.02969512305165,0.743453579930416,0.0552401879997558,0.0297869743026308,-0.665934200085454,-1.15,0.41,9.72
15.24479,180,180,2.2932,0,0,83.6875,-5.03579129205935,5.00040871457716,0.743453579930416,0.0546908380638467,0.0299700909479338,-0.665934200085454,-1.15,0.4,9.73
15.2608247,180,180,2.2932,0,0,83.625,-4.8960548660753,4.9981768424477,0.743636696575719,0.0534700604284929,0.0303363242385399,-0.665812122321919,-1.14,0.38,9.73
15.3617695,180,180,2.4108,0,0,83.5625,-4.1410317913355,5.0140720181454,0.744308124275163,0.0470609778428859,0.0322285295733382,-0.665506927913081,-1.08,0.26,9.74
15.3798851,180,180,2.4108,0,0,83.5625,-3.94495442053193,5.03889468236097,0.744369163156931,0.0456570835622291,0.0325947628639443,-0.665506927913081,-1.07,0.24,9.74
15.3967694,180,180,2.5774,0,0,83.5625,-3.86155893936738,5.00960827388648,0.744369163156931,0.0449856558627846,0.0327778795092474,-0.665506927913081,-1.06,0.22,9.74
15.493651,180,180,2.7832,0,0,83.375,-3.10653586462759,5.02550344958418,0.745528901910517,0.0379661844595007,0.0349752792528841,-0.664591344686565,-1,0.09,9.75
15.5131566,180,180,2.7832,0,0,83.125,-2.96679943864353,5.02327157745472,0.747237990600012,0.0371726789965208,0.0352804736617225,-0.662699139351767,-0.99,0.07,9.75
15.5290359,180,180,2.7832,0,0,83.125,-2.77072206783996,5.04809424167028,0.747237990600012,0.035768784715864,0.0356467069523286,-0.662699139351767,-0.98,0.04,9.75
15.6288542,180,180,3.0184,0,0,83.125,-2.07203993791967,5.03693488102297,0.747421107245315,0.0292376243667216,0.0375389122871269,-0.662760178233535,-0.92,-0.06,9.76
15.6488183,180,180,3.0184,0,0,83.125,-1.93230351193562,5.0347030088935,0.747421107245315,0.0280778856131356,0.0378441066959653,-0.662760178233535,-0.91,-0.08,9.76
15.6658144,180,180,3.0184,0,0,83.125,-1.79256708595156,5.03247113676404,0.747421107245315,0.0269181468595495,0.0381493011048038,-0.662760178233535,-0.9,-0.1,9.76
15.7738243,180,180,3.4594,0,0,83.125,-1.17728043719582,5.05059818459121,0.747482146127083,0.0220350363181347,0.0396142342672282,-0.66288225599707,-0.86,-0.19,9.76
15.7936775,180,180,3.4594,0,0,83.125,-1.09388495603128,5.02131177611672,0.747421107245315,0.0214246475004578,0.039858389794299,-0.66288225599707,-0.86,-0.2,9.76
15.8097904,180,180,3.4594,0,0,83.125,-1.09388495603128,5.02131177611672,0.747421107245315,0.021180491973387,0.0399194286760667,-0.66288225599707,-0.86,-0.2,9.76
15.9188468,180,180,3.6358,0,0,82.1875,-0.897807585227707,5.04613444033228,0.752731489959104,0.0191051699932857,0.0405908563755112,-0.656839406702069,-0.84,-0.24,9.76
15.9368645,180,180,3.6358,0,0,82.1875,-0.897807585227707,5.04613444033228,0.752731489959104,0.0191051699932857,0.0405908563755112,-0.656900445583837,-0.84,-0.24,9.76
15.9518582,180,180,3.6358,0,0,81.9375,-0.897807585227707,5.04613444033228,0.754135384239761,0.0191051699932857,0.0406518952572789,-0.655252395776109,-0.84,-0.23,9.76
15.9679998,180,180,3.773,0,0,81.9375,-0.897807585227707,5.04613444033228,0.754135384239761,0.0192272477568211,0.0406518952572789,-0.655252395776109,-0.84,-0.23,9.76
16.0677314,180,180,3.8612,0,0,81.3125,-1.17728043719582,5.05059818459121,0.757553561618751,0.0211194530916194,0.0402856619666728,-0.65128486846121,-0.87,-0.19,9.76
16.0891478,180,180,3.8612,0,0,81.375,-1.23362138201534,5.02354364824618,0.757492522736983,0.0217908807910639,0.0401025453213697,-0.65128486846121,-0.87,-0.18,9.76
16.1047856,180,180,3.8612,0,0,81.1875,-1.31701686317988,5.05283005672067,0.758347067081731,0.0225233473722761,0.0399804675578343,-0.650308246352927,-0.88,-0.17,9.76
16.2017187,180,180,3.8808,0,0,81.0625,-1.8759625671161,5.06175754523853,0.759079533662943,0.0273454190319233,0.038881767686016,-0.649331624244644,-0.92,-0.08,9.76
16.2207951,180,180,3.8808,0,0,81.0625,-2.01569899310016,5.06398941736799,0.759018494781176,0.0285051577855094,0.0385765732771776,-0.649392663126412,-0.93,-0.06,9.76
16.2367184,180,180,3.8416,0,0,81.0625,-2.0990944742647,5.09327582584248,0.759018494781176,0.0290545077214185,0.0384544955136422,-0.649392663126412,-0.94,-0.04,9.76
16.3417819,180,180,3.7436,0,0,81.125,-2.88117208534952,5.13372159496429,0.75865226149057,0.0359519013611671,0.0366843679423793,-0.649575779771715,-1,0.06,9.75
16.3627634,180,180,3.7436,0,0,81.125,-3.02090851133358,5.13595346709375,0.758591222608802,0.0372947567600562,0.0363181346517732,-0.649575779771715,-1.01,0.09,9.75
16.3799409,180,180,3.7436,0,0,81.125,-3.16064493731764,5.13818533922322,0.758530183727034,0.0385765732771776,0.0360129402429347,-0.649575779771715,-1.02,0.11,9.75
16.4818025,180,180,3.6064,0,0,81.1875,-3.97200895687695,5.09523562718048,0.757797717145822,0.0452298113898553,0.0342428126716719,-0.650064090825856,-1.08,0.23,9.74
16.49986,180,180,3.6064,0,0,81.25,-4.05540443804149,5.12452203565497,0.757431483855216,0.0465726667887444,0.0338155404992981,-0.650430324116462,-1.09,0.26,9.74
16.5149904,180,180,3.6064,0,0,81.25,-4.11174538286101,5.09746749930994,0.757431483855216,0.0471830556064213,0.033632423853995,-0.650430324116462,-1.1,0.28,9.73
16.6139153,180,180,3.2046,0,0,81.875,-4.95016393876535,5.11085873208673,0.753647073185619,0.0537142159555637,0.0317402185191967,-0.654397851431362,-1.16,0.39,9.72
16.6341401,180,180,3.2046,0,0,81.9375,-5.0899003647494,5.11309060421619,0.753586034303852,0.0548739547091497,0.0314350241103583,-0.654397851431362,-1.17,0.41,9.72
16.6509561,180,180,3.2046,0,0,81.9375,-5.14624130956892,5.08603606787116,0.753586034303852,0.0554233046450589,0.0312519074650552,-0.654397851431362,-1.17,0.41,9.72
16.7758504,180,180,2.9792,0,0,82.8125,-5.87197797583423,5.153536373338,0.74809253494476,0.0625038149301105,0.0289934688396509,-0.660074467435757,-1.23,0.54,9.71
16.7948597,180,180,2.9792,0,0,82.8125,-6.01171440181828,5.15576824546746,0.74809253494476,0.0628700482207166,0.0289324299578832,-0.660074467435757,-1.23,0.54,9.71
16.8109496,180,180,2.7636,0,0,83.0625,-6.0680553466378,5.12871370912244,0.746566562900568,0.0636025148019288,0.0285661966672771,-0.661722517243484,-1.24,0.56,9.71
16.9198248,180,180,2.5774,0,0,83.5,-6.34752819860591,5.13317745338136,0.743880852102789,0.0659830311908686,0.0275895745589941,-0.664530305804798,-1.26,0.6,9.7
16.93793,180,180,2.5774,0,0,83.5,-6.40386914342543,5.10612291703634,0.743880852102789,0.0661661478361716,0.0275895745589941,-0.664530305804798,-1.26,0.6,9.7
16.964017,180,180,2.5774,0,0,83.75,-6.40386914342543,5.10612291703634,0.742415918940365,0.0663492644814747,0.0275285356772264,-0.666178355612525,-1.26,0.6,9.7
17.072013,180,180,2.4304,0,0,84.125,-6.26413271744137,5.10389104490687,0.740462674723799,0.0651895257278887,0.0277116523225295,-0.66843679423793,-1.25,0.58,9.7
17.1031698,180,180,2.3324,0,0,84.125,-6.20779177262186,5.1309455812519,0.740523713605567,0.0646401757919795,0.0278337300860648,-0.66843679423793,-1.25,0.57,9.7
17.2229982,180,180,2.2932,0,0,84.3125,-5.59250512386611,5.14907262907907,0.739730208142587,0.0592687541964231,0.0292376243667216,-0.669779649636819,-1.2,0.47,9.72
17.2428367,180,180,2.2932,0,0,84.3125,-5.45276869788206,5.14684075694961,0.739730208142587,0.0587804431422816,0.029359702130257,-0.669779649636819,-1.19,0.46,9.72
17.2591711,180,180,2.2932,0,0,84.25,-5.36937321671752,5.11755434847512,0.739791247024355,0.0578038210339987,0.0296648965390954,-0.669779649636819,-1.18,0.44,9.72
17.3898618,180,180,2.4108,0,0,84.1875,-4.53095466081318,5.10416311569834,0.740523713605567,0.0506012329854117,0.031679179637429,-0.66947445522798,-1.12,0.31,9.73
17.4098243,180,180,2.4108,0,0,84.125,-4.39121823482912,5.10193124356887,0.741012024659708,0.0494414942318257,0.0320454129280352,-0.668986144173839,-1.11,0.29,9.73
17.425851,180,180,2.4108,0,0,84.125,-4.25148180884506,5.09969937143941,0.741073063541476,0.048220716596472,0.0324116462186413,-0.668986144173839,-1.1,0.27,9.74
17.5309889,180,180,2.5578,0,0,83.9375,-3.49645873410527,5.11559454713712,0.742232802295062,0.0418726728926326,0.0342428126716719,-0.668070560947323,-1.04,0.14,9.75
17.5512535,180,180,2.7342,0,0,83.9375,-3.27332682695667,5.08407626653316,0.742232802295062,0.0405908563755112,0.034609045962278,-0.668070560947323,-1.03,0.13,9.75
17.5679125,180,180,2.7342,0,0,83.9375,-3.13359040097261,5.0818443944037,0.74229384117683,0.0393090398583898,0.0349752792528841,-0.668070560947323,-1.02,0.11,9.75
17.6758955,180,180,2.9498,0,0,83.9375,-2.43490827105233,5.07068503375638,0.742476957822133,0.0325337239821766,0.0368674845876824,-0.668131599829091,-0.96,0,9.75
