Time (s),Setpoint (deg),Motor Position (deg),Tension 1 (N),Tension 2 (N),Tension 3 (N),Heading (deg),Pitch (deg),Roll (deg),Quaternion W,Quaternion X,Quaternion Y,Quaternion Z,Gravity X,Gravity Y,Gravity Z
0,0,0,0,0,0,0,0,0,0,0,0,0,0,0,0
0.0161874,0,-0.45,0.0196,0,0,67.1875,4.71247837676497,5.77267680963715,0.831105414148813,-0.0362570957700055,0.0542635658914729,-0.552401879997558,-0.49,-1.17,9.72
0.0411269,0,0,0.0196,0,0,67.1875,4.71247837676497,5.77267680963715,0.831105414148813,-0.0362570957700055,0.0542635658914729,-0.552401879997558,-0.49,-1.17,9.72
0.0590529,0,0,0.0196,0,0,67.1875,4.71247837676497,5.77267680963715,0.831105414148813,-0.0362570957700055,0.0542635658914729,-0.552401879997558,-0.49,-1.17,9.72
0.1600528,0,0,0.0294,0,0,67.1875,4.71247837676497,5.77267680963715,0.831105414148813,-0.0362570957700055,0.0542635658914729,-0.552401879997558,-0.49,-1.17,9.72
0.1840903,0,0,0.0294,0,0,67.1875,4.71247837676497,5.77267680963715,0.831105414148813,-0.0362570957700055,0.0542635658914729,-0.552401879997558,-0.49,-1.17,9.72
0.2050401,0,0,0.0294,0,0,67.1875,4.71247837676497,5.77267680963715,0.831105414148813,-0.0362570957700055,0.0542635658914729,-0.552401879997558,-0.49,-1.17,9.72
0.3031725,0,0,0.0294,0,0,67.1875,4.71247837676497,5.77267680963715,0.831105414148813,-0.0362570957700055,0.0542635658914729,-0.552401879997558,-0.49,-1.17,9.72
0.3290487,0,0,0.0294,0,0,67.1875,4.71247837676497,5.77267680963715,0.831105414148813,-0.0362570957700055,0.0542635658914729,-0.552401879997558,-0.49,-1.17,9.72
0.3449375,0,0,0.0294,0,0,67.1875,4.71247837676497,5.77267680963715,0.831105414148813,-0.0362570957700055,0.0542635658914729,-0.552401879997558,-0.49,-1.17,9.72
0.3609435,0,0,0.0294,0,0,67.1875,4.71247837676497,5.77267680963715,0.831105414148813,-0.0362570957700055,0.0542635658914729,-0.552401879997558,-0.49,-1.17,9.72
0.3779757,0,0,0.0294,0,0,67.1875,4.71247837676497,5.77267680963715,0.831105414148813,-0.0362570957700055,0.0542635658914729,-0.552401879997558,-0.49,-1.17,9.72
0.3939244,0,0,0.0294,0,0,67.1875,4.71247837676497,5.77267680963715,0.831105414148813,-0.0362570957700055,0.0542635658914729,-0.552401879997558,-0.49,-1.17,9.72
0.4081455,0,0,0.0294,0,0,67.1875,4.71247837676497,5.77267680963715,0.831105414148813,-0.0362570957700055,0.0542635658914729,-0.552401879997558,-0.49,-1.17,9.72
0.4249858,0,0,0.0294,0,0,67.1875,4.71247837676497,5.77267680963715,0.831105414148813,-0.0362570957700055,0.0542635658914729,-0.552401879997558,-0.49,-1.17,9.72
0.4410672,0,0,0.0294,0,0,67.1875,4.71247837676497,5.77267680963715,0.831105414148813,-0.0362570957700055,0.0542635658914729,-0.552401879997558,-0.49,-1.17,9.72
0.5289704,0,0,0.0196,0,0,67.1875,4.71247837676497,5.77267680963715,0.831105414148813,-0.0361960568882378,0.0543246047732406,-0.552401879997558,-0.49,-1.17,9.72
0.6290409,0,0,0.0196,0,0,67.1875,4.71247837676497,5.77267680963715,0.831044375267045,-0.0361350180064701,0.0544466825367759,-0.552401879997558,-0.49,-1.17,9.72
0.6469418,0,0,0.0196,0,0,67.1875,4.71247837676497,5.77267680963715,0.831044375267045,-0.0361350180064701,0.0544466825367759,-0.552401879997558,-0.49,-1.17,9.72
0.6620377,0,0,0.0196,0,0,67.1875,4.71247837676497,5.77267680963715,0.831044375267045,-0.0361350180064701,0.0544466825367759,-0.552401879997558,-0.49,-1.17,9.72
0.6771686,0,0,0.0196,0,0,67.1875,4.71247837676497,5.77267680963715,0.831044375267045,-0.0361350180064701,0.0544466825367759,-0.552401879997558,-0.49,-1.17,9.72
0.7751679,0,0,0.0098,0,0,67.1875,4.71247837676497,5.77267680963715,0.831044375267045,-0.0361350180064701,0.0544466825367759,-0.552401879997558,-0.49,-1.17,9.72
0.7951297,0,0,0.0098,0,0,67.1875,4.71247837676497,5.77267680963715,0.831044375267045,-0.0361350180064701,0.0544466825367759,-0.552401879997558,-0.49,-1.17,9.72
0.8120388,0,0,0.0098,0,0,67.1875,4.71247837676497,5.77267680963715,0.831044375267045,-0.0361350180064701,0.0544466825367759,-0.552401879997558,-0.49,-1.17,9.72
0.9112231,0,0,0.0098,0,0,67.1875,4.71247837676497,5.77267680963715,0.831044375267045,-0.0361350180064701,0.0544466825367759,-0.552401879997558,-0.49,-1.17,9.72
0.9292237,0,0,0.0098,0,0,67.1875,4.71247837676497,5.77267680963715,0.831044375267045,-0.0361350180064701,0.0544466825367759,-0.552401879997558,-0.49,-1.17,9.72
0.9451836,0,0,0.0098,0,0,67.1875,4.71247837676497,5.77267680963715,0.831044375267045,-0.0361350180064701,0.0544466825367759,-0.552401879997558,-0.49,-1.17,9.72
1.0420202,0,0,0.0098,0,0,67.1875,4.71247837676497,5.77267680963715,0.831044375267045,-0.0361350180064701,0.0544466825367759,-0.552401879997558,-0.49,-1.17,9.72
1.0600846,0,0,0.0098,0,0,67.1875,4.71247837676497,5.77267680963715,0.831044375267045,-0.0361350180064701,0.0544466825367759,-0.552401879997558,-0.49,-1.17,9.72
1.0750149,0,0,0.0098,0,0,67.1875,4.71247837676497,5.77267680963715,0.831044375267045,-0.0361350180064701,0.0544466825367759,-0.552401879997558,-0.49,-1.17,9.72
1.0902684,0,0,0.0098,0,0,67.1875,4.71247837676497,5.77267680963715,0.831044375267045,-0.0361350180064701,0.0544466825367759,-0.552401879997558,-0.49,-1.17,9.72
1.188933,0,0,0.0098,0,0,67.1875,4.71247837676497,5.77267680963715,0.831044375267045,-0.0361350180064701,0.0544466825367759,-0.552401879997558,-0.49,-1.17,9.72
1.2063695,0,0,0.0098,0,0,67.1875,4.71247837676497,5.77267680963715,0.831044375267045,-0.0361350180064701,0.0544466825367759,-0.552401879997558,-0.49,-1.17,9.72
1.2210013,0,0,0.0098,0,0,67.1875,4.71247837676497,5.77267680963715,0.831044375267045,-0.0361350180064701,0.0544466825367759,-0.552401879997558,-0.49,-1.17,9.72
1.2370625,0,0,0.0098,0,0,67.1875,4.71247837676497,5.77267680963715,0.831044375267045,-0.0361350180064701,0.0544466825367759,-0.552401879997558,-0.49,-1.17,9.72
1.3382158,0,0,0.0098,0,0,67.1875,4.71247837676497,5.77267680963715,0.831044375267045,-0.0361350180064701,0.0544466825367759,-0.552401879997558,-0.49,-1.17,9.72
1.3552645,0,0,0.0098,0,0,67.1875,4.71247837676497,5.77267680963715,0.831044375267045,-0.0361350180064701,0.0544466825367759,-0.552401879997558,-0.49,-1.17,9.72
1.3730728,0,0,0.0098,0,0,67.1875,4.71247837676497,5.77267680963715,0.831044375267045,-0.0361350180064701,0.0544466825367759,-0.552401879997558,-0.49,-1.17,9.72
1.4720006,0,0,0.0098,0,0,67.1875,4.71247837676497,5.77267680963715,0.831105414148813,-0.0361960568882378,0.0543246047732406,-0.552401879997558,-0.49,-1.17,9.72
1.4900397,0,0,0.0098,0,0,67.1875,4.71247837676497,5.77267680963715,0.831105414148813,-0.0361960568882378,0.0543246047732406,-0.552401879997558,-0.49,-1.17,9.72
1.5071964,0,0,0.0098,0,0,67.1875,4.71247837676497,5.77267680963715,0.831105414148813,-0.0362570957700055,0.0543246047732406,-0.552401879997558,-0.49,-1.17,9.72
1.6149668,0,0,0.0098,0,0,67.1875,4.74189737252531,5.71753360798497,0.831105414148813,-0.0363181346517732,0.0542025270097052,-0.552401879997558,-0.48,-1.17,9.72
1.6311938,0,0,0.0098,0,0,67.1875,4.74189737252531,5.71753360798497,0.831105414148813,-0.0363791735335409,0.0541414881279375,-0.552401879997558,-0.48,-1.17,9.72
1.6481269,0,0,0.0098,0,0,67.1875,4.74189737252531,5.71753360798497,0.831105414148813,-0.0363791735335409,0.0541414881279375,-0.552401879997558,-0.48,-1.17,9.72
1.7481589,0,0,0.0098,0,0,67.1875,4.74189737252531,5.71753360798497,0.831105414148813,-0.0363791735335409,0.0540804492461698,-0.552401879997558,-0.48,-1.17,9.72
1.7663189,0,0,0.0098,0,0,67.1875,4.74189737252531,5.71753360798497,0.831105414148813,-0.0363791735335409,0.0540804492461698,-0.552401879997558,-0.48,-1.17,9.72
1.7812859,0,0,0.0098,0,0,67.1875,4.74189737252531,5.71753360798497,0.831105414148813,-0.0363791735335409,0.0540804492461698,-0.552401879997558,-0.48,-1.17,9.72
1.7961649,0,0,0.0098,0,0,67.1875,4.74189737252531,5.71753360798497,0.831105414148813,-0.0363791735335409,0.0540804492461698,-0.552401879997558,-0.48,-1.17,9.72
1.8939313,0,0,0.0196,0,0,67.1875,4.74189737252531,5.71753360798497,0.831105414148813,-0.0363791735335409,0.0540804492461698,-0.552401879997558,-0.48,-1.17,9.72
1.911032,0,0,0.0196,0,0,67.1875,4.74189737252531,5.71753360798497,0.831105414148813,-0.0363791735335409,0.0540804492461698,-0.552401879997558,-0.48,-1.17,9.72
1.9260304,0,0,0.0196,0,0,67.1875,4.74189737252531,5.71753360798497,0.831105414148813,-0.0363791735335409,0.0540804492461698,-0.552401879997558,-0.48,-1.17,9.72
1.9401804,0,0,0.0196,0,0,67.1875,4.74189737252531,5.71753360798497,0.831105414148813,-0.0363791735335409,0.0540804492461698,-0.552401879997558,-0.48,-1.17,9.72
2.0401489,0,0,0.0196,0,0,67.1875,4.74189737252531,5.71753360798497,0.831105414148813,-0.0363791735335409,0.0540804492461698,-0.552401879997558,-0.48,-1.17,9.72
2.0591074,0,0,0.0196,0,0,67.1875,4.74189737252531,5.71753360798497,0.831105414148813,-0.0363791735335409,0.0540804492461698,-0.552401879997558,-0.48,-1.17,9.72
2.0763864,0,0,0.0196,0,0,67.1875,4.74189737252531,5.71753360798497,0.831105414148813,-0.0363791735335409,0.0540804492461698,-0.552401879997558,-0.48,-1.17,9.72
2.1730115,0,0,0.0294,0,0,67.1875,4.74189737252531,5.71753360798497,0.831105414148813,-0.0363791735335409,0.0540804492461698,-0.552401879997558,-0.48,-1.17,9.72
2.1921533,0,0,0.0294,0,0,67.1875,4.74189737252531,5.71753360798497,0.831105414148813,-0.0363791735335409,0.0540804492461698,-0.552401879997558,-0.48,-1.17,9.72
2.2072333,0,0,0.0294,0,0,67.1875,4.74189737252531,5.71753360798497,0.831105414148813,-0.0363791735335409,0.0540804492461698,-0.552401879997558,-0.48,-1.17,9.72
2.2222362,0,0,0.0294,0,0,67.1875,4.74189737252531,5.71753360798497,0.831105414148813,-0.0363791735335409,0.0540804492461698,-0.552401879997558,-0.48,-1.17,9.72
2.3191766,0,0,0.0294,0,0,67.1875,4.74189737252531,5.71753360798497,0.831105414148813,-0.0363791735335409,0.0540804492461698,-0.552401879997558,-0.48,-1.17,9.72
2.3374044,0,0,0.0294,0,0,67.1875,4.74189737252531,5.71753360798497,0.831105414148813,-0.0363791735335409,0.0540804492461698,-0.552401879997558,-0.48,-1.17,9.72
2.3531787,0,0,0.0294,0,0,67.1875,4.74189737252531,5.71753360798497,0.831105414148813,-0.0363791735335409,0.0540804492461698,-0.552401879997558,-0.48,-1.17,9.72
2.450067,0,0,0.0196,0,0,67.1875,4.74189737252531,5.71753360798497,0.831105414148813,-0.0363791735335409,0.0540804492461698,-0.552401879997558,-0.48,-1.17,9.72
2.4691294,0,0,0.0196,0,0,67.1875,4.74189737252531,5.71753360798497,0.831105414148813,-0.0363791735335409,0.0540804492461698,-0.552401879997558,-0.48,-1.17,9.72
2.4853699,0,0,0.0196,0,0,67.1875,4.74189737252531,5.71753360798497,0.831105414148813,-0.0363791735335409,0.0540804492461698,-0.552401879997558,-0.48,-1.17,9.72
2.5831501,0,0,0.0196,0,0,67.1875,4.74189737252531,5.71753360798497,0.831105414148813,-0.0363791735335409,0.0540804492461698,-0.552401879997558,-0.48,-1.17,9.72
2.6020944,0,0,0.0196,0,0,67.1875,4.74189737252531,5.71753360798497,0.831105414148813,-0.0363791735335409,0.0540804492461698,-0.552401879997558,-0.48,-1.17,9.72
2.6169831,0,0,0.0196,0,0,67.1875,4.74189737252531,5.71753360798497,0.831105414148813,-0.0363791735335409,0.0540804492461698,-0.552401879997558,-0.48,-1.17,9.72
2.6320401,0,0,0.0196,0,0,67.1875,4.74189737252531,5.71753360798497,0.831105414148813,-0.0363791735335409,0.0540804492461698,-0.552401879997558,-0.48,-1.17,9.72
2.7300175,0,0,0.0196,0,0,67.1875,4.74189737252531,5.71753360798497,0.831105414148813,-0.0363791735335409,0.0540804492461698,-0.552401879997558,-0.48,-1.17,9.72
2.7481196,0,0,0.0098,0,0,67.1875,4.74189737252531,5.71753360798497,0.831105414148813,-0.0363791735335409,0.0540804492461698,-0.552401879997558,-0.48,-1.17,9.72
2.7619966,0,0,0.0098,0,0,67.1875,4.74189737252531,5.71753360798497,0.831105414148813,-0.0363791735335409,0.0540804492461698,-0.552401879997558,-0.48,-1.17,9.72
2.7751758,0,0,0.0098,0,0,67.1875,4.74189737252531,5.71753360798497,0.831105414148813,-0.0363791735335409,0.0540804492461698,-0.552401879997558,-0.48,-1.17,9.72
2.8781203,0,0,0.0098,0,0,67.1875,4.74189737252531,5.71753360798497,0.831105414148813,-0.0363791735335409,0.0540804492461698,-0.552401879997558,-0.48,-1.17,9.72
2.896209,0,0,0.0098,0,0,67.1875,4.74189737252531,5.71753360798497,0.831105414148813,-0.0363791735335409,0.0540804492461698,-0.552401879997558,-0.48,-1.17,9.72
2.9120134,0,0,0.0098,0,0,67.1875,4.74189737252531,5.71753360798497,0.831105414148813,-0.0363791735335409,0.0540804492461698,-0.552401879997558,-0.48,-1.17,9.72
3.0100001,90,0,0.0098,0,0,67.1875,4.74189737252531,5.71753360798497,0.831105414148813,-0.0363791735335409,0.0540804492461698,-0.552401879997558,-0.48,-1.17,9.72
3.0301598,90,1.35,0.0098,0,0,67.1875,4.74189737252531,5.71753360798497,0.831105414148813,-0.0363791735335409,0.0540804492461698,-0.552401879997558,-0.48,-1.17,9.72
3.0483193,90,3.15,0.0098,0,0,67.1875,4.74189737252531,5.71753360798497,0.831105414148813,-0.0363791735335409,0.0540804492461698,-0.552401879997558,-0.48,-1.17,9.72
3.1492644,90,33.75,0.3136,0,0,67.1875,4.74189737252531,5.71753360798497,0.831105414148813,-0.0363791735335409,0.0540804492461698,-0.552401879997558,-0.48,-1.17,9.72
3.168092,90,43.2,0.5194,0,0,67.1875,4.74189737252531,5.71753360798497,0.831105414148813,-0.0363791735335409,0.0540804492461698,-0.552401879997558,-0.48,-1.17,9.72
3.1841641,90,51.75,0.637,0,0,67.1875,4.74189737252531,5.71753360798497,0.831105414148813,-0.0363791735335409,0.0540804492461698,-0.552401879997558,-0.48,-1.17,9.72
3.2851033,90,85.95,1.6072,0,0,67.1875,4.74189737252531,5.71753360798497,0.831044375267045,-0.0366233290606116,0.0540804492461698,-0.552401879997558,-0.48,-1.18,9.72
3.3041791,90,88.2,1.7346,0,0,67.1875,4.74189737252531,5.71753360798497,0.831044375267045,-0.0366233290606116,0.0540194103644021,-0.552462918879326,-0.48,-1.18,9.72
3.3191826,90,89.55,1.7836,0,0,67.1875,4.74189737252531,5.71753360798497,0.831044375267045,-0.0366233290606116,0.0540194103644021,-0.552462918879326,-0.48,-1.18,9.72
3.3350213,90,90,1.8228,0,0,67.1875,4.74189737252531,5.71753360798497,0.831044375267045,-0.0366843679423793,0.0539583714826344,-0.552462918879326,-0.48,-1.18,9.72
3.4400934,90,90,1.8032,0,0,67.1875,4.68675417087312,5.68811461222463,0.831044375267045,-0.0361350180064701,0.0537752548373314,-0.552584996642862,-0.48,-1.16,9.72
3.4591561,90,90,1.7836,0,0,67.1875,4.68675417087312,5.68811461222463,0.830983336385277,-0.0356467069523286,0.0537752548373314,-0.552584996642862,-0.49,-1.16,9.72
3.4763988,90,90,1.7738,0,0,67.1875,4.63161096922094,5.6586956164643,0.830983336385277,-0.0354635903070256,0.0537142159555637,-0.552646035524629,-0.49,-1.15,9.72
3.5770373,90,90,1.6562,0,0,67.25,4.3227811753312,5.70644923837952,0.830983336385277,-0.0329609961545504,0.0534700604284929,-0.552829152169932,-0.51,-1.11,9.72
3.5941828,90,90,1.6268,0,0,67.25,4.26763797367901,5.67703024261919,0.830983336385277,-0.0320454129280352,0.0533479826649576,-0.5528901910517,-0.52,-1.1,9.73
3.607157,90,90,1.6072,0,0,67.25,4.1830757762665,5.70275444851104,0.830983336385277,-0.0317402185191967,0.0532869437831899,-0.5528901910517,-0.52,-1.09,9.73
3.6212354,90,90,1.5876,0,0,67.25,4.1830757762665,5.70275444851104,0.830983336385277,-0.0313739852285906,0.0532259049014222,-0.552951229933468,-0.52,-1.08,9.73
3.7220412,90,90,1.4602,0,0,67.25,3.76395957907239,5.69167007890559,0.831044375267045,-0.0278337300860648,0.0527986327290484,-0.553134346578771,-0.55,-1.02,9.73
3.7401098,90,90,1.4308,0,0,67.25,3.7088163774202,5.66225108314526,0.831044375267045,-0.0271623023866203,0.052676554965513,-0.553195385460538,-0.56,-1.01,9.73
3.7561621,90,90,1.4112,0,0,67.25,3.62425418000769,5.68797528903711,0.831044375267045,-0.0263687969236404,0.0525544772019777,-0.553256424342306,-0.57,-1,9.73
3.851256,90,90,1.274,0,0,67.3125,3.23455697857391,5.62174771777948,0.831044375267045,-0.0231947750717207,0.0521882439113715,-0.553439540987609,-0.6,-0.93,9.74
3.8701833,90,90,1.2544,0,0,67.3125,3.14999478116139,5.64747192367133,0.831044375267045,-0.0225233473722761,0.0520661661478362,-0.553439540987609,-0.6,-0.93,9.74
3.885264,90,90,1.2446,0,0,67.3125,3.06543258374888,5.67319612956318,0.831044375267045,-0.0218519196728316,0.0520051272660685,-0.553500579869377,-0.61,-0.92,9.74
3.9004398,90,90,1.2152,0,0,67.3125,3.01028938209669,5.64377713380285,0.831044375267045,-0.0214856863822255,0.0520051272660685,-0.553500579869377,-0.61,-0.91,9.74
3.9959998,90,90,1.1074,0,0,67.3125,2.64631638655477,5.66211175995774,0.831044375267045,-0.0184337422938412,0.0517609717389977,-0.553622657632912,-0.64,-0.86,9.74
4.0141939,90,90,1.0878,0,0,67.3125,2.64631638655477,5.66211175995774,0.831044375267045,-0.017884392357932,0.0517609717389977,-0.553622657632912,-0.64,-0.85,9.74
4.0302015,90,90,1.078,0,0,67.3125,2.56175418914225,5.68783596584959,0.831044375267045,-0.0176402368308613,0.0517609717389977,-0.55368369651468,-0.65,-0.84,9.74
4.0461867,90,90,1.0682,0,0,67.3125,2.50661098749007,5.65841697008926,0.831044375267045,-0.0171519257767198,0.0517609717389977,-0.55368369651468,-0.65,-0.84,9.74
4.1411441,90,90,1.0094,0,0,67.3125,2.28234339101285,5.68044638611263,0.831044375267045,-0.0151376426783861,0.0516999328572301,-0.55368369651468,-0.67,-0.8,9.74
4.1611829,90,90,0.9996,0,0,67.3125,2.28234339101285,5.68044638611263,0.831044375267045,-0.0150155649148508,0.0516999328572301,-0.553744735396448,-0.68,-0.8,9.74
4.1771786,90,90,0.9996,0,0,67.3125,2.28234339101285,5.68044638611263,0.831044375267045,-0.01477140938778,0.0516388939754624,-0.553744735396448,-0.68,-0.8,9.75
4.274024,90,90,0.9898,0,0,67.3125,2.19778119360033,5.70617059200448,0.831044375267045,-0.0140999816883355,0.0518220106207654,-0.55368369651468,-0.69,-0.79,9.75
4.2932204,90,90,0.9898,0,0,67.3125,2.19778119360033,5.70617059200448,0.831044375267045,-0.0140389428065678,0.0518830495025331,-0.55368369651468,-0.69,-0.79,9.74
4.3111307,90,90,0.9898,0,0,67.3125,2.19778119360033,5.70617059200448,0.831044375267045,-0.0140389428065678,0.0519440883843008,-0.55368369651468,-0.69,-0.79,9.74
4.407026,90,90,1.0388,0,0,67.3125,2.25292439525251,5.73558958776481,0.831105414148813,-0.0150155649148508,0.0521272050296039,-0.553561618751145,-0.68,-0.81,9.74
4.4252444,90,90,1.0486,0,0,67.3125,2.3080675969047,5.76500858352514,0.831105414148813,-0.0151376426783861,0.0521272050296039,-0.553561618751145,-0.68,-0.81,9.74
4.4411055,90,90,1.0584,0,0,67.3125,2.33748659266503,5.70986538187296,0.831105414148813,-0.0156869926142953,0.0521882439113715,-0.553500579869377,-0.68,-0.82,9.74
4.4563095,90,90,1.0682,0,0,67.3125,2.39262979431722,5.73928437763329,0.831105414148813,-0.0158701092595984,0.0521882439113715,-0.553500579869377,-0.67,-0.82,9.74
4.5572156,90,90,1.1662,0,0,67.25,2.67204059244662,5.74667395737026,0.83116645303058,-0.0184337422938412,0.05249343832021,-0.553317463224074,-0.65,-0.86,9.74
4.5772802,90,90,1.1956,0,0,67.25,2.72718379409881,5.77609295313059,0.83116645303058,-0.019044131111518,0.0525544772019777,-0.553317463224074,-0.64,-0.88,9.74
4.5933387,90,90,1.2054,0,0,67.25,2.81174599151132,5.75036874723874,0.83116645303058,-0.0196545199291949,0.0526155160837453,-0.553256424342306,-0.64,-0.89,9.74
4.6911757,90,90,1.3426,0,0,67.25,3.17571898705325,5.73203412108385,0.831227491912348,-0.0228285417811146,0.0528596716108161,-0.553073307697003,-0.61,-0.95,9.74
4.7102694,90,90,1.3524,0,0,67.25,3.26028118446576,5.706309915192,0.831227491912348,-0.0236220472440945,0.0529207104925838,-0.553012268815235,-0.6,-0.95,9.74
4.7262205,90,90,1.3916,0,0,67.25,3.37056758777013,5.76514790671267,0.831227491912348,-0.0243545138253067,0.0529817493743515,-0.553012268815235,-0.6,-0.97,9.73
4.824092,90,90,1.5092,0,0,67.25,3.73454058331206,5.74681328055778,0.831227491912348,-0.0280778856131356,0.0533479826649576,-0.552768113288165,-0.56,-1.03,9.73
4.8442324,90,90,1.5386,0,0,67.1875,3.81910278072457,5.72108907466593,0.831227491912348,-0.0288103521943478,0.0534700604284929,-0.552707074406397,-0.55,-1.04,9.73
4.8634026,90,90,1.5582,0,0,67.1875,3.95880817978928,5.72478386453441,0.831227491912348,-0.0291765854849539,0.0534700604284929,-0.552707074406397,-0.55,-1.06,9.73
4.9691729,90,90,1.6758,0,0,67.1875,4.37792437698338,5.73586823413985,0.83116645303058,-0.0331441127998535,0.0539583714826344,-0.552523957761094,-0.52,-1.12,9.72
4.9892105,90,90,1.6954,0,0,67.1875,4.43306757863557,5.76528722990019,0.83116645303058,-0.0338155404992981,0.0540804492461698,-0.552462918879326,-0.51,-1.13,9.72
5.0062333,90,90,1.715,0,0,67.1875,4.51762977604809,5.73956302400834,0.83116645303058,-0.0344869681987426,0.0541414881279375,-0.552401879997558,-0.5,-1.14,9.72
5.1040885,90,90,1.7836,0,0,67.1875,4.85218377582968,5.77637159950563,0.831105414148813,-0.0372947567600562,0.054629799182079,-0.552279802234023,-0.48,-1.19,9.72
5.1221286,90,90,1.7934,0,0,67.1875,4.85218377582968,5.77637159950563,0.831105414148813,-0.0377830678141976,0.0546908380638467,-0.552279802234023,-0.48,-1.2,9.71
5.138216,90,90,1.8032,0,0,67.1875,4.93674597324219,5.75064739361378,0.831105414148813,-0.0380272233412684,0.0546908380638467,-0.552279802234023,-0.47,-1.21,9.71
5.1542157,90,90,1.813,0,0,67.1875,4.99188917489438,5.78006638937412,0.831044375267045,-0.0384544955136422,0.0547518769456144,-0.552218763352255,-0.47,-1.22,9.71
5.2513152,90,90,1.8326,0,0,67.1875,5.04703237654656,5.80948538513445,0.831044375267045,-0.0390038454495514,0.054812915827382,-0.552218763352255,-0.47,-1.22,9.71
5.2702989,90,90,1.8326,0,0,67.1875,5.04703237654656,5.80948538513445,0.831044375267045,-0.0390038454495514,0.054812915827382,-0.552218763352255,-0.47,-1.22,9.71
5.2862148,90,90,1.8326,0,0,67.1875,5.04703237654656,5.80948538513445,0.831044375267045,-0.0390038454495514,0.054812915827382,-0.552218763352255,-0.47,-1.22,9.71
5.3834893,90,90,1.8032,0,0,67.1875,4.99188917489438,5.78006638937412,0.831105414148813,-0.0383934566318745,0.0544466825367759,-0.552279802234023,-0.47,-1.21,9.71
5.4034144,90,90,1.7934,0,0,67.1875,4.93674597324219,5.75064739361378,0.831105414148813,-0.0380882622230361,0.0543856436550082,-0.552279802234023,-0.47,-1.2,9.72
5.4202736,90,90,1.7836,0,0,67.1875,4.93674597324219,5.75064739361378,0.831105414148813,-0.0377830678141976,0.0543246047732406,-0.552279802234023,-0.47,-1.2,9.72
5.5162511,90,90,1.715,0,0,67.1875,4.68675417087312,5.68811461222463,0.831105414148813,-0.0358908624793994,0.0540194103644021,-0.552401879997558,-0.49,-1.17,9.72
5.5362391,90,90,1.6954,0,0,67.1875,4.6021919734606,5.71383881811649,0.831105414148813,-0.0354025514252579,0.0539583714826344,-0.552462918879326,-0.49,-1.16,9.72
5.5513886,90,90,1.6758,0,0,67.1875,4.6021919734606,5.71383881811649,0.831105414148813,-0.0348532014893487,0.0538362937190991,-0.552462918879326,-0.5,-1.15,9.72
5.6493784,90,90,1.568,0,0,67.1875,4.26763797367901,5.67703024261919,0.83116645303058,-0.0318622962827321,0.0533479826649576,-0.552646035524629,-0.52,-1.09,9.73
5.6682323,90,90,1.5484,0,0,67.1875,4.1830757762665,5.70275444851104,0.83116645303058,-0.0315571018738937,0.0532869437831899,-0.552707074406397,-0.52,-1.08,9.73
5.6852397,90,90,1.519,0,0,67.1875,4.12793257461431,5.67333545275071,0.83116645303058,-0.0309467130562168,0.0531648660196545,-0.552707074406397,-0.53,-1.08,9.73
5.783227,90,90,1.4014,0,0,67.25,3.7088163774202,5.66225108314526,0.83116645303058,-0.0275285356772264,0.052676554965513,-0.552951229933468,-0.56,-1.02,9.73
5.8021836,90,90,1.372,0,0,67.25,3.65367317576802,5.63283208738493,0.83116645303058,-0.0268571079777818,0.0526155160837453,-0.552951229933468,-0.56,-1,9.73
5.8172165,90,90,1.3622,0,0,67.25,3.62425418000769,5.68797528903711,0.83116645303058,-0.0265519135689434,0.0525544772019777,-0.553012268815235,-0.57,-0.99,9.73
5.8331587,90,90,1.3426,0,0,67.25,3.51396777670332,5.62913729751645,0.83116645303058,-0.0258804858694989,0.0524323994384423,-0.553012268815235,-0.57,-0.99,9.73
5.9322,90,90,1.2152,0,0,67.25,3.23455697857391,5.62174771777948,0.83116645303058,-0.0231947750717207,0.0520051272660685,-0.553195385460538,-0.59,-0.93,9.74
5.9512733,90,90,1.1956,0,0,67.25,3.09485157950921,5.618052927911,0.83116645303058,-0.0223402307269731,0.0518830495025331,-0.553256424342306,-0.6,-0.92,9.74
5.9671812,90,90,1.176,0,0,67.25,3.09485157950921,5.618052927911,0.83116645303058,-0.0220960751999023,0.0518220106207654,-0.553256424342306,-0.6,-0.92,9.74
6.0633694,90,90,1.0878,0,0,67.25,2.81544078137981,5.61066334817404,0.83116645303058,-0.019837636574498,0.0515778550936947,-0.553378502105841,-0.62,-0.88,9.74
6.0832578,90,90,1.078,0,0,67.25,2.81544078137981,5.61066334817404,0.83116645303058,-0.0195324421656595,0.0515778550936947,-0.553378502105841,-0.62,-0.87,9.74
6.0992626,90,90,1.0682,0,0,67.3125,2.73087858396729,5.63638755406589,0.83116645303058,-0.019044131111518,0.0515778550936947,-0.553378502105841,-0.63,-0.86,9.74
6.1963554,90,90,1.0192,0,0,67.3125,2.5360299832504,5.60327376843707,0.831227491912348,-0.0172129646584875,0.0514557773301593,-0.553439540987609,-0.65,-0.83,9.74
6.215115,90,90,1.0094,0,0,67.25,2.50661098749007,5.65841697008926,0.831227491912348,-0.0170298480131844,0.0514557773301593,-0.553439540987609,-0.65,-0.83,9.74
6.230454,90,90,1.0094,0,0,67.25,2.50661098749007,5.65841697008926,0.831227491912348,-0.0169688091314167,0.0514557773301593,-0.553439540987609,-0.65,-0.83,9.74
6.2462967,90,90,1.0094,0,0,67.25,2.50661098749007,5.65841697008926,0.831227491912348,-0.0167856924861137,0.051516816211927,-0.553439540987609,-0.65,-0.83,9.74
6.3442824,90,90,1.0094,0,0,67.25,2.42204879007755,5.68414117598111,0.831227491912348,-0.0162363425502045,0.0516999328572301,-0.553378502105841,-0.66,-0.82,9.74
6.3621145,90,90,1.0192,0,0,67.25,2.42204879007755,5.68414117598111,0.831227491912348,-0.0162973814319722,0.0516999328572301,-0.553378502105841,-0.66,-0.82,9.74
6.3782758,90,90,1.0192,0,0,67.25,2.42204879007755,5.68414117598111,0.831227491912348,-0.0163584203137399,0.0516999328572301,-0.553317463224074,-0.66,-0.82,9.74
6.4753238,90,90,1.078,0,0,67.25,2.56175418914225,5.68783596584959,0.831288530794116,-0.0174571201855582,0.0518830495025331,-0.553256424342306,-0.65,-0.84,9.74
6.494233,90,90,1.0878,0,0,67.25,2.61689739079444,5.71725496160992,0.831288530794116,-0.0178233534761643,0.0518830495025331,-0.553195385460538,-0.65,-0.85,9.74
6.5103147,90,90,1.0976,0,0,67.25,2.64631638655477,5.66211175995774,0.831288530794116,-0.0181895867667704,0.0519440883843008,-0.553195385460538,-0.64,-0.86,9.74
6.6071923,90,90,1.1956,0,0,67.25,2.92572718468417,5.6695013396947,0.831349569675884,-0.0204480253921748,0.0520661661478362,-0.553012268815235,-0.62,-0.89,9.74
6.6274203,90,90,1.2152,0,0,67.25,2.98087038633636,5.69892033545503,0.831349569675884,-0.0210584142098517,0.0521272050296039,-0.553012268815235,-0.62,-0.9,9.74
6.6462306,90,90,1.2348,0,0,67.25,3.06543258374888,5.67319612956318,0.831349569675884,-0.0216077641457608,0.0521882439113715,-0.552951229933468,-0.61,-0.91,9.74
6.7571636,90,90,1.372,0,0,67.1875,3.48454878094298,5.68428049916863,0.831349569675884,-0.025270097051822,0.05249343832021,-0.552768113288165,-0.57,-0.98,9.73
6.7755065,90,90,1.3818,0,0,67.1875,3.5691109783555,5.65855629327678,0.831349569675884,-0.0260025636330342,0.0526155160837453,-0.552707074406397,-0.57,-0.99,9.73
6.7913093,90,90,1.4112,0,0,67.1875,3.62425418000769,5.68797528903711,0.831410608557651,-0.0266739913324788,0.052676554965513,-0.552646035524629,-0.56,-1,9.73
6.889165,90,90,1.5288,0,0,67.1875,3.98822717554961,5.66964066288222,0.831349569675884,-0.0301532075932369,0.0529817493743515,-0.552462918879326,-0.53,-1.06,9.73
6.9072376,90,90,1.5582,0,0,67.1875,4.07278937296213,5.64391645699037,0.831349569675884,-0.0304584020020753,0.0530427882561191,-0.552462918879326,-0.53,-1.07,9.73
6.9231396,90,90,1.568,0,0,67.1875,4.12793257461431,5.67333545275071,0.831349569675884,-0.0311298297015199,0.0531038271378868,-0.552401879997558,-0.52,-1.08,9.73
6.9393727,90,90,1.5778,0,0,67.1875,4.1830757762665,5.70275444851104,0.831349569675884,-0.0318012574009644,0.0531648660196545,-0.552340841115791,-0.52,-1.09,9.73
7.0363226,90,90,1.6856,0,0,67.125,4.54704877180842,5.68441982235615,0.831349569675884,-0.0348532014893487,0.0535921381920283,-0.552157724470488,-0.49,-1.14,9.72
7.0553252,90,90,1.6954,0,0,67.125,4.6021919734606,5.71383881811649,0.831349569675884,-0.0351583958981871,0.053653177073796,-0.552157724470488,-0.49,-1.15,9.72
7.0712399,90,90,1.7052,0,0,67.125,4.68675417087312,5.68811461222463,0.831349569675884,-0.0357077458340963,0.0537142159555637,-0.552157724470488,-0.48,-1.16,9.72
7.1693933,90,90,1.764,0,0,67.125,4.93674597324219,5.75064739361378,0.831288530794116,-0.0379661844595007,0.0541414881279375,-0.552035646706952,-0.47,-1.2,9.72
7.188123,90,90,1.7738,0,0,67.125,4.96616496900253,5.6955041919616,0.831288530794116,-0.0383324177501068,0.0542025270097052,-0.552035646706952,-0.46,-1.21,9.72
7.2033294,90,90,1.7836,0,0,67.125,4.96616496900253,5.6955041919616,0.831227491912348,-0.0384544955136422,0.0542635658914729,-0.552035646706952,-0.46,-1.21,9.71
7.2183085,90,90,1.7836,0,0,67.125,5.02130817065471,5.72492318772193,0.831227491912348,-0.0387596899224806,0.0543246047732406,-0.551974607825185,-0.46,-1.21,9.71
7.31624,90,90,1.7934,0,0,67.125,5.0764513723069,5.75434218348227,0.831227491912348,-0.0394921565036929,0.054629799182079,-0.551974607825185,-0.46,-1.23,9.71
7.335258,90,90,1.7934,0,0,67.125,5.13159457395908,5.7837611792426,0.83116645303058,-0.0395531953854605,0.054629799182079,-0.551974607825185,-0.46,-1.23,9.71
7.3504367,90,90,1.7836,0,0,67.125,5.13159457395908,5.7837611792426,0.83116645303058,-0.0396752731489959,0.0546908380638467,-0.551974607825185,-0.46,-1.23,9.71
7.4473373,90,90,1.7542,0,0,67.125,5.02130817065471,5.72492318772193,0.831227491912348,-0.0388207288042483,0.0542025270097052,-0.552035646706952,-0.46,-1.21,9.71
7.4664087,90,90,1.7444,0,0,67.125,5.02130817065471,5.72492318772193,0.831227491912348,-0.0385155343954099,0.0541414881279375,-0.552035646706952,-0.46,-1.21,9.72
7.4823066,90,90,1.7346,0,0,67.125,4.96616496900253,5.6955041919616,0.831227491912348,-0.0383324177501068,0.0540804492461698,-0.55209668558872,-0.46,-1.21,9.72
7.5802091,90,90,1.6562,0,0,67.1875,4.74189737252531,5.71753360798497,0.831227491912348,-0.0362570957700055,0.0537752548373314,-0.552218763352255,-0.48,-1.17,9.72
7.599242,90,90,1.6366,0,0,67.1875,4.68675417087312,5.68811461222463,0.831288530794116,-0.035768784715864,0.0537142159555637,-0.552218763352255,-0.48,-1.16,9.72
7.6152824,90,90,1.6268,0,0,67.1875,4.63161096922094,5.6586956164643,0.831288530794116,-0.0352194347799548,0.053653177073796,-0.552279802234023,-0.49,-1.15,9.72
7.7131543,90,90,1.519,0,0,67.1875,4.3227811753312,5.70644923837952,0.831288530794116,-0.032655801745712,0.0532259049014222,-0.552462918879326,-0.51,-1.1,9.73
7.7302442,90,90,1.4994,0,0,67.1875,4.26763797367901,5.67703024261919,0.831288530794116,-0.0320454129280352,0.0531648660196545,-0.552462918879326,-0.51,-1.09,9.73
7.7462818,90,90,1.4896,0,0,67.1875,4.15735157037464,5.61819225109852,0.831288530794116,-0.0314350241103583,0.0530427882561191,-0.552523957761094,-0.52,-1.08,9.73
7.7622245,90,90,1.4602,0,0,67.1875,4.15735157037464,5.61819225109852,0.831288530794116,-0.0314350241103583,0.0530427882561191,-0.552523957761094,-0.52,-1.07,9.73
7.8602253,90,90,1.3524,0,0,67.1875,3.79337857483272,5.63652687725341,0.831288530794116,-0.028383080021974,0.0525544772019777,-0.552707074406397,-0.55,-1.02,9.73
7.8783379,90,90,1.323,0,0,67.1875,3.7088163774202,5.66225108314526,0.831288530794116,-0.0274674967954587,0.0524323994384423,-0.552768113288165,-0.55,-1.01,9.73
7.8954361,90,90,1.3034,0,0,67.1875,3.65367317576802,5.63283208738493,0.831288530794116,-0.0269181468595495,0.0523713605566746,-0.552768113288165,-0.56,-1,9.73
7.9933097,90,90,1.1956,0,0,67.25,3.37426237763861,5.62544250764796,0.831288530794116,-0.0244765915888421,0.0519440883843008,-0.552951229933468,-0.58,-0.95,9.74
8.0124291,90,90,1.1858,0,0,67.25,3.31911917598643,5.59602351188763,0.831288530794116,-0.0239882805347006,0.0518830495025331,-0.552951229933468,-0.58,-0.95,9.74
8.029157,90,90,1.1662,0,0,67.25,3.31911917598643,5.59602351188763,0.831288530794116,-0.0234999694805591,0.0518220106207654,-0.553012268815235,-0.58,-0.94,9.74
8.1273478,90,90,1.0878,0,0,67.25,2.95514618044451,5.61435813804252,0.831349569675884,-0.0212415308551547,0.0516388939754624,-0.553073307697003,-0.61,-0.9,9.74
8.1462249,90,90,1.078,0,0,67.25,2.90000297879232,5.58493914228218,0.831349569675884,-0.0206311420374779,0.0515778550936947,-0.553073307697003,-0.61,-0.89,9.74
8.162565,90,90,1.0682,0,0,67.25,2.90000297879232,5.58493914228218,0.831349569675884,-0.0204480253921748,0.051516816211927,-0.553073307697003,-0.61,-0.89,9.74
8.2764613,90,90,1.029,0,0,67.25,2.73087858396729,5.63638755406589,0.831410608557651,-0.0187999755844473,0.0514557773301593,-0.553073307697003,-0.63,-0.86,9.74
8.2964245,90,90,1.029,0,0,67.25,2.6757353823151,5.60696855830555,0.831410608557651,-0.0186168589391442,0.051516816211927,-0.553073307697003,-0.63,-0.86,9.74
8.3145019,90,90,1.029,0,0,67.25,2.6757353823151,5.60696855830555,0.831410608557651,-0.0185558200573765,0.051516816211927,-0.553073307697003,-0.64,-0.85,9.74
8.4191985,90,90,1.0486,0,0,67.25,2.64631638655477,5.66211175995774,0.831471647439419,-0.0181895867667704,0.0517609717389977,-0.553012268815235,-0.64,-0.85,9.74
8.4394853,90,90,1.0584,0,0,67.25,2.64631638655477,5.66211175995774,0.831471647439419,-0.0183116645303058,0.0517609717389977,-0.552951229933468,-0.64,-0.86,9.74
8.4583424,90,90,1.0682,0,0,67.1875,2.64631638655477,5.66211175995774,0.831471647439419,-0.0184947811756089,0.0517609717389977,-0.552951229933468,-0.64,-0.86,9.74
8.5562652,90,90,1.127,0,0,67.1875,2.87058398303199,5.64008234393437,0.831532686321187,-0.020020753219801,0.0518830495025331,-0.552829152169932,-0.62,-0.88,9.74
8.5754781,90,90,1.1466,0,0,67.1875,2.92572718468417,5.6695013396947,0.831532686321187,-0.0203869865104071,0.0519440883843008,-0.552768113288165,-0.62,-0.89,9.74
8.5912808,90,90,1.1564,0,0,67.1875,2.92572718468417,5.6695013396947,0.831532686321187,-0.0206311420374779,0.0519440883843008,-0.552768113288165,-0.62,-0.89,9.74
8.6922902,90,90,1.2642,0,0,67.1875,3.20513798281358,5.67689091943167,0.831532686321187,-0.0234389305987914,0.0521882439113715,-0.552584996642862,-0.59,-0.94,9.74
8.7113899,90,90,1.274,0,0,67.1875,3.2897001802261,5.65116671353981,0.831532686321187,-0.0240493194164683,0.0522492827931392,-0.552584996642862,-0.59,-0.95,9.74
8.7273138,90,90,1.3034,0,0,67.1875,3.34484338187828,5.68058570930015,0.831532686321187,-0.0243545138253067,0.0522492827931392,-0.552523957761094,-0.58,-0.96,9.74
8.8243056,90,90,1.4112,0,0,67.125,3.7088163774202,5.66225108314526,0.831593725202954,-0.0275895745589941,0.0525544772019777,-0.552340841115791,-0.55,-1.01,9.73
8.8433035,90,90,1.4308,0,0,67.125,3.79337857483272,5.63652687725341,0.831593725202954,-0.0281999633766709,0.0526155160837453,-0.552279802234023,-0.55,-1.02,9.73
8.8583843,90,90,1.4504,0,0,67.125,3.79337857483272,5.63652687725341,0.831593725202954,-0.0285661966672771,0.0526155160837453,-0.552279802234023,-0.54,-1.03,9.73
8.9563423,90,90,1.5484,0,0,67.125,4.15735157037464,5.61819225109852,0.831593725202954,-0.0313739852285906,0.0529207104925838,-0.55209668558872,-0.52,-1.08,9.73
8.975335,90,90,1.568,0,0,67.125,4.26763797367901,5.67703024261919,0.831532686321187,-0.0322895684551059,0.0530427882561191,-0.552035646706952,-0.51,-1.1,9.73
8.9914115,90,90,1.5876,0,0,67.125,4.26763797367901,5.67703024261919,0.831532686321187,-0.0328389183910151,0.0531648660196545,-0.552035646706952,-0.51,-1.11,9.73
9.0894387,90,90,1.6758,0,0,67.125,4.63161096922094,5.6586956164643,0.831532686321187,-0.0352194347799548,0.0535310993102606,-0.551913568943417,-0.48,-1.15,9.72
9.1084507,90,90,1.6856,0,0,67.125,4.68675417087312,5.68811461222463,0.831532686321187,-0.0357077458340963,0.0535921381920283,-0.551852530061649,-0.48,-1.16,9.72
9.1275267,90,90,1.6954,0,0,67.125,4.68675417087312,5.68811461222463,0.831532686321187,-0.0359519013611671,0.053653177073796,-0.551852530061649,-0.48,-1.16,9.72
9.2292265,90,90,1.7444,0,0,67.125,4.88160277159001,5.72122839785345,0.831471647439419,-0.0380272233412684,0.0540804492461698,-0.551730452298114,-0.46,-1.2,9.72
9.2494093,90,90,1.7542,0,0,67.125,4.96616496900253,5.6955041919616,0.831471647439419,-0.0382713788683391,0.0542025270097052,-0.551730452298114,-0.46,-1.2,9.72
9.2653342,90,90,1.7542,0,0,67.125,4.96616496900253,5.6955041919616,0.831410608557651,-0.0384544955136422,0.0543246047732406,-0.551730452298114,-0.46,-1.21,9.71
9.3634866,90,90,1.764,0,0,67.125,5.02130817065471,5.72492318772193,0.831410608557651,-0.0389428065677837,0.0545687603003113,-0.551730452298114,-0.46,-1.22,9.71
9.3844092,90,90,1.7542,0,0,67.125,5.0764513723069,5.75434218348227,0.831410608557651,-0.0389428065677837,0.0545687603003113,-0.551730452298114,-0.46,-1.22,9.71
9.4013994,90,90,1.7542,0,0,67.125,5.0764513723069,5.75434218348227,0.831410608557651,-0.0390038454495514,0.0545687603003113,-0.551730452298114,-0.46,-1.22,9.71
9.4973739,90,90,1.715,0,0,67.125,4.93674597324219,5.75064739361378,0.831410608557651,-0.0381493011048038,0.0542025270097052,-0.551791491179882,-0.47,-1.2,9.72
9.5174557,90,90,1.7052,0,0,67.125,4.88160277159001,5.72122839785345,0.831410608557651,-0.0378441066959653,0.0541414881279375,-0.551791491179882,-0.47,-1.2,9.72
9.5373977,90,90,1.6954,0,0,67.125,4.88160277159001,5.72122839785345,0.831410608557651,-0.0374778734053592,0.0540804492461698,-0.551852530061649,-0.47,-1.19,9.72
9.6344947,90,90,1.617,0,0,67.125,4.6021919734606,5.71383881811649,0.831471647439419,-0.0354025514252579,0.0538362937190991,-0.551974607825185,-0.49,-1.15,9.72
9.6585302,90,90,1.5974,0,0,67.125,4.54704877180842,5.68441982235615,0.831471647439419,-0.0349142403711164,0.0537752548373314,-0.551974607825185,-0.49,-1.15,9.72
9.6753082,90,90,1.5778,0,0,67.125,4.51762977604809,5.73956302400834,0.831471647439419,-0.0343648904352072,0.0537142159555637,-0.552035646706952,-0.5,-1.14,9.72
9.8003497,90,90,1.4406,0,0,67.125,4.12793257461431,5.67333545275071,0.831471647439419,-0.0307635964109138,0.0531648660196545,-0.552279802234023,-0.53,-1.07,9.73
9.8203264,90,90,1.4308,0,0,67.125,4.04337037720179,5.69905965864256,0.831471647439419,-0.0302142464750046,0.0531038271378868,-0.552279802234023,-0.53,-1.06,9.73
9.8393694,90,90,1.4014,0,0,67.1875,3.98822717554961,5.66964066288222,0.831471647439419,-0.0299700909479338,0.0530427882561191,-0.552340841115791,-0.54,-1.05,9.73
9.9612832,90,90,1.274,0,0,67.1875,3.65367317576802,5.63283208738493,0.831471647439419,-0.0266739913324788,0.0525544772019777,-0.552523957761094,-0.56,-1,9.73
9.9785436,90,90,1.2544,0,0,67.1875,3.5691109783555,5.65855629327678,0.831471647439419,-0.0258804858694989,0.0524323994384423,-0.552584996642862,-0.57,-0.98,9.73
9.9945814,90,90,1.2446,0,0,67.1875,3.51396777670332,5.62913729751645,0.831471647439419,-0.0256363303424281,0.0523713605566746,-0.552584996642862,-0.57,-0.98,9.73
10.1013109,90,90,1.1564,0,0,67.1875,3.23455697857391,5.62174771777948,0.831532686321187,-0.0233778917170237,0.0520051272660685,-0.552707074406397,-0.59,-0.94,9.74
10.1213854,90,90,1.1368,0,0,67.1875,3.14999478116139,5.64747192367133,0.831532686321187,-0.0228895806628823,0.0519440883843008,-0.552707074406397,-0.59,-0.93,9.74
10.1383331,90,90,1.1172,0,0,67.1875,3.14999478116139,5.64747192367133,0.831532686321187,-0.0222181529634377,0.0519440883843008,-0.552707074406397,-0.6,-0.92,9.74
10.2365797,90,90,1.0682,0,0,67.1875,2.95514618044451,5.61435813804252,0.831593725202954,-0.0206921809192456,0.0516388939754624,-0.552768113288165,-0.61,-0.89,9.74
10.2562866,90,90,1.0682,0,0,67.1875,2.90000297879232,5.58493914228218,0.831593725202954,-0.0205701031557102,0.0515778550936947,-0.552768113288165,-0.62,-0.88,9.74
10.2723178,90,90,1.0584,0,0,67.1875,2.87058398303199,5.64008234393437,0.831593725202954,-0.0202649087468718,0.0515778550936947,-0.552768113288165,-0.62,-0.88,9.74
10.3685579,90,90,1.0584,0,0,67.1875,2.78602178561947,5.66580654982622,0.831593725202954,-0.0194714032838918,0.0517609717389977,-0.552707074406397,-0.63,-0.87,9.74
10.3873577,90,90,1.0584,0,0,67.1875,2.78602178561947,5.66580654982622,0.831593725202954,-0.0193493255203565,0.0517609717389977,-0.552707074406397,-0.63,-0.87,9.74
10.4034408,90,90,1.0584,0,0,67.1875,2.78602178561947,5.66580654982622,0.831654764084722,-0.0192882866385888,0.0517609717389977,-0.552707074406397,-0.63,-0.87,9.74
10.5034077,90,90,1.0976,0,0,67.1875,2.87058398303199,5.64008234393437,0.831654764084722,-0.019837636574498,0.0518220106207654,-0.552584996642862,-0.62,-0.88,9.74
10.5224337,90,90,1.1074,0,0,67.1875,2.87058398303199,5.64008234393437,0.831654764084722,-0.0200817921015687,0.0518220106207654,-0.552584996642862,-0.62,-0.88,9.74
10.5393971,90,90,1.1172,0,0,67.1875,2.87058398303199,5.64008234393437,0.831654764084722,-0.0202038698651041,0.0518830495025331,-0.552584996642862,-0.62,-0.89,9.74
10.6374542,90,90,1.1858,0,0,67.125,3.06543258374888,5.67319612956318,0.83171580296649,-0.0220350363181347,0.0520051272660685,-0.552462918879326,-0.61,-0.92,9.74
10.6583948,90,90,1.2054,0,0,67.125,3.14999478116139,5.64747192367133,0.83171580296649,-0.0224623084905085,0.0520661661478362,-0.552401879997558,-0.6,-0.93,9.74
10.6764402,90,90,1.225,0,0,67.125,3.20513798281358,5.67689091943167,0.83171580296649,-0.0229506195446499,0.0520661661478362,-0.552401879997558,-0.6,-0.93,9.74
10.7914572,90,90,1.3426,0,0,67.125,3.51396777670332,5.62913729751645,0.83171580296649,-0.026246719160105,0.0523713605566746,-0.552157724470488,-0.56,-0.99,9.73
10.8113943,90,90,1.3524,0,0,67.125,3.65367317576802,5.63283208738493,0.831776841848257,-0.0268571079777818,0.0524323994384423,-0.552157724470488,-0.56,-1,9.73
10.8274692,90,90,1.3818,0,0,67.125,3.65367317576802,5.63283208738493,0.831776841848257,-0.0271012635048526,0.0524323994384423,-0.55209668558872,-0.56,-1.01,9.73
10.9374,90,90,1.4896,0,0,67.125,4.07278937296213,5.64391645699037,0.83171580296649,-0.0306415186473784,0.0527986327290484,-0.551913568943417,-0.52,-1.07,9.73
10.9565023,90,90,1.5092,0,0,67.125,4.07278937296213,5.64391645699037,0.83171580296649,-0.0311908685832876,0.0528596716108161,-0.551852530061649,-0.52,-1.08,9.73
10.9725289,90,90,1.5288,0,0,67.125,4.15735157037464,5.61819225109852,0.83171580296649,-0.031496062992126,0.0528596716108161,-0.551852530061649,-0.52,-1.08,9.73
11.0824032,90,90,1.617,0,0,67.0625,4.49190557015623,5.65500082659582,0.83171580296649,-0.0343648904352072,0.0532259049014222,-0.551669413416346,-0.49,-1.13,9.72
11.1013761,90,90,1.6366,0,0,67.0625,4.49190557015623,5.65500082659582,0.83171580296649,-0.0345480070805103,0.0532869437831899,-0.551669413416346,-0.49,-1.14,9.72
11.116606,90,90,1.6464,0,0,67.0625,4.54704877180842,5.68441982235615,0.83171580296649,-0.0352804736617225,0.0533479826649576,-0.551608374534579,-0.48,-1.15,9.72
11.2233628,90,90,1.7052,0,0,67.0625,4.82645956993782,5.69180940209312,0.831654764084722,-0.0371116401147531,0.0537752548373314,-0.551547335652811,-0.47,-1.18,9.72
11.2423696,90,90,1.715,0,0,67.0625,4.82645956993782,5.69180940209312,0.831654764084722,-0.0374168345235915,0.0538362937190991,-0.551486296771043,-0.47,-1.19,9.72
11.2584138,90,90,1.7248,0,0,67.0625,4.88160277159001,5.72122839785345,0.831654764084722,-0.0376609900506623,0.0538973326008668,-0.551486296771043,-0.47,-1.19,9.72
11.365566,90,90,1.7346,0,0,67.0625,4.93674597324219,5.75064739361378,0.831593725202954,-0.0382713788683391,0.0542635658914729,-0.551486296771043,-0.47,-1.21,9.72
11.3844063,90,90,1.7346,0,0,67.0625,4.93674597324219,5.75064739361378,0.831593725202954,-0.0383324177501068,0.0542635658914729,-0.551486296771043,-0.47,-1.21,9.72
11.4003578,90,90,1.7346,0,0,67.0625,4.93674597324219,5.75064739361378,0.831593725202954,-0.0383324177501068,0.0543246047732406,-0.551486296771043,-0.47,-1.21,9.72
11.5004194,90,90,1.7052,0,0,67.0625,4.93674597324219,5.75064739361378,0.831593725202954,-0.0380272233412684,0.0540804492461698,-0.551486296771043,-0.47,-1.2,9.72
11.519367,90,90,1.6954,0,0,67.0625,4.88160277159001,5.72122839785345,0.831654764084722,-0.0376609900506623,0.0540194103644021,-0.551547335652811,-0.47,-1.19,9.72
11.5353655,90,90,1.6856,0,0,67.0625,4.88160277159001,5.72122839785345,0.831654764084722,-0.0375389122871269,0.0540194103644021,-0.551547335652811,-0.47,-1.19,9.72
11.6374862,90,90,1.617,0,0,67.0625,4.68675417087312,5.68811461222463,0.831654764084722,-0.0355856680705609,0.053653177073796,-0.551669413416346,-0.49,-1.16,9.72
11.6563916,90,90,1.5974,0,0,67.0625,4.6021919734606,5.71383881811649,0.831654764084722,-0.0353415125434902,0.053653177073796,-0.551669413416346,-0.49,-1.15,9.72
11.6734259,90,90,1.5876,0,0,67.0625,4.6021919734606,5.71383881811649,0.831654764084722,-0.0351583958981871,0.053653177073796,-0.551669413416346,-0.49,-1.15,9.72
11.7763136,90,90,1.4994,0,0,67.125,4.26763797367901,5.67703024261919,0.831654764084722,-0.0325337239821766,0.0532259049014222,-0.551852530061649,-0.51,-1.1,9.73
11.7944351,90,90,1.47,0,0,67.125,4.21249477202683,5.64761124685885,0.831654764084722,-0.0320454129280352,0.0531648660196545,-0.551913568943417,-0.52,-1.09,9.73
11.8104472,90,90,1.4602,0,0,67.125,4.1830757762665,5.70275444851104,0.831654764084722,-0.031496062992126,0.0530427882561191,-0.551913568943417,-0.52,-1.08,9.73
11.9183249,90,90,1.3524,0,0,67.125,3.84852177648491,5.66594587301374,0.83171580296649,-0.0286272355490447,0.0526155160837453,-0.55209668558872,-0.54,-1.03,9.73
11.9373882,90,90,1.3328,0,0,67.125,3.79337857483272,5.63652687725341,0.83171580296649,-0.0280778856131356,0.0525544772019777,-0.552157724470488,-0.55,-1.02,9.73
11.952517,90,90,1.323,0,0,67.125,3.73823537318054,5.60710788149308,0.83171580296649,-0.0278337300860648,0.05249343832021,-0.552157724470488,-0.55,-1.02,9.73
12.0644442,90,90,1.2152,0,0,67.125,3.45882457505113,5.59971830175611,0.83171580296649,-0.025270097051822,0.0520051272660685,-0.552279802234023,-0.57,-0.97,9.74
12.0844325,90,90,1.2054,0,0,67.125,3.37426237763861,5.62544250764796,0.83171580296649,-0.0249038637612159,0.0519440883843008,-0.552340841115791,-0.57,-0.96,9.74
12.1013536,90,90,1.1858,0,0,67.125,3.37426237763861,5.62544250764796,0.83171580296649,-0.0245376304706098,0.0518830495025331,-0.552340841115791,-0.58,-0.96,9.74
12.2054317,90,90,1.1172,0,0,67.125,3.12427057526954,5.56290972625881,0.831776841848257,-0.0225233473722761,0.0515778550936947,-0.552401879997558,-0.59,-0.92,9.74
12.2253944,90,90,1.1172,0,0,67.125,3.09485157950921,5.618052927911,0.831776841848257,-0.0222181529634377,0.0514557773301593,-0.552401879997558,-0.6,-0.91,9.74
12.2433723,90,90,1.1074,0,0,67.125,3.03970837785703,5.58863393215067,0.831776841848257,-0.0219129585545993,0.0513947384483916,-0.552401879997558,-0.6,-0.91,9.74
12.3484333,90,90,1.078,0,0,67.125,2.95514618044451,5.61435813804252,0.831837880730025,-0.0207532198010132,0.0514557773301593,-0.552401879997558,-0.61,-0.89,9.74
12.3665626,90,90,1.078,0,0,67.125,2.90000297879232,5.58493914228218,0.831837880730025,-0.0206311420374779,0.051516816211927,-0.552401879997558,-0.61,-0.89,9.74
12.3823594,90,90,1.078,0,0,67.125,2.90000297879232,5.58493914228218,0.831837880730025,-0.0205701031557102,0.051516816211927,-0.552401879997558,-0.61,-0.89,9.74
12.396632,90,90,1.078,0,0,67.125,2.90000297879232,5.58493914228218,0.831837880730025,-0.0204480253921748,0.051516816211927,-0.552340841115791,-0.61,-0.89,9.74
12.5054305,90,90,1.1074,0,0,67.125,2.90000297879232,5.58493914228218,0.831837880730025,-0.0206311420374779,0.0516388939754624,-0.552279802234023,-0.61,-0.89,9.74
12.5253876,90,90,1.1074,0,0,67.125,2.95514618044451,5.61435813804252,0.831898919611793,-0.0208142586827809,0.0516388939754624,-0.552279802234023,-0.61,-0.89,9.74
12.5423887,90,90,1.127,0,0,67.125,2.95514618044451,5.61435813804252,0.831898919611793,-0.0209363364463163,0.0516388939754624,-0.552279802234023,-0.61,-0.9,9.74
12.6603742,90,90,1.1956,0,0,67.125,3.17941377692173,5.59232872201915,0.831898919611793,-0.0228285417811146,0.0517609717389977,-0.55209668558872,-0.59,-0.93,9.74
12.6815973,90,90,1.2152,0,0,67.125,3.23455697857391,5.62174771777948,0.831898919611793,-0.0231947750717207,0.0518220106207654,-0.55209668558872,-0.59,-0.93,9.74
12.6974667,90,90,1.225,0,0,67.125,3.23455697857391,5.62174771777948,0.831898919611793,-0.0236830861258622,0.0518220106207654,-0.552035646706952,-0.58,-0.94,9.74
12.8053421,90,90,1.323,0,0,67.0625,3.59852997411583,5.60341309162459,0.83195995849356,-0.026429835805408,0.0520661661478362,-0.551913568943417,-0.56,-0.99,9.73
12.8224358,90,90,1.3524,0,0,67.0625,3.59852997411583,5.60341309162459,0.83195995849356,-0.0269791857413172,0.0520661661478362,-0.551852530061649,-0.55,-1,9.73
12.8375187,90,90,1.3622,0,0,67.0625,3.68309217152835,5.57768888573274,0.83195995849356,-0.0272843801501556,0.0521272050296039,-0.551852530061649,-0.55,-1,9.73
12.8533892,90,90,1.372,0,0,67.0625,3.68309217152835,5.57768888573274,0.83195995849356,-0.0275285356772264,0.0521272050296039,-0.551791491179882,-0.55,-1.01,9.73
12.9644616,90,90,1.4798,0,0,67.0625,4.10220836872246,5.58877325533819,0.83195995849356,-0.0308246352926814,0.0524323994384423,-0.551608374534579,-0.52,-1.07,9.73
12.9844173,90,90,1.4896,0,0,67.0625,4.10220836872246,5.58877325533819,0.83195995849356,-0.0313129463468229,0.05249343832021,-0.551608374534579,-0.51,-1.07,9.73
12.9993474,90,90,1.519,0,0,67.0625,4.15735157037464,5.61819225109852,0.83195995849356,-0.0313129463468229,0.05249343832021,-0.551608374534579,-0.51,-1.08,9.73
13.1013751,90,90,1.5974,0,0,67.0625,4.43676236850405,5.62558183083549,0.83195995849356,-0.0340596960263688,0.0527986327290484,-0.551425257889275,-0.49,-1.12,9.72
13.118635,90,90,1.6072,0,0,67.0625,4.52132456591657,5.59985762494363,0.831898919611793,-0.0344869681987426,0.0529207104925838,-0.551364219007508,-0.49,-1.13,9.72
13.1353927,90,90,1.617,0,0,67.0625,4.57646776756875,5.62927662070397,0.831898919611793,-0.0349142403711164,0.0529817493743515,-0.551364219007508,-0.48,-1.14,9.72
13.2424547,90,90,1.6856,0,0,67,4.77131636828564,5.66239040633278,0.831898919611793,-0.0366843679423793,0.0532869437831899,-0.551242141243972,-0.47,-1.17,9.72
13.2624471,90,90,1.6856,0,0,67,4.77131636828564,5.66239040633278,0.831898919611793,-0.0370506012329854,0.0534090215467253,-0.551242141243972,-0.47,-1.18,9.72
13.2784327,90,90,1.6954,0,0,67,4.80073536404597,5.6072472046806,0.831898919611793,-0.0371726789965208,0.0534700604284929,-0.551242141243972,-0.47,-1.18,9.72
13.3934128,90,90,1.7052,0,0,67,4.91102176735034,5.66608519620126,0.831837880730025,-0.03772202893243,0.0537752548373314,-0.551242141243972,-0.47,-1.19,9.72
13.413462,90,90,1.7052,0,0,67,4.91102176735034,5.66608519620126,0.831837880730025,-0.03772202893243,0.0537752548373314,-0.551242141243972,-0.47,-1.19,9.72
13.4295755,90,90,1.7052,0,0,67,4.91102176735034,5.66608519620126,0.831837880730025,-0.03772202893243,0.0537752548373314,-0.551242141243972,-0.47,-1.19,9.72
13.5284651,90,90,1.6758,0,0,67.0625,4.82645956993782,5.69180940209312,0.831837880730025,-0.0372947567600562,0.0535921381920283,-0.551242141243972,-0.47,-1.18,9.72
13.5465152,90,90,1.666,0,0,67.0625,4.82645956993782,5.69180940209312,0.831837880730025,-0.0371116401147531,0.0534700604284929,-0.551242141243972,-0.47,-1.18,9.72
13.562374,90,90,1.666,0,0,67.0625,4.77131636828564,5.66239040633278,0.831837880730025,-0.03692852346945,0.0534090215467253,-0.551242141243972,-0.47,-1.17,9.72
13.5774107,90,90,1.6562,0,0,67.0625,4.77131636828564,5.66239040633278,0.831898919611793,-0.0366843679423793,0.0534090215467253,-0.55130318012574,-0.47,-1.17,9.72
13.6763635,90,90,1.5974,0,0,67.0625,4.57646776756875,5.62927662070397,0.831898919611793,-0.0349752792528841,0.0531038271378868,-0.551425257889275,-0.48,-1.14,9.72
13.6944038,90,90,1.5876,0,0,67.0625,4.57646776756875,5.62927662070397,0.831898919611793,-0.034792162607581,0.0531038271378868,-0.551425257889275,-0.49,-1.13,9.72
13.7085526,90,90,1.568,0,0,67.0625,4.49190557015623,5.65500082659582,0.831898919611793,-0.0343648904352072,0.0530427882561191,-0.551425257889275,-0.49,-1.13,9.72
13.8124204,90,90,1.4798,0,0,67.0625,4.24191376778716,5.59246804520667,0.831898919611793,-0.0321064518098028,0.0527375938472807,-0.551547335652811,-0.51,-1.09,9.73
13.8315199,90,90,1.4602,0,0,67.0625,4.15735157037464,5.61819225109852,0.831898919611793,-0.0316181407556614,0.052676554965513,-0.551608374534579,-0.51,-1.08,9.73
13.8474983,90,90,1.4504,0,0,67.0625,4.15735157037464,5.61819225109852,0.831898919611793,-0.0311298297015199,0.0525544772019777,-0.551608374534579,-0.52,-1.07,9.73
13.9524351,90,90,1.3524,0,0,67.0625,3.82279757059306,5.58138367560122,0.83195995849356,-0.0288103521943478,0.0521272050296039,-0.551791491179882,-0.54,-1.02,9.73
13.9704759,90,90,1.3328,0,0,67.0625,3.82279757059306,5.58138367560122,0.83195995849356,-0.0283220411402063,0.0520661661478362,-0.551791491179882,-0.54,-1.02,9.73
13.9856704,90,90,1.323,0,0,67.0625,3.73823537318054,5.60710788149308,0.83195995849356,-0.0278337300860648,0.0520051272660685,-0.551852530061649,-0.54,-1.01,9.73
14.0015707,90,90,1.3034,0,0,67.0625,3.68309217152835,5.57768888573274,0.83195995849356,-0.0275895745589941,0.0519440883843008,-0.551852530061649,-0.54,-1.01,9.73
14.1084054,90,90,1.2152,0,0,67.125,3.48824357081147,5.54457510010393,0.83195995849356,-0.0253311359335897,0.051516816211927,-0.551974607825185,-0.56,-0.97,9.74
14.1264014,90,90,1.2054,0,0,67.125,3.40368137339895,5.57029930599578,0.83195995849356,-0.0250259415247513,0.0514557773301593,-0.551974607825185,-0.56,-0.96,9.74
14.1415906,90,90,1.1858,0,0,67.125,3.40368137339895,5.57029930599578,0.83195995849356,-0.0246597082341452,0.0513336995666239,-0.552035646706952,-0.57,-0.95,9.74
14.1584502,90,90,1.1858,0,0,67.125,3.34853817174676,5.54088031023545,0.83195995849356,-0.0245376304706098,0.0512726606848563,-0.552035646706952,-0.57,-0.95,9.74
14.2635221,90,90,1.127,0,0,67.125,3.15368957102988,5.50776652460663,0.832020997375328,-0.0227064640175792,0.0509064273942501,-0.552035646706952,-0.58,-0.92,9.74
14.2835645,90,90,1.1172,0,0,67.125,3.09854636937769,5.4783475288463,0.832020997375328,-0.0224012696087408,0.0508453885124825,-0.55209668558872,-0.58,-0.91,9.74
14.3005037,90,90,1.1172,0,0,67.125,3.06912737361736,5.53349073049848,0.832020997375328,-0.02215711408167,0.0508453885124825,-0.55209668558872,-0.58,-0.91,9.74
14.3986679,90,90,1.0976,0,0,67.125,2.98456517620484,5.55921493639033,0.832020997375328,-0.0215467252639932,0.0510285051577855,-0.552035646706952,-0.59,-0.9,9.74
14.4184945,90,90,1.0976,0,0,67.0625,2.98456517620484,5.55921493639033,0.832082036257096,-0.0214246475004578,0.0510895440395532,-0.552035646706952,-0.6,-0.9,9.74
14.4345299,90,90,1.0976,0,0,67.0625,2.98456517620484,5.55921493639033,0.832082036257096,-0.0213025697369224,0.0511505829213209,-0.552035646706952,-0.6,-0.9,9.74
14.5304538,90,90,1.127,0,0,67.0625,2.98456517620484,5.55921493639033,0.832082036257096,-0.0214246475004578,0.0513336995666239,-0.551974607825185,-0.6,-0.9,9.74
14.5505405,90,90,1.1368,0,0,67.0625,2.98456517620484,5.55921493639033,0.832082036257096,-0.0215467252639932,0.0513336995666239,-0.551913568943417,-0.6,-0.9,9.74
14.566604,90,90,1.1368,0,0,67.0625,3.03970837785703,5.58863393215067,0.832082036257096,-0.0216688030275285,0.0513336995666239,-0.551913568943417,-0.6,-0.9,9.74
14.6644598,90,90,1.1956,0,0,67.0625,3.17941377692173,5.59232872201915,0.832143075138863,-0.0230116584264176,0.051516816211927,-0.551791491179882,-0.59,-0.93,9.74
14.6824735,90,90,1.2054,0,0,67.0625,3.26397597433425,5.5666045161273,0.832143075138863,-0.0233778917170237,0.051516816211927,-0.551791491179882,-0.58,-0.93,9.74
14.6985942,90,90,1.2152,0,0,67.0625,3.26397597433425,5.5666045161273,0.832143075138863,-0.0235610083623268,0.0515778550936947,-0.551791491179882,-0.58,-0.94,9.74
14.7955339,90,90,1.3034,0,0,67.0625,3.45882457505113,5.59971830175611,0.832143075138863,-0.0255142525788928,0.0517609717389977,-0.551669413416346,-0.56,-0.97,9.74
14.8146354,90,90,1.3132,0,0,67.0625,3.54338677246365,5.57399409586426,0.832143075138863,-0.026246719160105,0.0517609717389977,-0.551608374534579,-0.56,-0.98,9.74
14.8304255,90,90,1.3328,0,0,67.0625,3.59852997411583,5.60341309162459,0.832143075138863,-0.0267350302142465,0.0518220106207654,-0.551608374534579,-0.55,-0.99,9.73
14.9295351,90,90,1.421,0,0,67,3.87794077224524,5.61080267136156,0.832143075138863,-0.0292986632484893,0.0520661661478362,-0.551425257889275,-0.53,-1.04,9.73
14.9496817,90,90,1.4406,0,0,67,3.96250296965776,5.58507846546971,0.832143075138863,-0.02954281877556,0.0520661661478362,-0.551425257889275,-0.53,-1.04,9.73
14.9654641,90,90,1.4504,0,0,67,3.96250296965776,5.58507846546971,0.832143075138863,-0.0300311298297015,0.0521272050296039,-0.551364219007508,-0.52,-1.05,9.73
15.0615622,90,90,1.5386,0,0,67,4.24191376778716,5.59246804520667,0.832143075138863,-0.0322285295733382,0.0523713605566746,-0.551242141243972,-0.5,-1.09,9.73
15.0805466,90,90,1.5484,0,0,67,4.32647596519968,5.56674383931482,0.832143075138863,-0.0328999572727828,0.05249343832021,-0.551181102362205,-0.5,-1.1,9.73
15.0987383,90,90,1.568,0,0,67,4.32647596519968,5.56674383931482,0.832143075138863,-0.0331441127998535,0.05249343832021,-0.551181102362205,-0.49,-1.1,9.73
15.2054521,90,90,1.6268,0,0,67,4.57646776756875,5.62927662070397,0.832143075138863,-0.0352804736617225,0.0528596716108161,-0.551059024598669,-0.48,-1.14,9.72
15.2235978,90,90,1.6366,0,0,67,4.66102996498127,5.60355241481212,0.832143075138863,-0.0356467069523286,0.0529207104925838,-0.551059024598669,-0.47,-1.15,9.72
15.2387174,90,90,1.6464,0,0,67,4.66102996498127,5.60355241481212,0.832143075138863,-0.035768784715864,0.0529817493743515,-0.550997985716902,-0.47,-1.15,9.72
15.2546472,90,90,1.6562,0,0,67,4.66102996498127,5.60355241481212,0.832082036257096,-0.0360739791247024,0.0530427882561191,-0.550997985716902,-0.47,-1.16,9.72
15.3535891,90,90,1.6856,0,0,67,4.77131636828564,5.66239040633278,0.832082036257096,-0.03692852346945,0.0534700604284929,-0.550936946835134,-0.47,-1.18,9.72
15.3725986,90,90,1.6856,0,0,67,4.77131636828564,5.66239040633278,0.832082036257096,-0.0369895623512177,0.0535310993102606,-0.550936946835134,-0.47,-1.18,9.72
15.3885577,90,90,1.6856,0,0,67,4.77131636828564,5.66239040633278,0.832082036257096,-0.0370506012329854,0.0535310993102606,-0.550936946835134,-0.47,-1.18,9.72
15.4876044,90,90,1.6758,0,0,67,4.82645956993782,5.69180940209312,0.832020997375328,-0.0372337178782885,0.0537142159555637,-0.550936946835134,-0.47,-1.18,9.72
15.5066016,90,90,1.6758,0,0,67,4.82645956993782,5.69180940209312,0.832020997375328,-0.0371116401147531,0.053653177073796,-0.550936946835134,-0.47,-1.18,9.72
15.5225809,90,90,1.666,0,0,67,4.77131636828564,5.66239040633278,0.832082036257096,-0.0369895623512177,0.0535310993102606,-0.550997985716902,-0.47,-1.18,9.72
15.6195508,90,90,1.6366,0,0,67,4.71617316663345,5.63297141057245,0.832082036257096,-0.0361960568882378,0.0531038271378868,-0.550997985716902,-0.47,-1.16,9.72
15.6377777,90,90,1.617,0,0,67,4.66102996498127,5.60355241481212,0.832082036257096,-0.0358908624793994,0.0531038271378868,-0.551059024598669,-0.47,-1.15,9.72
15.6535794,90,90,1.6072,0,0,67,4.66102996498127,5.60355241481212,0.832082036257096,-0.0355856680705609,0.0530427882561191,-0.551059024598669,-0.48,-1.15,9.72
15.7504788,90,90,1.5386,0,0,67,4.43676236850405,5.62558183083549,0.832082036257096,-0.0337545016175304,0.0527986327290484,-0.551181102362205,-0.49,-1.12,9.72
15.7696556,90,90,1.5288,0,0,67,4.38161916685186,5.59616283507515,0.832082036257096,-0.0335713849722273,0.0527375938472807,-0.551181102362205,-0.49,-1.11,9.73
15.7876294,90,90,1.5092,0,0,67,4.38161916685186,5.59616283507515,0.832082036257096,-0.0331441127998535,0.0527375938472807,-0.551242141243972,-0.5,-1.11,9.73
15.8856307,90,90,1.4308,0,0,67,4.10220836872246,5.58877325533819,0.832143075138863,-0.0310077519379845,0.0523713605566746,-0.551364219007508,-0.51,-1.07,9.73
15.9056643,90,90,1.4112,0,0,67,4.04706516707028,5.55935425957786,0.832143075138863,-0.030519440883843,0.0522492827931392,-0.551364219007508,-0.52,-1.06,9.73
