Time (s),Setpoint (deg),Motor Position (deg),Tension 1 (N),Tension 2 (N),Tension 3 (N),Heading (deg),Pitch (deg),Roll (deg),Quaternion W,Quaternion X,Quaternion Y,Quaternion Z,Gravity X,Gravity Y,Gravity Z
0,0,0,0,0,0,0,0,0,0,0,0,0,0,0,0
0.0236763,0,-0.45,0.0196,0,0,68.9375,3.83032359643013,4.34684108251389,0.823353476164317,-0.0291765854849539,0.0416285173655619,-0.565342122932308,-0.34,-0.93,9.75
0.0509315,0,0,0.0196,0,0,68.9375,3.83032359643013,4.34684108251389,0.823353476164317,-0.0291765854849539,0.0416285173655619,-0.565342122932308,-0.34,-0.93,9.75
0.1699031,0,0,0.0196,0,0,68.9375,3.80057789421985,4.40180873845825,0.823353476164317,-0.0289934688396509,0.0418116340108649,-0.565342122932308,-0.35,-0.93,9.75
0.1897902,0,0,0.0196,0,0,68.9375,3.80057789421985,4.40180873845825,0.823353476164317,-0.0289934688396509,0.0418726728926326,-0.565342122932308,-0.35,-0.93,9.75
0.2089725,0,0,0.0196,0,0,68.9375,3.80057789421985,4.40180873845825,0.823353476164317,-0.0289324299578832,0.0419337117744003,-0.565342122932308,-0.35,-0.93,9.75
0.3107368,0,0,0.0196,0,0,68.9375,3.80057789421985,4.40180873845825,0.823353476164317,-0.0288713910761155,0.0420557895379357,-0.565342122932308,-0.35,-0.93,9.75
0.3297384,0,0,0.0196,0,0,68.9375,3.80057789421985,4.40180873845825,0.823353476164317,-0.0288713910761155,0.0420557895379357,-0.565342122932308,-0.35,-0.93,9.75
0.3477603,0,0,0.0196,0,0,68.9375,3.80057789421985,4.40180873845825,0.823353476164317,-0.0288713910761155,0.0420557895379357,-0.565342122932308,-0.35,-0.93,9.75
0.4477768,0,0,0.0098,0,0,68.9375,3.80057789421985,4.40180873845825,0.823353476164317,-0.0288713910761155,0.0420557895379357,-0.565342122932308,-0.35,-0.93,9.75
0.4667483,0,0,0.0098,0,0,68.9375,3.80057789421985,4.40180873845825,0.823353476164317,-0.0288713910761155,0.0420557895379357,-0.565342122932308,-0.35,-0.93,9.75
0.4838668,0,0,0.0098,0,0,68.9375,3.80057789421985,4.40180873845825,0.823353476164317,-0.0288713910761155,0.0420557895379357,-0.565342122932308,-0.35,-0.93,9.75
0.5897603,0,0,0.0098,0,0,68.9375,3.80057789421985,4.40180873845825,0.823353476164317,-0.0288713910761155,0.0420557895379357,-0.565342122932308,-0.35,-0.93,9.75
0.6087499,0,0,0.0098,0,0,68.9375,3.80057789421985,4.40180873845825,0.823353476164317,-0.0288713910761155,0.0420557895379357,-0.565342122932308,-0.35,-0.93,9.75
0.6247494,0,0,0.0098,0,0,68.9375,3.80057789421985,4.40180873845825,0.823353476164317,-0.0288713910761155,0.0420557895379357,-0.565342122932308,-0.35,-0.93,9.75
0.7217762,0,0,0.0098,0,0,68.9375,3.80057789421985,4.40180873845825,0.823353476164317,-0.0288713910761155,0.0420557895379357,-0.565342122932308,-0.35,-0.93,9.75
0.7407469,0,0,0.0098,0,0,68.9375,3.80057789421985,4.40180873845825,0.823353476164317,-0.0288713910761155,0.0420557895379357,-0.565342122932308,-0.35,-0.93,9.75
0.7558219,0,0,0.0098,0,0,68.9375,3.80057789421985,4.40180873845825,0.823353476164317,-0.0288713910761155,0.0420557895379357,-0.565342122932308,-0.35,-0.93,9.75
0.7717829,0,0,0.0098,0,0,68.9375,3.80057789421985,4.40180873845825,0.823353476164317,-0.0288713910761155,0.0420557895379357,-0.565342122932308,-0.35,-0.93,9.75
0.8726878,0,0,0.0098,0,0,68.9375,3.80057789421985,4.40180873845825,0.823353476164317,-0.0288713910761155,0.0420557895379357,-0.565342122932308,-0.35,-0.93,9.75
0.8907709,0,0,0.0098,0,0,68.9375,3.80057789421985,4.40180873845825,0.823353476164317,-0.0287493133125801,0.0421168284197034,-0.565342122932308,-0.36,-0.93,9.75
0.9047536,0,0,0.0098,0,0,68.9375,3.80057789421985,4.40180873845825,0.823353476164317,-0.0287493133125801,0.042177867301471,-0.565342122932308,-0.36,-0.93,9.75
0.920779,0,0,0.0098,0,0,68.9375,3.77083219200957,4.45677639440261,0.823353476164317,-0.0286882744308124,0.0422389061832387,-0.565342122932308,-0.36,-0.93,9.75
1.0250556,0,0,0.0098,0,0,68.9375,3.71586453606521,4.42703069219233,0.823353476164317,-0.0283220411402063,0.0424220228285418,-0.565342122932308,-0.37,-0.92,9.75
1.0457526,0,0,0.0098,0,0,68.9375,3.71586453606521,4.42703069219233,0.823353476164317,-0.0281999633766709,0.0425441005920772,-0.565342122932308,-0.37,-0.92,9.75
1.0616424,0,0,0.0098,0,0,68.9375,3.68611883385493,4.48199834813669,0.823353476164317,-0.0281999633766709,0.0425441005920772,-0.565342122932308,-0.37,-0.92,9.75
1.1727361,0,0,0.0098,0,0,68.9375,3.71586453606521,4.42703069219233,0.823414515046084,-0.0281389244949033,0.0423609839467741,-0.56528108405054,-0.37,-0.92,9.75
1.1927942,0,0,0.0098,0,0,68.9375,3.71586453606521,4.42703069219233,0.823414515046084,-0.0281389244949033,0.0423609839467741,-0.56528108405054,-0.37,-0.92,9.75
1.2099181,0,0,0.0098,0,0,68.9375,3.71586453606521,4.42703069219233,0.823414515046084,-0.0281389244949033,0.0422389061832387,-0.56528108405054,-0.36,-0.92,9.75
1.3307101,0,0,0.0098,0,0,68.875,3.71586453606521,4.42703069219233,0.823414515046084,-0.0281389244949033,0.0420557895379357,-0.565220045168773,-0.36,-0.92,9.75
1.3507639,0,0,0.0098,0,0,68.875,3.71586453606521,4.42703069219233,0.823475553927852,-0.0281389244949033,0.0420557895379357,-0.565220045168773,-0.36,-0.92,9.75
1.3677204,0,0,0.0098,0,0,68.875,3.71586453606521,4.42703069219233,0.823475553927852,-0.0280778856131356,0.0420557895379357,-0.565220045168773,-0.36,-0.91,9.75
1.4829025,0,0,0.0098,0,0,68.875,3.74561023827549,4.37206303624797,0.823475553927852,-0.0281999633766709,0.0418116340108649,-0.565220045168773,-0.36,-0.91,9.75
1.6469613,0,0,0.0196,0,0,68.875,3.72038828454141,4.28734967809333,0.82353659280962,-0.0285051577855094,0.0412622840749557,-0.565159006287005,-0.34,-0.91,9.75
1.6647472,0,0,0.0196,0,0,68.875,3.72038828454141,4.28734967809333,0.82353659280962,-0.0285661966672771,0.0412012451931881,-0.565159006287005,-0.34,-0.91,9.75
1.6808005,0,0,0.0196,0,0,68.875,3.72038828454141,4.28734967809333,0.82353659280962,-0.0285661966672771,0.0411402063114204,-0.565159006287005,-0.34,-0.91,9.75
1.6968191,0,0,0.0196,0,0,68.875,3.72038828454141,4.28734967809333,0.82353659280962,-0.0286272355490447,0.0410791674296527,-0.565159006287005,-0.34,-0.91,9.75
1.7978179,0,0,0.0196,0,0,68.875,3.72038828454141,4.28734967809333,0.82353659280962,-0.0286272355490447,0.041018128547885,-0.565159006287005,-0.34,-0.91,9.75
1.8170518,0,0,0.0196,0,0,68.875,3.72038828454141,4.28734967809333,0.82353659280962,-0.0286272355490447,0.0410791674296527,-0.565159006287005,-0.34,-0.91,9.75
1.8338343,0,0,0.0196,0,0,68.875,3.72038828454141,4.28734967809333,0.82353659280962,-0.0286272355490447,0.0410791674296527,-0.565159006287005,-0.34,-0.91,9.75
1.9338302,0,0,0.0294,0,0,68.875,3.72038828454141,4.28734967809333,0.82353659280962,-0.0285661966672771,0.0411402063114204,-0.565159006287005,-0.34,-0.91,9.75
1.9527566,0,0,0.0294,0,0,68.875,3.72038828454141,4.28734967809333,0.82353659280962,-0.0285661966672771,0.0411402063114204,-0.565159006287005,-0.34,-0.91,9.75
1.9688367,0,0,0.0294,0,0,68.875,3.72038828454141,4.28734967809333,0.82353659280962,-0.0285661966672771,0.0411402063114204,-0.565159006287005,-0.34,-0.91,9.75
2.0669022,0,0,0.0392,0,0,68.875,3.72038828454141,4.28734967809333,0.82353659280962,-0.0285661966672771,0.0411402063114204,-0.565159006287005,-0.34,-0.91,9.75
2.0857093,0,0,0.0392,0,0,68.875,3.72038828454141,4.28734967809333,0.82353659280962,-0.0285661966672771,0.0411402063114204,-0.565159006287005,-0.34,-0.91,9.75
2.1018444,0,0,0.0392,0,0,68.875,3.72038828454141,4.28734967809333,0.82353659280962,-0.0285661966672771,0.0411402063114204,-0.565159006287005,-0.34,-0.91,9.75
2.1977124,0,0,0.0392,0,0,68.875,3.72038828454141,4.28734967809333,0.82353659280962,-0.0285661966672771,0.0411402063114204,-0.565159006287005,-0.34,-0.91,9.75
2.2168203,0,0,0.0392,0,0,68.875,3.72038828454141,4.28734967809333,0.82353659280962,-0.0285661966672771,0.0411402063114204,-0.565159006287005,-0.34,-0.91,9.75
2.2337998,0,0,0.0392,0,0,68.875,3.72038828454141,4.28734967809333,0.82353659280962,-0.0285661966672771,0.0411402063114204,-0.565159006287005,-0.34,-0.91,9.75
2.3327951,0,0,0.0294,0,0,68.875,3.72038828454141,4.28734967809333,0.82353659280962,-0.0285661966672771,0.0411402063114204,-0.565159006287005,-0.34,-0.91,9.75
2.3509018,0,0,0.0294,0,0,68.875,3.72038828454141,4.28734967809333,0.82353659280962,-0.0285661966672771,0.0411402063114204,-0.565159006287005,-0.34,-0.91,9.75
2.3670215,0,0,0.0294,0,0,68.875,3.72038828454141,4.28734967809333,0.82353659280962,-0.0285661966672771,0.0411402063114204,-0.565159006287005,-0.34,-0.91,9.75
2.477917,0,0,0.0294,0,0,68.875,3.72038828454141,4.28734967809333,0.82353659280962,-0.0285661966672771,0.0411402063114204,-0.565159006287005,-0.34,-0.91,9.75
2.4967686,0,0,0.0196,0,0,68.875,3.72038828454141,4.28734967809333,0.82353659280962,-0.0285661966672771,0.0411402063114204,-0.565159006287005,-0.34,-0.91,9.75
2.5128667,0,0,0.0196,0,0,68.875,3.72038828454141,4.28734967809333,0.82353659280962,-0.0285661966672771,0.0411402063114204,-0.565159006287005,-0.34,-0.91,9.75
2.611758,0,0,0.0196,0,0,68.875,3.72038828454141,4.28734967809333,0.82353659280962,-0.0285661966672771,0.0412012451931881,-0.565159006287005,-0.34,-0.91,9.75
2.6327777,0,0,0.0196,0,0,68.875,3.72038828454141,4.28734967809333,0.82353659280962,-0.0285661966672771,0.0412012451931881,-0.565159006287005,-0.34,-0.91,9.75
2.6498618,0,0,0.0196,0,0,68.875,3.72038828454141,4.28734967809333,0.82353659280962,-0.0285051577855094,0.0412622840749557,-0.565159006287005,-0.35,-0.91,9.75
2.7467974,0,0,0.0196,0,0,68.875,3.69064258233113,4.34231733403769,0.82353659280962,-0.028383080021974,0.0414454007202588,-0.565159006287005,-0.35,-0.91,9.75
2.7649812,0,0,0.0196,0,0,68.875,3.69064258233113,4.34231733403769,0.82353659280962,-0.028383080021974,0.0414454007202588,-0.565159006287005,-0.35,-0.91,9.75
2.7829957,0,0,0.0098,0,0,68.875,3.69064258233113,4.34231733403769,0.82353659280962,-0.028383080021974,0.0414454007202588,-0.565159006287005,-0.35,-0.91,9.75
2.8788712,0,0,0.0098,0,0,68.875,3.69064258233113,4.34231733403769,0.82353659280962,-0.028383080021974,0.0414454007202588,-0.565159006287005,-0.35,-0.91,9.75
2.8968976,0,0,0.0098,0,0,68.875,3.69064258233113,4.34231733403769,0.82353659280962,-0.028383080021974,0.0414454007202588,-0.565159006287005,-0.35,-0.91,9.75
2.9118525,0,0,0.0098,0,0,68.875,3.69064258233113,4.34231733403769,0.82353659280962,-0.028383080021974,0.0414454007202588,-0.565159006287005,-0.35,-0.91,9.75
2.9323101,0,0,0.0098,0,0,68.875,3.69064258233113,4.34231733403769,0.82353659280962,-0.028383080021974,0.0414454007202588,-0.565159006287005,-0.35,-0.91,9.75
3.0348749,180,0,0.0098,0,0,68.875,3.69064258233113,4.34231733403769,0.82353659280962,-0.028383080021974,0.0414454007202588,-0.565159006287005,-0.35,-0.91,9.75
3.0549568,180,1.35,0.0098,0,0,68.875,3.69064258233113,4.34231733403769,0.82353659280962,-0.028383080021974,0.0414454007202588,-0.565159006287005,-0.35,-0.91,9.75
3.0738291,180,3.6,0.0098,0,0,68.875,3.69064258233113,4.34231733403769,0.82353659280962,-0.028383080021974,0.0414454007202588,-0.565159006287005,-0.35,-0.91,9.75
3.1808037,180,37.8,0.4312,0,0,68.875,3.69064258233113,4.34231733403769,0.82353659280962,-0.028383080021974,0.0414454007202588,-0.565159006287005,-0.35,-0.91,9.75
3.2027381,180,49.5,0.6664,0,0,68.875,3.69064258233113,4.34231733403769,0.82353659280962,-0.028383080021974,0.0414454007202588,-0.565159006287005,-0.35,-0.91,9.75
3.2198926,180,59.4,0.784,0,0,68.875,3.69064258233113,4.34231733403769,0.82353659280962,-0.028383080021974,0.0414454007202588,-0.565159006287005,-0.35,-0.91,9.75
3.3267855,180,131.4,2.107,0,0,68.875,3.69064258233113,4.34231733403769,0.823597631691387,-0.0279558078496002,0.0413233229567234,-0.565097967405237,-0.35,-0.9,9.75
3.3458201,180,141.3,2.4108,0,0,68.875,3.69064258233113,4.34231733403769,0.823597631691387,-0.0278947689678325,0.0413233229567234,-0.565097967405237,-0.35,-0.9,9.75
3.3692513,180,152.55,2.6754,0,0,68.875,3.60592922417649,4.36753928777177,0.823658670573155,-0.0275895745589941,0.0414454007202588,-0.565036928523469,-0.36,-0.9,9.75
3.477103,180,179.55,3.3222,0,0,68.875,3.43650250786722,4.41798319523992,0.823597631691387,-0.0257584081059635,0.0416895562473295,-0.565159006287005,-0.38,-0.87,9.75
3.4967615,180,180,3.3614,0,0,68.875,3.38153485192286,4.38823749302964,0.823597631691387,-0.0254532136971251,0.0417505951290972,-0.565220045168773,-0.39,-0.87,9.75
3.5138502,180,180,3.3614,0,0,68.875,3.29682149376822,4.41345944676372,0.823597631691387,-0.0245376304706098,0.0416895562473295,-0.565220045168773,-0.4,-0.85,9.76
3.6170104,180,180,3.136,0,0,68.9375,2.73809743737224,4.3953644528589,0.823597631691387,-0.0197155588109626,0.0412622840749557,-0.565464200695843,-0.44,-0.77,9.76
3.6351006,180,180,3.0772,0,0,68.9375,2.6533840792176,4.42058640659297,0.823597631691387,-0.0191051699932857,0.0412012451931881,-0.565464200695843,-0.45,-0.76,9.76
3.6508981,180,180,3.0478,0,0,68.9375,2.5137030651186,4.41606265811677,0.823597631691387,-0.017884392357932,0.041018128547885,-0.565525239577611,-0.46,-0.74,9.76
3.6689089,180,180,2.9792,0,0,68.9375,2.3740220510196,4.41153890964057,0.823597631691387,-0.0166025758408106,0.0408350119025819,-0.565586278459379,-0.47,-0.72,9.76
3.7658927,180,180,2.695,0,0,68.9375,1.62064932458026,4.35917446504926,0.82353659280962,-0.00933894891045596,0.039858389794299,-0.565891472868217,-0.53,-0.59,9.77
3.7848834,180,180,2.6166,0,0,68.9375,1.45122260827099,4.40961837251742,0.82353659280962,-0.00854544344747604,0.0397363120307636,-0.565891472868217,-0.55,-0.56,9.77
3.8008698,180,180,2.5774,0,0,68.9375,1.25657393822763,4.37534892183093,0.82353659280962,-0.00701947140328389,0.0394921565036929,-0.565952511749985,-0.55,-0.55,9.77
3.9818289,180,180,1.9796,0,0,68.9375,-0.504311589114964,4.34628589385056,0.82378074833669,0.00842336568394067,0.0374168345235915,-0.565769395104682,-0.69,-0.27,9.77
4.0028028,180,180,1.9012,0,0,68.875,-0.698960259158318,4.31201644316407,0.823902826100226,0.0101934932552036,0.0371116401147531,-0.565525239577611,-0.71,-0.22,9.77
4.0177796,180,180,1.8326,0,0,68.9375,-0.978322287356311,4.30296894621166,0.823841787218458,0.0121467374717695,0.036745406824147,-0.565647317341146,-0.72,-0.21,9.77
4.143754,180,180,1.4896,0,0,68.875,-2.3499104746122,4.34244481960426,0.823719709454923,0.0244155527070744,0.0355246291887933,-0.565464200695843,-0.84,0,9.77
4.1648301,180,180,1.4406,0,0,68.875,-2.54455914465555,4.30817536891777,0.823841787218458,0.026246719160105,0.0353415125434902,-0.565159006287005,-0.86,0.03,9.76
4.1818349,180,180,1.3818,0,0,68.875,-2.62927250281019,4.33339732265185,0.823719709454923,0.0280168467313679,0.0352194347799548,-0.565342122932308,-0.87,0.06,9.76
4.287939,180,180,1.2152,0,0,68.875,-3.55207194555881,4.3314767855287,0.823719709454923,0.0351583958981871,0.0343648904352072,-0.564975889641702,-0.94,0.18,9.75
4.3060412,180,180,1.2054,0,0,68.875,-3.6917529596578,4.3269530370525,0.823597631691387,0.0363181346517732,0.0343038515534395,-0.565036928523469,-0.95,0.2,9.75
4.3239575,180,180,1.1858,0,0,68.875,-3.8314339737568,4.32242928857629,0.823658670573155,0.0373557956418238,0.0342428126716719,-0.564914850759934,-0.96,0.22,9.75
4.427839,180,180,1.1662,0,0,68.875,-4.19550936010943,4.33860374535796,0.823597631691387,0.0405908563755112,0.0340596960263688,-0.564792772996399,-1,0.27,9.75
4.4460829,180,180,1.176,0,0,68.875,-4.19550936010943,4.33860374535796,0.82353659280962,0.0407739730208143,0.0341207349081365,-0.564853811878166,-1,0.28,9.75
4.4629695,180,180,1.1858,0,0,68.8125,-4.22525506231971,4.39357140130232,0.823597631691387,0.0408960507843496,0.0341207349081365,-0.564731734114631,-1,0.28,9.75
4.564903,180,180,1.3034,0,0,68.8125,-4.08557404822072,4.39809514977852,0.823658670573155,0.0393700787401575,0.0343648904352072,-0.564731734114631,-0.99,0.25,9.75
4.5839608,180,180,1.3426,0,0,68.8125,-4.00086069006608,4.37287319604445,0.823719709454923,0.039064884331319,0.0344259293169749,-0.564670695232863,-0.98,0.24,9.75
4.5990754,180,180,1.3622,0,0,68.8125,-3.91614733191144,4.34765124231037,0.823719709454923,0.0382103399865714,0.034609045962278,-0.564731734114631,-0.98,0.23,9.75
4.6968365,180,180,1.617,0,0,68.875,-3.3024556195711,4.39549193842547,0.823841787218458,0.0328389183910151,0.0352804736617225,-0.564914850759934,-0.93,0.13,9.76
4.7170709,180,180,1.6856,0,0,68.875,-3.10780694952774,4.42976138911195,0.823841787218458,0.0314350241103583,0.0355246291887933,-0.564914850759934,-0.92,0.11,9.76
4.7331406,180,180,1.715,0,0,68.875,-3.0230935913731,4.40453943537788,0.823841787218458,0.0307025575291461,0.0355856680705609,-0.564975889641702,-0.91,0.1,9.76
4.8308508,180,180,2.009,0,0,68.875,-2.18500750677913,4.4316819262351,0.824024903863761,0.0229506195446499,0.0365622901788439,-0.565036928523469,-0.84,-0.03,9.77
4.8488788,180,180,2.0874,0,0,68.875,-1.96061313452549,4.41098372097723,0.824024903863761,0.0212415308551547,0.0368064457059147,-0.565097967405237,-0.83,-0.06,9.77
4.8650214,180,180,2.1266,0,0,68.875,-1.90564547858113,4.44072942318751,0.824085942745529,0.0195324421656595,0.0370506012329854,-0.565036928523469,-0.81,-0.09,9.77
4.9638384,180,180,2.4696,0,0,68.8125,-0.898132677677876,4.41742800657658,0.824146981627297,0.0108038820728804,0.0382713788683391,-0.565097967405237,-0.73,-0.24,9.77
4.9828475,180,180,2.499,0,0,68.875,-0.703484007634522,4.45169745726307,0.824146981627297,0.00988829884636513,0.0383934566318745,-0.565159006287005,-0.72,-0.28,9.77
4.9988458,180,180,2.5774,0,0,68.8125,-0.424121979436529,4.46074495421548,0.824146981627297,0.00799609351156687,0.0386986510407129,-0.565097967405237,-0.71,-0.29,9.77
5.1089706,180,180,2.8714,0,0,68.875,0.693326133355442,4.49693494202511,0.824085942745529,-0.00170908868949521,0.0401025453213697,-0.565097967405237,-0.62,-0.47,9.77
5.1271056,180,180,2.9302,0,0,68.875,0.887974803398796,4.5312043927116,0.824085942745529,-0.00354025514252579,0.0404687786119758,-0.565097967405237,-0.61,-0.5,9.77
5.1440393,180,180,2.9596,0,0,68.875,1.08262347344215,4.56547384339808,0.824085942745529,-0.00531038271378868,0.0408350119025819,-0.565097967405237,-0.6,-0.53,9.77
5.2419697,180,180,3.1752,0,0,68.8125,1.92070955803613,4.59261633425531,0.824024903863761,-0.0132454373435879,0.0421168284197034,-0.564914850759934,-0.53,-0.68,9.76
5.2620136,180,180,3.1948,0,0,68.8125,2.11535822807948,4.62688578494179,0.824024903863761,-0.0147103705060123,0.0424830617103095,-0.564914850759934,-0.52,-0.7,9.76
5.2789698,180,180,3.2242,0,0,68.8125,2.25503924217848,4.631409533418,0.823963864981993,-0.0154428370872246,0.0426051394738448,-0.564914850759934,-0.51,-0.72,9.76
5.3779366,180,180,3.3222,0,0,68.8125,2.95344431267346,4.65402827579902,0.823902826100226,-0.0211194530916194,0.0435817615821278,-0.564792772996399,-0.47,-0.82,9.76
5.3969806,180,180,3.332,0,0,68.8125,3.00841196861782,4.6837739780093,0.823841787218458,-0.0220350363181347,0.0438259171091986,-0.564731734114631,-0.46,-0.84,9.75
5.4129792,180,180,3.3418,0,0,68.8125,3.14809298271682,4.6882977264855,0.823841787218458,-0.0228285417811146,0.0440090337545016,-0.564731734114631,-0.45,-0.85,9.75
5.5078433,180,180,3.3418,0,0,68.8125,3.34274165276017,4.72256717717199,0.82378074833669,-0.0247207471159128,0.0444363059268754,-0.564731734114631,-0.44,-0.89,9.75
5.5269847,180,180,3.332,0,0,68.8125,3.39770930870453,4.75231287938227,0.823719709454923,-0.0249649026429836,0.0445583836904108,-0.564731734114631,-0.44,-0.89,9.75
5.5440075,180,180,3.3222,0,0,68.8125,3.39770930870453,4.75231287938227,0.823719709454923,-0.025086980406519,0.0445583836904108,-0.564792772996399,-0.44,-0.89,9.75
5.6418804,180,180,3.2144,0,0,68.875,3.25802829460553,4.74778913090607,0.823658670573155,-0.0236830861258622,0.0445583836904108,-0.564914850759934,-0.45,-0.87,9.75
5.6619446,180,180,3.1752,0,0,68.875,3.17331493645089,4.77301108464014,0.823658670573155,-0.023133736189953,0.0445583836904108,-0.564914850759934,-0.46,-0.86,9.75
5.6789493,180,180,3.1654,0,0,68.875,3.11834728050653,4.74326538242986,0.823658670573155,-0.0227675028993469,0.0445583836904108,-0.564975889641702,-0.46,-0.86,9.75
5.7758742,180,180,2.9792,0,0,68.875,2.61459088005491,4.75491609073532,0.823658670573155,-0.0182506256485381,0.0440090337545016,-0.565220045168773,-0.5,-0.78,9.76
5.8001703,180,180,2.9302,0,0,68.875,2.52987752190027,4.7801380444694,0.823658670573155,-0.0171519257767198,0.0438869559909662,-0.56528108405054,-0.51,-0.76,9.76
5.8168899,180,180,2.8714,0,0,68.875,2.33522885185691,4.74586859378292,0.823658670573155,-0.0159921870231337,0.0436428004638955,-0.56528108405054,-0.53,-0.73,9.76
5.9139291,180,180,2.6166,0,0,68.9375,1.63682378136193,4.7232498514019,0.823597631691387,-0.00952206555575902,0.0427882561191479,-0.565586278459379,-0.58,-0.62,9.76
5.933083,180,180,2.548,0,0,68.9375,1.49714276726294,4.71872610292569,0.823597631691387,-0.00811817127510224,0.0426051394738448,-0.565647317341146,-0.59,-0.6,9.76
5.9490399,180,180,2.5088,0,0,68.9375,1.35746175316394,4.71420235444949,0.823597631691387,-0.00738570469389001,0.0424830617103095,-0.565708356222914,-0.6,-0.59,9.77
6.0470924,180,180,2.1952,0,0,68.9375,0.434662310415322,4.71228181732634,0.823475553927852,0.00030519440883843,0.0415064396020265,-0.565952511749985,-0.67,-0.45,9.77
6.0670288,180,180,2.156,0,0,69,0.240013640371968,4.67801236663985,0.823475553927852,0.00201428309833364,0.0412622840749557,-0.566013550631752,-0.68,-0.42,9.77
6.0829574,180,180,2.0874,0,0,69,0.155300282217329,4.70323432037393,0.823414515046084,0.00372337178782885,0.0410791674296527,-0.566013550631752,-0.7,-0.39,9.77
6.1798972,180,180,1.8032,0,0,69,-0.822466816475646,4.6715680810405,0.823292437282549,0.011658426417628,0.0401635842031374,-0.566135628395288,-0.77,-0.25,9.77
6.1981081,180,180,1.7346,0,0,69,-1.04686118872928,4.69226628629837,0.823292437282549,0.0134285539888909,0.0399194286760667,-0.566196667277056,-0.79,-0.22,9.77
6.2140194,180,180,1.7052,0,0,69,-1.24150985877264,4.65799683561189,0.823231398400781,0.0152597204419215,0.0397363120307636,-0.566196667277056,-0.81,-0.19,9.77
6.3139607,180,180,1.4798,0,0,69,-2.24902265967589,4.68129825222282,0.823109320637246,0.0239272416529329,0.0386986510407129,-0.566196667277056,-0.89,-0.04,9.76
6.3330363,180,180,1.4308,0,0,69,-2.44367132971925,4.64702880153633,0.823048281755478,0.0254532136971251,0.0385155343954099,-0.566196667277056,-0.9,-0.01,9.76
6.348994,180,180,1.4112,0,0,69,-2.52838468787388,4.67225075527041,0.823048281755478,0.026246719160105,0.0383934566318745,-0.566196667277056,-0.91,0,9.76
6.4470626,180,180,1.2642,0,0,69,-3.22678975836887,4.64963201288939,0.822926203991943,0.0327778795092474,0.0374778734053592,-0.56607458951352,-0.96,0.11,9.75
6.4649824,180,180,1.2544,0,0,69,-3.36647077246786,4.64510826441318,0.822926203991943,0.0337545016175304,0.0372947567600562,-0.566013550631752,-0.97,0.13,9.75
6.4809653,180,180,1.2446,0,0,69,-3.4511841306225,4.67033021814726,0.822926203991943,0.034609045962278,0.0371116401147531,-0.566013550631752,-0.98,0.14,9.75
6.5839146,180,180,1.2348,0,0,69,-3.78551381476485,4.63153701898457,0.822926203991943,0.0374168345235915,0.0366233290606116,-0.565891472868217,-1,0.19,9.75
6.6019133,180,180,1.2348,0,0,69,-3.78551381476485,4.63153701898457,0.822926203991943,0.0375999511688946,0.0365622901788439,-0.565830433986449,-1,0.2,9.75
6.617895,180,180,1.2446,0,0,69,-3.84048147070921,4.60179131677429,0.822926203991943,0.0376609900506623,0.0365012512970762,-0.565830433986449,-1,0.2,9.75
6.724957,180,180,1.3818,0,0,68.9375,-3.61608709845557,4.58109311151641,0.823109320637246,0.0361350180064701,0.0365012512970762,-0.565708356222914,-0.98,0.17,9.75
6.7450432,180,180,1.4014,0,0,68.9375,-3.61608709845557,4.58109311151641,0.823109320637246,0.035768784715864,0.0365012512970762,-0.565647317341146,-0.98,0.16,9.75
6.7620437,180,180,1.4406,0,0,68.9375,-3.47640608435658,4.58561685999262,0.823170359519014,0.0346700848440457,0.0365622901788439,-0.565647317341146,-0.97,0.15,9.75
6.8590566,180,180,1.6562,0,0,68.9375,-2.88793632575031,4.54874419795308,0.823475553927852,0.029359702130257,0.03692852346945,-0.565525239577611,-0.92,0.06,9.76
6.8780571,180,180,1.715,0,0,68.9375,-2.74825531165132,4.55326794642928,0.823475553927852,0.0286882744308124,0.0370506012329854,-0.565525239577611,-0.91,0.05,9.76
6.8949582,180,180,1.7444,0,0,68.9375,-2.69328765570696,4.58301364863956,0.82353659280962,0.027406457913691,0.0371726789965208,-0.565464200695843,-0.89,0.01,9.76
6.9939059,180,180,2.0482,0,0,68.875,-1.93539118079141,4.49569707913187,0.823841787218458,0.0201428309833364,0.03772202893243,-0.565342122932308,-0.82,-0.1,9.77
7.014227,180,180,2.0874,0,0,68.875,-1.65602915259342,4.50474457608428,0.823902826100226,0.0186168589391442,0.0378441066959653,-0.56528108405054,-0.81,-0.11,9.77
7.033999,180,180,2.156,0,0,68.875,-1.57131579443878,4.4795226223502,0.823902826100226,0.0170298480131844,0.0380272233412684,-0.56528108405054,-0.8,-0.14,9.77
7.1319915,180,180,2.4696,0,0,68.8125,-0.648516351690164,4.48144315947335,0.824146981627297,0.00897271561984984,0.0388207288042483,-0.565036928523469,-0.72,-0.28,9.77
7.1510683,180,180,2.499,0,0,68.8125,-0.45386768164681,4.51571261015984,0.824208020509064,0.00817921015686993,0.038881767686016,-0.565036928523469,-0.71,-0.29,9.77
7.169034,180,180,2.5676,0,0,68.8125,-0.174505653448817,4.52476010711224,0.824208020509064,0.0056766160043948,0.0391259232130867,-0.565036928523469,-0.69,-0.34,9.77
7.2679371,180,180,2.8028,0,0,68.8125,0.723071835565723,4.44196728608075,0.8243300982726,-0.00231947750717207,0.0399194286760667,-0.564853811878166,-0.61,-0.47,9.77
7.2872977,180,180,2.8616,0,0,68.8125,0.833007147454438,4.50145869050132,0.8243300982726,-0.00317402185191967,0.040041506439602,-0.564792772996399,-0.61,-0.49,9.77
7.3022096,180,180,2.891,0,0,68.8125,0.917720505609077,4.47623673676724,0.8243300982726,-0.00396752731489959,0.0401635842031374,-0.564792772996399,-0.6,-0.5,9.77
7.4019602,180,180,3.087,0,0,68.8125,1.75580659020306,4.50337922762446,0.8243300982726,-0.0112311542452542,0.041018128547885,-0.564609656351096,-0.53,-0.63,9.77
7.4209437,180,180,3.1066,0,0,68.8125,1.89548760430205,4.50790297610067,0.8243300982726,-0.0131843984618202,0.0413843618384911,-0.564609656351096,-0.52,-0.67,9.76
7.4379501,180,180,3.136,0,0,68.8125,2.03516861840105,4.51242672457687,0.824269059390832,-0.013794787279497,0.0415064396020265,-0.564548617469328,-0.51,-0.69,9.76
7.544017,180,180,3.2242,0,0,68.75,2.67860603295167,4.50529976474761,0.824208020509064,-0.0191662088750534,0.042177867301471,-0.56448757858756,-0.46,-0.77,9.76
7.5629045,180,180,3.234,0,0,68.75,2.78854134484039,4.56479116916818,0.824208020509064,-0.0198986754562656,0.0423609839467741,-0.56448757858756,-0.46,-0.79,9.76
7.5799505,180,180,3.2438,0,0,68.75,2.78854134484039,4.56479116916818,0.824208020509064,-0.0205701031557102,0.0424830617103095,-0.564426539705793,-0.46,-0.79,9.76
7.6790289,180,180,3.234,0,0,68.8125,3.06790337303838,4.57383866612058,0.824085942745529,-0.02215711408167,0.0428492950009156,-0.56448757858756,-0.44,-0.83,9.76
7.69913,180,180,3.2242,0,0,68.8125,3.06790337303838,4.57383866612058,0.824085942745529,-0.0222181529634377,0.0429103338826833,-0.56448757858756,-0.44,-0.83,9.76
7.7159868,180,180,3.2046,0,0,68.8125,3.06790337303838,4.57383866612058,0.824085942745529,-0.0222181529634377,0.0429103338826833,-0.56448757858756,-0.44,-0.83,9.76
7.8142707,180,180,3.0968,0,0,68.8125,2.84350900078475,4.59453687137846,0.824024903863761,-0.0205090642739425,0.0428492950009156,-0.564609656351096,-0.46,-0.8,9.76
7.8340236,180,180,3.0674,0,0,68.8125,2.75879564263011,4.61975882511253,0.824024903863761,-0.0199597143380333,0.0428492950009156,-0.564670695232863,-0.47,-0.79,9.76
7.8491951,180,180,3.0478,0,0,68.8125,2.70382798668575,4.59001312290225,0.824024903863761,-0.0192882866385888,0.0427882561191479,-0.564670695232863,-0.47,-0.78,9.76
7.9471292,180,180,2.8714,0,0,68.8125,2.20007158623412,4.60166383120772,0.824024903863761,-0.0147103705060123,0.0422999450650064,-0.564914850759934,-0.52,-0.7,9.76
7.9671507,180,180,2.8126,0,0,68.8125,2.06039057213513,4.59714008273151,0.824024903863761,-0.0136727095159617,0.042177867301471,-0.564975889641702,-0.53,-0.68,9.76
7.9840702,180,180,2.7636,0,0,68.8125,2.06039057213513,4.59714008273151,0.823963864981993,-0.0131233595800525,0.0421168284197034,-0.564975889641702,-0.54,-0.66,9.76
8.0812205,180,180,2.5186,0,0,68.875,1.33223979942986,4.62948899629485,0.823902826100226,-0.00762986022096075,0.0416285173655619,-0.565220045168773,-0.6,-0.56,9.77
8.1000486,180,180,2.4598,0,0,68.875,1.13759112938651,4.59521954560836,0.823902826100226,-0.0056766160043948,0.0415064396020265,-0.56528108405054,-0.6,-0.55,9.77
8.1162973,180,180,2.4304,0,0,68.875,0.968164413077231,4.64566345307652,0.823902826100226,-0.00433376060550571,0.0413843618384911,-0.565342122932308,-0.62,-0.52,9.77
8.2161017,180,180,2.1266,0,0,68.9375,0.130078328483252,4.61852096221929,0.82378074833669,0.00323506073368736,0.0405908563755112,-0.565525239577611,-0.69,-0.39,9.77
8.2351155,180,180,2.0874,0,0,68.9375,0.0453649703286134,4.64374291595337,0.82378074833669,0.00396752731489959,0.0405298174937435,-0.565586278459379,-0.69,-0.38,9.77
8.2510098,180,180,2.0286,0,0,68.9375,-0.149283699714741,4.60947346526688,0.823719709454923,0.00549349935909174,0.0404077397302081,-0.565586278459379,-0.71,-0.35,9.77
8.3472492,180,180,1.7738,0,0,68.9375,-1.017115486519,4.63729863035401,0.823658670573155,0.0136727095159617,0.0397973509125313,-0.565647317341146,-0.79,-0.22,9.77
8.3671312,180,180,1.7444,0,0,68.9375,-1.24150985877264,4.65799683561189,0.823597631691387,0.0153207593236892,0.0396752731489959,-0.565647317341146,-0.81,-0.19,9.77
8.3843579,180,180,1.6856,0,0,68.9375,-1.38119087287163,4.65347308713568,0.823597631691387,0.0161142647866691,0.0396142342672282,-0.565708356222914,-0.81,-0.17,9.77
8.4799618,180,180,1.4896,0,0,68.9375,-2.16430930152125,4.65607629848874,0.823475553927852,0.0236220472440945,0.0389428065677837,-0.565647317341146,-0.89,-0.05,9.76
8.4992262,180,180,1.4504,0,0,68.9375,-2.38870367377489,4.67677450374661,0.823414515046084,0.0250259415247513,0.038881767686016,-0.565647317341146,-0.9,-0.02,9.76
8.5160281,180,180,1.4308,0,0,68.9375,-2.52838468787388,4.67225075527041,0.823414515046084,0.0263687969236404,0.0387596899224806,-0.565647317341146,-0.91,0,9.76
8.6132147,180,180,1.3132,0,0,68.9375,-3.11685444648015,4.70912341730995,0.823292437282549,0.0316181407556614,0.0381493011048038,-0.565525239577611,-0.96,0.08,9.75
8.6320715,180,180,1.3132,0,0,68.9375,-3.11685444648015,4.70912341730995,0.823292437282549,0.0316181407556614,0.0381493011048038,-0.565525239577611,-0.97,0.1,9.75
8.64928,180,180,1.2936,0,0,68.9375,-3.25653546057915,4.70459966883374,0.823292437282549,0.0327778795092474,0.0380272233412684,-0.565464200695843,-0.97,0.1,9.75
8.7590935,180,180,1.3034,0,0,68.9375,-3.48092983283278,4.72529787409162,0.823292437282549,0.0349752792528841,0.0380272233412684,-0.565342122932308,-1,0.14,9.75
8.7781153,180,180,1.323,0,0,68.9375,-3.48092983283278,4.72529787409162,0.823353476164317,0.0350363181346518,0.0380272233412684,-0.565342122932308,-1,0.14,9.75
8.7943682,180,180,1.3328,0,0,68.9375,-3.48092983283278,4.72529787409162,0.823353476164317,0.0349752792528841,0.0380882622230361,-0.56528108405054,-1,0.14,9.75
8.890988,180,180,1.4504,0,0,68.875,-3.28628116278943,4.7595673247781,0.823475553927852,0.0330830739180858,0.0382103399865714,-0.565159006287005,-0.98,0.11,9.75
8.9100594,180,180,1.4896,0,0,68.875,-3.20156780463479,4.73434537104402,0.82353659280962,0.0324116462186413,0.0382713788683391,-0.565159006287005,-0.97,0.09,9.75
8.9263278,180,180,1.5092,0,0,68.875,-3.14660014869043,4.76409107325431,0.82353659280962,0.0319843740462675,0.0383324177501068,-0.565097967405237,-0.96,0.08,9.75
9.0221475,180,180,1.7444,0,0,68.875,-2.55813039008417,4.72721841121476,0.823841787218458,0.0269791857413172,0.0388207288042483,-0.564975889641702,-0.92,0,9.76
9.0400618,180,180,1.7738,0,0,68.875,-2.47341703192953,4.70199645748069,0.823841787218458,0.0258194469877312,0.0389428065677837,-0.564975889641702,-0.91,-0.01,9.76
9.0571225,180,180,1.8326,0,0,68.8125,-2.33373601783053,4.70652020595689,0.823902826100226,0.0245376304706098,0.0390038454495514,-0.564914850759934,-0.9,-0.03,9.76
9.1599912,180,180,2.0776,0,0,68.8125,-1.55061758918091,4.70391699460384,0.824208020509064,0.0176402368308613,0.0395531953854605,-0.564792772996399,-0.83,-0.15,9.76
9.1811602,180,180,2.1462,0,0,68.8125,-1.38119087287163,4.65347308713568,0.824208020509064,0.0162363425502045,0.0396752731489959,-0.564731734114631,-0.82,-0.17,9.77
9.1961399,180,180,2.205,0,0,68.8125,-1.24150985877264,4.65799683561189,0.824269059390832,0.01477140938778,0.0397973509125313,-0.564731734114631,-0.8,-0.2,9.77
9.2980106,180,180,2.4598,0,0,68.75,-0.373678071968376,4.63017167052475,0.824452176036135,0.00726362693035464,0.0404077397302081,-0.56448757858756,-0.73,-0.32,9.77
9.317159,180,180,2.5284,0,0,68.75,-0.179029401925022,4.66444112121124,0.824513214917903,0.00573765488616249,0.0405298174937435,-0.56448757858756,-0.71,-0.35,9.77
9.3330514,180,180,2.548,0,0,68.75,-0.0943160437703829,4.63921916747716,0.82457425379967,0.00421168284197034,0.0405908563755112,-0.564426539705793,-0.7,-0.38,9.77
9.4304856,180,180,2.793,0,0,68.75,0.773515743033876,4.61139400239003,0.824635292681438,-0.00225843862540438,0.0410791674296527,-0.56424342306049,-0.63,-0.5,9.77
9.4500726,180,180,2.8224,0,0,68.75,0.913196757132873,4.61591775086624,0.824635292681438,-0.00378441066959653,0.0412622840749557,-0.56424342306049,-0.61,-0.52,9.77
9.4670232,180,180,2.8714,0,0,68.75,1.05287777123187,4.62044149934244,0.824635292681438,-0.00518830495025331,0.0413843618384911,-0.564182384178722,-0.61,-0.54,9.77
9.5651314,180,180,3.0184,0,0,68.6875,1.78102854393713,4.5880925857791,0.824696331563206,-0.0114142708905573,0.0419337117744003,-0.564060306415186,-0.55,-0.64,9.76
9.5850726,180,180,3.0576,0,0,68.6875,1.83599619988149,4.61783828798938,0.824696331563206,-0.0119636208264665,0.041994750656168,-0.564060306415186,-0.54,-0.65,9.76
9.60103,180,180,3.0674,0,0,68.6875,1.97567721398049,4.62236203646559,0.824635292681438,-0.013611670634194,0.0421168284197034,-0.563999267533419,-0.53,-0.68,9.76
9.7031547,180,180,3.1556,0,0,68.6875,2.5091793166424,4.55574367221577,0.824635292681438,-0.0177012757126289,0.0424220228285418,-0.563938228651651,-0.49,-0.75,9.76
9.7220522,180,180,3.1556,0,0,68.6875,2.56414697258675,4.58548937442605,0.824635292681438,-0.0180064701214674,0.0424830617103095,-0.563938228651651,-0.48,-0.76,9.76
9.7381168,180,180,3.1654,0,0,68.6875,2.61911462853111,4.61523507663633,0.82457425379967,-0.0185558200573765,0.0425441005920772,-0.563938228651651,-0.48,-0.76,9.76
9.8371098,180,180,3.1458,0,0,68.6875,2.78854134484039,4.56479116916818,0.82457425379967,-0.0197765976927303,0.0426051394738448,-0.563938228651651,-0.47,-0.79,9.76
9.8552679,180,180,3.136,0,0,68.6875,2.78854134484039,4.56479116916818,0.824513214917903,-0.0197765976927303,0.0425441005920772,-0.563938228651651,-0.46,-0.79,9.76
9.8701647,180,180,3.1262,0,0,68.6875,2.73357368889603,4.53504546695789,0.824513214917903,-0.0197765976927303,0.0424830617103095,-0.563999267533419,-0.46,-0.78,9.76
9.8862883,180,180,3.1066,0,0,68.6875,2.73357368889603,4.53504546695789,0.824513214917903,-0.0195934810474272,0.0424220228285418,-0.563999267533419,-0.46,-0.78,9.76
10.13313,180,180,2.7146,0,0,68.75,2.5091793166424,4.55574367221577,0.824452176036135,-0.0134895928706586,0.0415064396020265,-0.564304461942257,-0.54,-0.63,9.77
10.2511715,180,180,2.4402,0,0,68.8125,1.02765581749779,4.5357281411878,0.824391137154367,-0.0048220716596472,0.0404077397302081,-0.564670695232863,-0.6,-0.52,9.77
10.2700864,180,180,2.3716,0,0,68.8125,0.887974803398796,4.5312043927116,0.824391137154367,-0.00354025514252579,0.0402856619666728,-0.564731734114631,-0.61,-0.5,9.77
10.2871318,180,180,2.3422,0,0,68.8125,0.693326133355442,4.49693494202511,0.8243300982726,-0.0021973997436367,0.0401025453213697,-0.564731734114631,-0.62,-0.47,9.77
10.4090582,180,180,2.0384,0,0,68.8125,-0.229473309393175,4.49501440490196,0.824208020509064,0.00604284929500092,0.0391869620948544,-0.564975889641702,-0.7,-0.33,9.77
10.4281283,180,180,1.9796,0,0,68.8125,-0.369154323492171,4.49049065642576,0.824208020509064,0.00756882133919307,0.0390038454495514,-0.564975889641702,-0.71,-0.3,9.77
10.4442098,180,180,1.9208,0,0,68.8125,-0.593548695745806,4.51118886168363,0.824208020509064,0.00909479338338522,0.0388207288042483,-0.565036928523469,-0.72,-0.28,9.77
10.5552218,180,180,1.6758,0,0,68.875,-1.43163478033979,4.48404637082641,0.824024903863761,0.0170908868949521,0.0381493011048038,-0.565097967405237,-0.8,-0.14,9.77
10.5761897,180,180,1.6268,0,0,68.875,-1.65602915259342,4.50474457608428,0.824024903863761,0.0185558200573765,0.0380272233412684,-0.565097967405237,-0.81,-0.12,9.77
10.5941551,180,180,1.6072,0,0,68.875,-1.79571016669242,4.50022082760807,0.824024903863761,0.0198986754562656,0.037905145577733,-0.565097967405237,-0.83,-0.09,9.77
10.7081378,180,180,1.4308,0,0,68.875,-2.55360664160796,4.58753739711577,0.823902826100226,0.0266129524507111,0.0374778734053592,-0.564975889641702,-0.9,0.02,9.76
10.7272095,180,180,1.4112,0,0,68.875,-2.6383199997626,4.61275935084984,0.823841787218458,0.0275285356772264,0.0374168345235915,-0.564975889641702,-0.91,0.03,9.76
10.7441651,180,180,1.4014,0,0,68.875,-2.7780010138616,4.60823560237364,0.823841787218458,0.028383080021974,0.0374168345235915,-0.564975889641702,-0.91,0.04,9.76
10.8602247,180,180,1.3622,0,0,68.8125,-3.14207640021423,4.62441005915531,0.823841787218458,0.0319233351644998,0.0372947567600562,-0.564792772996399,-0.95,0.1,9.75
10.8822245,180,180,1.3622,0,0,68.8125,-3.14207640021423,4.62441005915531,0.823841787218458,0.0321674906915705,0.0373557956418238,-0.564792772996399,-0.95,0.1,9.75
10.8983633,180,180,1.3622,0,0,68.8125,-3.19704405615859,4.59466435694503,0.823841787218458,0.0322895684551059,0.0374168345235915,-0.564731734114631,-0.96,0.1,9.75
11.0132868,180,180,1.47,0,0,68.8125,-3.08710874426987,4.65415576136559,0.823963864981993,0.0310077519379845,0.037905145577733,-0.564609656351096,-0.95,0.08,9.75
11.0340872,180,180,1.4994,0,0,68.8125,-3.03214108832551,4.68390146357587,0.824024903863761,0.0307635964109138,0.037905145577733,-0.564609656351096,-0.95,0.07,9.75
11.0511473,180,180,1.5386,0,0,68.8125,-2.89246007422652,4.68842521205207,0.824024903863761,0.0299090520661661,0.0380882622230361,-0.564548617469328,-0.94,0.06,9.76
11.1602109,180,180,1.7444,0,0,68.75,-2.38870367377489,4.67677450374661,0.824269059390832,0.0249649026429836,0.0388207288042483,-0.564426539705793,-0.9,-0.02,9.76
11.179073,180,180,1.764,0,0,68.75,-2.33373601783053,4.70652020595689,0.8243300982726,0.0244155527070744,0.0389428065677837,-0.564365500824025,-0.89,-0.03,9.76
11.1972491,180,180,1.8228,0,0,68.75,-2.24902265967589,4.68129825222282,0.8243300982726,0.0233168528352561,0.039064884331319,-0.564365500824025,-0.88,-0.06,9.76
11.2941156,180,180,2.0482,0,0,68.75,-1.55061758918091,4.70391699460384,0.82457425379967,0.0176402368308613,0.0397363120307636,-0.564182384178722,-0.83,-0.15,9.76
11.3123325,180,180,2.1168,0,0,68.75,-1.32622321692727,4.68321878934596,0.824635292681438,0.0156869926142953,0.0399804675578343,-0.564182384178722,-0.82,-0.18,9.77
11.3290954,180,180,2.1462,0,0,68.75,-1.27125556098292,4.71296449155624,0.824635292681438,0.0150155649148508,0.040041506439602,-0.564121345296954,-0.81,-0.2,9.77
11.4252551,180,180,2.4108,0,0,68.6875,-0.488137132333296,4.71036128020319,0.824818409326741,0.00824024903863761,0.0408350119025819,-0.563938228651651,-0.75,-0.31,9.77
11.4444125,180,180,2.4402,0,0,68.6875,-0.293488462289941,4.74463073088967,0.824879448208509,0.00689739363974852,0.0409570896661173,-0.563877189769883,-0.73,-0.34,9.77
11.4622876,180,180,2.4892,0,0,68.6875,-0.124061745980664,4.69418682342152,0.824879448208509,0.00549349935909174,0.0410791674296527,-0.563877189769883,-0.72,-0.36,9.77
11.5582724,180,180,2.7048,0,0,68.625,0.51937566856996,4.68705986359226,0.825001525972044,-0.00109869987181835,0.0416895562473295,-0.56369407312458,-0.66,-0.47,9.77
11.5782155,180,180,2.744,0,0,68.625,0.659056682668957,4.69158361206847,0.825001525972044,-0.00238051638893975,0.0418726728926326,-0.563633034242813,-0.65,-0.5,9.77
11.5962426,180,180,2.7734,0,0,68.625,0.853705352712311,4.72585306275495,0.825062564853812,-0.0030519440883843,0.0419337117744003,-0.563633034242813,-0.63,-0.52,9.77
11.6920628,180,180,2.9302,0,0,68.625,1.49714276726294,4.71872610292569,0.825062564853812,-0.00891167673808216,0.0425441005920772,-0.56344991759751,-0.58,-0.61,9.76
11.713363,180,180,2.9596,0,0,68.625,1.63682378136193,4.7232498514019,0.825062564853812,-0.00994933772813282,0.0426051394738448,-0.56344991759751,-0.57,-0.63,9.76
11.7283642,180,180,2.989,0,0,68.625,1.72153713951657,4.69802789766782,0.825062564853812,-0.0104376487822743,0.0426661783556125,-0.56344991759751,-0.57,-0.64,9.76
11.8301826,180,180,3.0674,0,0,68.625,2.14058018181356,4.71159914309643,0.825062564853812,-0.014588292742477,0.0430934505279863,-0.563327839833974,-0.53,-0.71,9.76
11.8483798,180,180,3.0772,0,0,68.625,2.28026119591256,4.71612289157264,0.825001525972044,-0.0155038759689922,0.043154489409754,-0.563327839833974,-0.52,-0.72,9.76
11.8642229,180,180,3.087,0,0,68.625,2.28026119591256,4.71612289157264,0.825001525972044,-0.0158090703778307,0.0432155282915217,-0.563327839833974,-0.52,-0.73,9.76
11.9601996,180,180,3.087,0,0,68.625,2.50465556816619,4.69542468631476,0.825001525972044,-0.0173350424220228,0.0433986449368248,-0.563327839833974,-0.51,-0.75,9.76
11.979221,180,180,3.0772,0,0,68.625,2.50465556816619,4.69542468631476,0.825001525972044,-0.0173350424220228,0.0433376060550571,-0.563327839833974,-0.5,-0.75,9.76
11.9951954,180,180,3.0674,0,0,68.625,2.50465556816619,4.69542468631476,0.824940487090276,-0.0173350424220228,0.0432765671732894,-0.563327839833974,-0.5,-0.75,9.76
12.0941988,180,180,2.989,0,0,68.625,2.39472025627748,4.6359332818942,0.824940487090276,-0.0162363425502045,0.0427882561191479,-0.56344991759751,-0.51,-0.73,9.76
12.1163454,180,180,2.9596,0,0,68.625,2.31000689812284,4.66115523562828,0.824940487090276,-0.0158090703778307,0.0427272172373802,-0.563510956479277,-0.51,-0.72,9.76
12.2302046,180,180,2.7734,0,0,68.6875,1.86574190209177,4.56287063204503,0.824940487090276,-0.0120246597082341,0.0419337117744003,-0.56369407312458,-0.54,-0.65,9.76
12.2493364,180,180,2.744,0,0,68.6875,1.72606088799277,4.55834688356882,0.824940487090276,-0.0107428431911127,0.0416895562473295,-0.563755112006348,-0.55,-0.63,9.77
12.2652755,180,180,2.7048,0,0,68.6875,1.64134752983814,4.5835688373029,0.824879448208509,-0.0103155710187389,0.0416285173655619,-0.563755112006348,-0.55,-0.62,9.77
12.3620959,180,180,2.499,0,0,68.6875,1.08262347344215,4.56547384339808,0.824879448208509,-0.005249343832021,0.0407739730208143,-0.563938228651651,-0.6,-0.53,9.77
12.3811452,180,180,2.45,0,0,68.6875,1.02765581749779,4.5357281411878,0.824818409326741,-0.00421168284197034,0.0406518952572789,-0.563999267533419,-0.61,-0.51,9.77
12.3993311,180,180,2.4206,0,0,68.6875,0.887974803398796,4.5312043927116,0.824818409326741,-0.0030519440883843,0.0405298174937435,-0.564060306415186,-0.62,-0.49,9.77
12.494104,180,180,2.1854,0,0,68.75,0.189569732903814,4.50858565033058,0.824757370444973,0.00244155527070744,0.0396142342672282,-0.564182384178722,-0.67,-0.38,9.77
12.5163606,180,180,2.1364,0,0,68.75,0.0498887188048176,4.50406190185437,0.824757370444973,0.00366233290606116,0.0394311176219252,-0.56424342306049,-0.67,-0.37,9.77
12.5365611,180,180,2.0776,0,0,68.75,-0.0897922952941788,4.49953815337817,0.824696331563206,0.00494414942318257,0.0393090398583898,-0.56424342306049,-0.69,-0.35,9.77
12.6361558,180,180,1.8522,0,0,68.75,-0.8729107239438,4.50214136473122,0.824635292681438,0.011658426417628,0.0383324177501068,-0.564365500824025,-0.74,-0.23,9.77
12.6551805,180,180,1.8032,0,0,68.75,-1.0125917380428,4.49761761625502,0.82457425379967,0.0129402429347494,0.0382103399865714,-0.564365500824025,-0.76,-0.21,9.77
12.6711951,180,180,1.7836,0,0,68.75,-1.20724040808615,4.46334816556853,0.82457425379967,0.0142830983336385,0.0380882622230361,-0.564426539705793,-0.77,-0.19,9.77
12.7851084,180,180,1.5778,0,0,68.75,-1.99035883673577,4.46595137692159,0.824452176036135,0.020997375328084,0.0372947567600562,-0.564426539705793,-0.83,-0.07,9.77
12.8032798,180,180,1.5386,0,0,68.75,-2.07507219489041,4.49117333065566,0.824452176036135,0.02215711408167,0.0371726789965208,-0.564426539705793,-0.84,-0.05,9.76
12.8182926,180,180,1.5288,0,0,68.75,-2.21475320898941,4.48664958217946,0.824391137154367,0.0233168528352561,0.0370506012329854,-0.564365500824025,-0.85,-0.03,9.76
12.9271282,180,180,1.4308,0,0,68.75,-2.6337962512864,4.47307833675085,0.824391137154367,0.0277116523225295,0.0365622901788439,-0.564304461942257,-0.89,0.04,9.76
12.9460907,180,180,1.421,0,0,68.75,-2.71850960944103,4.49830029048492,0.824391137154367,0.0282610022584386,0.0365012512970762,-0.564304461942257,-0.9,0.05,9.76
12.9631473,180,180,1.421,0,0,68.75,-2.77347726538539,4.46855458827464,0.824391137154367,0.0285051577855094,0.0365012512970762,-0.56424342306049,-0.9,0.05,9.76
13.0635024,180,180,1.4406,0,0,68.75,-2.94290398169467,4.5189984957428,0.824391137154367,0.0298480131843985,0.036745406824147,-0.564121345296954,-0.92,0.07,9.76
13.0832543,180,180,1.4504,0,0,68.75,-2.94290398169467,4.5189984957428,0.824391137154367,0.0298480131843985,0.036745406824147,-0.564121345296954,-0.92,0.07,9.76
13.1001976,180,180,1.4602,0,0,68.75,-2.88793632575031,4.54874419795308,0.824452176036135,0.0297259354208631,0.036745406824147,-0.564121345296954,-0.92,0.07,9.76
13.1994498,180,180,1.5876,0,0,68.6875,-2.66354195349668,4.52804599269521,0.82457425379967,0.0276506134407618,0.0371116401147531,-0.563999267533419,-0.9,0.03,9.76
13.2182207,180,180,1.6072,0,0,68.6875,-2.60857429755232,4.55779169490549,0.82457425379967,0.0273454190319233,0.0371726789965208,-0.563999267533419,-0.9,0.02,9.76
13.2342084,180,180,1.6464,0,0,68.6875,-2.60857429755232,4.55779169490549,0.824635292681438,0.026246719160105,0.0372947567600562,-0.563938228651651,-0.89,0.01,9.76
13.3362451,180,180,1.8228,0,0,68.6875,-2.02010453894605,4.52091903286595,0.824818409326741,0.0214856863822255,0.0379661844595007,-0.563816150888116,-0.85,-0.07,9.76
13.3552299,180,180,1.8718,0,0,68.6875,-1.88042352484706,4.52544278134215,0.824879448208509,0.0203869865104071,0.0380882622230361,-0.563755112006348,-0.84,-0.09,9.77
13.3711893,180,180,1.9012,0,0,68.6875,-1.88042352484706,4.52544278134215,0.824879448208509,0.0197765976927303,0.0381493011048038,-0.563755112006348,-0.83,-0.11,9.77
13.4723752,180,180,2.1462,0,0,68.625,-1.12705079840772,4.57780722593345,0.825062564853812,0.013794787279497,0.0390038454495514,-0.563571995361045,-0.78,-0.2,9.77
13.4932269,180,180,2.205,0,0,68.625,-0.987369784308719,4.58233097440966,0.82512360373558,0.0119025819446988,0.0391869620948544,-0.563571995361045,-0.76,-0.24,9.77
13.5101416,180,180,2.2344,0,0,68.625,-0.847688770209723,4.58685472288586,0.825184642617347,0.0112921931270219,0.0393090398583898,-0.563510956479277,-0.76,-0.25,9.77
13.6071464,180,180,2.4696,0,0,68.625,-0.064570341560102,4.58425151153281,0.825306720380883,0.00500518830495025,0.0401635842031374,-0.563327839833974,-0.7,-0.36,9.77
13.6291469,180,180,2.5186,0,0,68.625,-0.00960268561574429,4.61399721374309,0.825306720380883,0.00433376060550571,0.0402246230849051,-0.563327839833974,-0.69,-0.37,9.77
13.6451978,180,180,2.548,0,0,68.5625,0.214791686637891,4.59329900848521,0.82536775926265,0.00250259415247513,0.0404077397302081,-0.563266800952207,-0.68,-0.4,9.77
13.758206,180,180,2.7636,0,0,68.5625,0.828483398978234,4.64113970460031,0.825428798144418,-0.0039064884331319,0.0413843618384911,-0.563083684306903,-0.62,-0.51,9.77
13.7784692,180,180,2.7832,0,0,68.5625,0.968164413077231,4.64566345307652,0.825428798144418,-0.00445583836904108,0.0414454007202588,-0.563083684306903,-0.62,-0.52,9.77
13.7944435,180,180,2.8224,0,0,68.5625,1.19255878533087,4.62496524781864,0.825428798144418,-0.0061038881767686,0.0417505951290972,-0.563022645425136,-0.6,-0.55,9.77
13.8952424,180,180,2.94,0,0,68.5625,1.72153713951657,4.69802789766782,0.825428798144418,-0.0107428431911127,0.0424220228285418,-0.5629005676616,-0.56,-0.64,9.76
13.9136036,180,180,2.9596,0,0,68.5625,1.75128284172685,4.64306024172346,0.825428798144418,-0.0111090764817189,0.0424830617103095,-0.5629005676616,-0.56,-0.64,9.76
13.9303605,180,180,2.9694,0,0,68.5625,1.86121815361557,4.70255164614402,0.825428798144418,-0.0118415430629311,0.0425441005920772,-0.5629005676616,-0.55,-0.66,9.76
14.0253204,180,180,3.0282,0,0,68.5625,2.14058018181356,4.71159914309643,0.825428798144418,-0.014588292742477,0.0430324116462186,-0.562839528779833,-0.53,-0.71,9.76
14.0454408,180,180,3.0282,0,0,68.5625,2.2252935399682,4.68637718936236,0.82536775926265,-0.01477140938778,0.0430934505279863,-0.562839528779833,-0.53,-0.71,9.76
14.0614506,180,180,3.0282,0,0,68.5625,2.2252935399682,4.68637718936236,0.82536775926265,-0.0148934871513154,0.043154489409754,-0.562839528779833,-0.53,-0.71,9.76
14.1602544,180,180,2.9988,0,0,68.5625,2.28026119591256,4.71612289157264,0.82536775926265,-0.0154428370872246,0.0432155282915217,-0.562839528779833,-0.52,-0.72,9.76
14.179178,180,180,2.9792,0,0,68.5625,2.2252935399682,4.68637718936236,0.82536775926265,-0.0153207593236892,0.0432155282915217,-0.5629005676616,-0.53,-0.72,9.76
14.1943368,180,180,2.9694,0,0,68.5625,2.2252935399682,4.68637718936236,0.825306720380883,-0.0150766037966184,0.043154489409754,-0.5629005676616,-0.53,-0.72,9.76
14.2903313,180,180,2.8714,0,0,68.5625,2.00089916771456,4.70707539462023,0.825306720380883,-0.0131843984618202,0.0429103338826833,-0.563022645425136,-0.54,-0.68,9.76
14.31039,180,180,2.842,0,0,68.5625,1.94593151177021,4.67732969240995,0.825306720380883,-0.0125740096441433,0.0428492950009156,-0.563022645425136,-0.55,-0.67,9.76
14.327453,180,180,2.8224,0,0,68.5625,1.86121815361557,4.70255164614402,0.825306720380883,-0.0119025819446988,0.0426661783556125,-0.563083684306903,-0.55,-0.66,9.76
14.4232788,180,180,2.6362,0,0,68.5625,1.44217511131858,4.68898040071541,0.825245681499115,-0.00793505462979918,0.0420557895379357,-0.563266800952207,-0.59,-0.59,9.77
14.4423744,180,180,2.6166,0,0,68.625,1.33223979942986,4.62948899629485,0.825245681499115,-0.00750778245742538,0.041994750656168,-0.563266800952207,-0.6,-0.57,9.77
14.4593952,180,180,2.5676,0,0,68.625,1.24752644127522,4.65471095002893,0.825245681499115,-0.0065311603491424,0.0418116340108649,-0.563266800952207,-0.6,-0.56,9.77
14.5552269,180,180,2.3716,0,0,68.625,0.63383472893488,4.60687025391383,0.825184642617347,-0.00158701092595984,0.0411402063114204,-0.563510956479277,-0.64,-0.47,9.77
14.5753556,180,180,2.3226,0,0,68.625,0.549121370780242,4.6320922076479,0.825184642617347,-0.000427272172373802,0.0409570896661173,-0.563510956479277,-0.65,-0.45,9.77
14.5923126,180,180,2.2932,0,0,68.625,0.494153714835884,4.60234650543762,0.82512360373558,0.000671427699444546,0.0407129341390466,-0.563571995361045,-0.66,-0.43,9.77
14.6873051,180,180,2.0776,0,0,68.625,-0.204251355659098,4.5797277630566,0.825062564853812,0.00585973264969786,0.040041506439602,-0.56369407312458,-0.71,-0.34,9.77
14.7072945,180,180,2.0286,0,0,68.625,-0.343932369758095,4.5752040145804,0.825062564853812,0.00701947140328389,0.039858389794299,-0.563755112006348,-0.72,-0.32,9.77
14.7242937,180,180,1.9992,0,0,68.6875,-0.428645727912733,4.60042596831447,0.825062564853812,0.00762986022096075,0.0397363120307636,-0.563755112006348,-0.73,-0.3,9.77
14.8242973,180,180,1.7836,0,0,68.6875,-1.12705079840772,4.57780722593345,0.824940487090276,0.0135506317524263,0.0390038454495514,-0.563816150888116,-0.78,-0.2,9.77
14.8461779,180,180,1.7444,0,0,68.6875,-1.32169946845107,4.54353777524697,0.824940487090276,0.0153207593236892,0.0387596899224806,-0.563816150888116,-0.79,-0.18,9.77
14.8622109,180,180,1.7248,0,0,68.6875,-1.32169946845107,4.54353777524697,0.824879448208509,0.0158701092595984,0.0386376121589452,-0.563816150888116,-0.8,-0.16,9.77
14.9773586,180,180,1.5582,0,0,68.6875,-2.10481789710069,4.54614098660002,0.824818409326741,0.0220350363181347,0.037905145577733,-0.563816150888116,-0.85,-0.06,9.76
14.9975895,180,180,1.5386,0,0,68.6875,-2.15978555304505,4.51639528438974,0.824818409326741,0.0228285417811146,0.03772202893243,-0.563816150888116,-0.86,-0.04,9.76
15.0133801,180,180,1.5288,0,0,68.6875,-2.21475320898941,4.48664958217946,0.824818409326741,0.0231947750717207,0.0375999511688946,-0.563755112006348,-0.86,-0.03,9.76
15.1113709,180,180,1.4798,0,0,68.6875,-2.52386093939768,4.53256974117141,0.824818409326741,0.0261856802783373,0.0372947567600562,-0.56369407312458,-0.89,0.01,9.76
15.133332,180,180,1.4798,0,0,68.6875,-2.52386093939768,4.53256974117141,0.824818409326741,0.0267960690960142,0.0371726789965208,-0.56369407312458,-0.89,0.01,9.76
15.1502642,180,180,1.4798,0,0,68.6875,-2.60857429755232,4.55779169490549,0.824818409326741,0.0269181468595495,0.0371726789965208,-0.563633034242813,-0.89,0.02,9.76
15.2512921,180,180,1.5288,0,0,68.625,-2.60857429755232,4.55779169490549,0.824879448208509,0.0271012635048526,0.0371726789965208,-0.563571995361045,-0.9,0.02,9.76
15.2733211,180,180,1.5484,0,0,68.625,-2.57882859534204,4.50282403896113,0.824940487090276,0.0267350302142465,0.0371726789965208,-0.563510956479277,-0.89,0.02,9.76
15.2883178,180,180,1.5582,0,0,68.625,-2.52386093939768,4.53256974117141,0.824940487090276,0.0265519135689434,0.0371726789965208,-0.563510956479277,-0.89,0.01,9.76
15.3873681,180,180,1.6856,0,0,68.625,-2.29946656714404,4.51187153591354,0.825062564853812,0.0238051638893975,0.0374168345235915,-0.563388878715742,-0.86,-0.02,9.76
15.406383,180,180,1.7248,0,0,68.625,-2.21475320898941,4.48664958217946,0.82512360373558,0.0230116584264176,0.0374778734053592,-0.563327839833974,-0.86,-0.04,9.76
15.4234127,180,180,1.7444,0,0,68.625,-2.07507219489041,4.49117333065566,0.82512360373558,0.02215711408167,0.0375389122871269,-0.563327839833974,-0.85,-0.05,9.76
15.5232237,180,180,1.9502,0,0,68.5625,-1.51634813849442,4.50926832456048,0.82536775926265,0.0172740035402551,0.0380272233412684,-0.563205762070439,-0.8,-0.14,9.77
15.5422207,180,180,1.9992,0,0,68.5625,-1.43163478033979,4.48404637082641,0.82536775926265,0.0161753036684368,0.0381493011048038,-0.563144723188671,-0.79,-0.15,9.77
15.5582321,180,180,2.0286,0,0,68.5625,-1.34692142218515,4.45882441709233,0.82536775926265,0.0156259537325276,0.0381493011048038,-0.563144723188671,-0.79,-0.16,9.77
15.6563714,180,180,2.2246,0,0,68.5625,-0.648516351690164,4.48144315947335,0.825550875907953,0.00982725996459745,0.0387596899224806,-0.563022645425136,-0.73,-0.27,9.77
15.6762243,180,180,2.2834,0,0,68.5625,-0.508835337591168,4.48596690794955,0.825611914789721,0.00866752121101141,0.038881767686016,-0.562961606543368,-0.72,-0.28,9.77
15.6923164,180,180,2.303,0,0,68.5625,-0.424121979436529,4.46074495421548,0.825611914789721,0.00750778245742538,0.0390038454495514,-0.5629005676616,-0.71,-0.3,9.77
15.7873103,180,180,2.5284,0,0,68.5,0.189569732903814,4.50858565033058,0.825733992553256,0.00231947750717207,0.0394921565036929,-0.562778489898065,-0.65,-0.4,9.77
15.8063458,180,180,2.548,0,0,68.5,0.329250747002811,4.51310939880678,0.825733992553256,0.00122077763535372,0.0396142342672282,-0.562717451016297,-0.64,-0.42,9.77
15.8213206,180,180,2.5872,0,0,68.5,0.358996449213092,4.45814174286242,0.825795031435024,0.000671427699444546,0.0396752731489959,-0.562717451016297,-0.64,-0.43,9.77
15.838376,180,180,2.6068,0,0,68.5,0.498677463312088,4.46266549133863,0.825795031435024,-0.000854544344747604,0.0397973509125313,-0.56265641213453,-0.63,-0.45,9.77
15.9373179,180,180,2.7636,0,0,68.5,1.05740151970807,4.48076048524344,0.825856070316792,-0.00537142159555637,0.0404077397302081,-0.562534334370994,-0.59,-0.54,9.77
15.956215,180,180,2.793,0,0,68.5,1.19708253380707,4.48528423371965,0.825856070316792,-0.00622596594030397,0.0405298174937435,-0.562534334370994,-0.58,-0.55,9.77
15.9724004,180,180,2.8126,0,0,68.5,1.25205018975143,4.51502993592993,0.825856070316792,-0.00665323811267778,0.0405908563755112,-0.562534334370994,-0.58,-0.56,9.77
16.0692365,180,180,2.9204,0,0,68.5,1.67109323204842,4.52860118135854,0.825856070316792,-0.010498687664042,0.0411402063114204,-0.562412256607459,-0.55,-0.62,9.77
16.0895035,180,180,2.9302,0,0,68.5,1.72606088799277,4.55834688356882,0.825856070316792,-0.0113532320087896,0.0413233229567234,-0.562412256607459,-0.54,-0.63,9.77
16.1092137,180,180,2.94,0,0,68.5,1.81077424614741,4.53312492983475,0.825856070316792,-0.011658426417628,0.0413233229567234,-0.562412256607459,-0.54,-0.64,9.77
16.2083908,180,180,2.9694,0,0,68.5,2.00542291619077,4.56739438052123,0.825795031435024,-0.0133064762253556,0.0418116340108649,-0.562351217725691,-0.53,-0.67,9.76
16.2292434,180,180,2.9596,0,0,68.5,2.00542291619077,4.56739438052123,0.825795031435024,-0.0135506317524263,0.0419337117744003,-0.562351217725691,-0.52,-0.68,9.76
16.2442479,180,180,2.9596,0,0,68.5,2.06039057213513,4.59714008273151,0.825795031435024,-0.013611670634194,0.0419337117744003,-0.562351217725691,-0.52,-0.68,9.76
16.3413595,180,180,2.9106,0,0,68.5,1.97567721398049,4.62236203646559,0.825733992553256,-0.0131843984618202,0.041994750656168,-0.562412256607459,-0.53,-0.67,9.76
16.3605685,180,180,2.891,0,0,68.5,1.97567721398049,4.62236203646559,0.825733992553256,-0.0130012818165171,0.041994750656168,-0.562473295489227,-0.53,-0.67,9.76
16.3764155,180,180,2.8812,0,0,68.5,1.92070955803613,4.59261633425531,0.825733992553256,-0.0126960874076787,0.0419337117744003,-0.562473295489227,-0.53,-0.66,9.76
16.4713706,180,180,2.7734,0,0,68.5,1.64134752983814,4.5835688373029,0.825672953671489,-0.0104376487822743,0.0417505951290972,-0.562595373252762,-0.56,-0.62,9.77
16.4894683,180,180,2.7342,0,0,68.5,1.5566341716835,4.60879079103698,0.825672953671489,-0.00946102667399133,0.0416285173655619,-0.562595373252762,-0.56,-0.61,9.77
16.5044941,180,180,2.7146,0,0,68.5,1.50166651573914,4.57904508882669,0.825672953671489,-0.00909479338338522,0.0415674784837942,-0.56265641213453,-0.57,-0.6,9.77
16.5195241,180,180,2.7048,0,0,68.5,1.50166651573914,4.57904508882669,0.825672953671489,-0.0087285600927791,0.0415064396020265,-0.56265641213453,-0.57,-0.59,9.77
16.6153863,180,180,2.5186,0,0,68.5625,0.997910115287512,4.59069579713216,0.825611914789721,-0.00457791613257645,0.0411402063114204,-0.562839528779833,-0.61,-0.52,9.77
16.6333958,180,180,2.4892,0,0,68.5625,0.913196757132873,4.61591775086624,0.825611914789721,-0.00415064396020265,0.0411402063114204,-0.562839528779833,-0.62,-0.5,9.77
16.6494807,180,180,2.4696,0,0,68.5625,0.858229101188515,4.58617204865595,0.825611914789721,-0.00323506073368736,0.041018128547885,-0.562839528779833,-0.63,-0.49,9.77
16.6655093,180,180,2.4206,0,0,68.5625,0.718548087089519,4.58164830017975,0.825550875907953,-0.00225843862540438,0.0409570896661173,-0.5629005676616,-0.63,-0.48,9.77
16.76127,180,180,2.2246,0,0,68.5625,0.159824030693533,4.56355330627493,0.825489837026186,0.00268571079777818,0.0403467008484405,-0.563083684306903,-0.68,-0.4,9.77
16.782555,180,180,2.1756,0,0,68.5625,0.0201430165945367,4.55902955779873,0.825489837026186,0.00372337178782885,0.0402246230849051,-0.563083684306903,-0.69,-0.38,9.77
16.7992856,180,180,2.156,0,0,68.5625,-0.00960268561574429,4.61399721374309,0.825428798144418,0.0048220716596472,0.0401025453213697,-0.563144723188671,-0.7,-0.36,9.77
16.9092605,180,180,1.9208,0,0,68.5625,-0.762975412055084,4.56163276915178,0.82536775926265,0.0107428431911127,0.0394921565036929,-0.563266800952207,-0.75,-0.26,9.77
16.9292421,180,180,1.8914,0,0,68.5625,-0.902656426154081,4.55710902067558,0.825306720380883,0.0118415430629311,0.0393700787401575,-0.563266800952207,-0.76,-0.24,9.77
16.9453081,180,180,1.8522,0,0,68.5625,-0.987369784308719,4.58233097440966,0.825306720380883,0.0123298541170726,0.0393090398583898,-0.563266800952207,-0.77,-0.23,9.77
17.0433081,180,180,1.7052,0,0,68.625,-1.5460938407047,4.56423598050484,0.825245681499115,0.0174571201855582,0.0388207288042483,-0.563266800952207,-0.82,-0.14,9.77
