Time (s),Setpoint (deg),Motor Position (deg),Tension 1 (N),Tension 2 (N),Tension 3 (N),Heading (deg),Pitch (deg),Roll (deg),Quaternion W,Quaternion X,Quaternion Y,Quaternion Z,Gravity X,Gravity Y,Gravity Z
0,0,0,0,0,0,0,0,0,0,0,0,0,0,0,0
0.0233109,0,0.45,0,0,0.98,65.0625,4.05181221195472,3.40163182150194,0.842092412866996,-0.0318012574009644,0.0341207349081365,-0.537447353964475,-0.22,-0.88,9.76
0.0634536,0,0,0,0,0.9604,65.0625,4.05181221195472,3.40163182150194,0.842092412866996,-0.0318012574009644,0.0341207349081365,-0.537447353964475,-0.22,-0.88,9.76
0.1651867,0,0,0,0,0.9408,65.0625,4.05181221195472,3.40163182150194,0.842092412866996,-0.0318012574009644,0.0341207349081365,-0.537447353964475,-0.22,-0.88,9.76
0.1871839,0,0,0,0,0.9408,65.0625,4.05181221195472,3.40163182150194,0.842092412866996,-0.0318012574009644,0.0341207349081365,-0.537447353964475,-0.22,-0.88,9.76
0.2105797,0,0,0,0,0.9408,65.0625,4.05181221195472,3.40163182150194,0.842092412866996,-0.0318012574009644,0.0341207349081365,-0.537447353964475,-0.22,-0.88,9.76
0.3146703,0,0,0,0,0.9408,65.0625,4.05181221195472,3.40163182150194,0.842092412866996,-0.0318012574009644,0.0341207349081365,-0.537447353964475,-0.22,-0.88,9.76
0.3362722,0,0,0,0,0.9408,65.0625,4.05181221195472,3.40163182150194,0.842092412866996,-0.0318012574009644,0.0341207349081365,-0.537447353964475,-0.22,-0.88,9.76
0.4270985,0,0,0,0,0.9408,65.0625,4.05181221195472,3.40163182150194,0.842092412866996,-0.0318012574009644,0.0341207349081365,-0.537447353964475,-0.22,-0.88,9.76
0.4430149,0,0,0,0,0.9408,65.0625,4.05181221195472,3.40163182150194,0.842092412866996,-0.0318012574009644,0.0341207349081365,-0.537447353964475,-0.22,-0.88,9.76
0.4590913,0,0,0,0,0.9408,65.0625,4.05181221195472,3.40163182150194,0.842092412866996,-0.0318012574009644,0.0341207349081365,-0.537447353964475,-0.22,-0.88,9.76
0.4750475,0,0,0,0,0.9408,65.0625,4.05181221195472,3.40163182150194,0.842092412866996,-0.0318012574009644,0.0341207349081365,-0.537447353964475,-0.22,-0.88,9.76
0.4909563,0,0,0,0,0.9408,65.0625,4.05181221195472,3.40163182150194,0.842092412866996,-0.0318012574009644,0.0341207349081365,-0.537447353964475,-0.22,-0.88,9.76
0.5059984,0,0,0,0,0.9408,65.0625,4.05181221195472,3.40163182150194,0.842092412866996,-0.0318012574009644,0.0341207349081365,-0.537447353964475,-0.22,-0.88,9.76
0.5219547,0,0,0,0,0.9408,65.0625,4.05181221195472,3.40163182150194,0.842092412866996,-0.0318012574009644,0.0341207349081365,-0.537447353964475,-0.22,-0.88,9.76
0.6231144,0,0,0,0,0.9408,65.0625,4.05181221195472,3.40163182150194,0.842092412866996,-0.0318012574009644,0.0341207349081365,-0.537447353964475,-0.22,-0.88,9.76
0.6411503,0,0,0,0,0.9408,65.0625,4.05181221195472,3.40163182150194,0.842092412866996,-0.0318012574009644,0.0341207349081365,-0.537447353964475,-0.22,-0.88,9.76
0.658689,0,0,0,0,0.9408,65.0625,4.05181221195472,3.40163182150194,0.842092412866996,-0.0318012574009644,0.0341207349081365,-0.537447353964475,-0.22,-0.88,9.76
0.7811672,0,0,0,0,0.9506,65.0625,4.05181221195472,3.40163182150194,0.842092412866996,-0.0318012574009644,0.0341207349081365,-0.537447353964475,-0.22,-0.88,9.76
0.8014632,0,0,0,0,0.9506,65.0625,4.05181221195472,3.40163182150194,0.842092412866996,-0.0318012574009644,0.0341207349081365,-0.537447353964475,-0.22,-0.88,9.76
0.818501,0,0,0,0,0.9506,65.0625,4.05181221195472,3.40163182150194,0.842092412866996,-0.0318012574009644,0.0341207349081365,-0.537447353964475,-0.22,-0.88,9.76
0.917162,0,0,0,0,0.9506,65.0625,4.05181221195472,3.40163182150194,0.842092412866996,-0.0318012574009644,0.0341207349081365,-0.537447353964475,-0.22,-0.88,9.76
0.9385197,0,0,0,0,0.9506,65.0625,4.05181221195472,3.40163182150194,0.842092412866996,-0.0318012574009644,0.0341207349081365,-0.537447353964475,-0.22,-0.88,9.76
0.964252,0,0,0,0,0.9506,65.0625,4.05181221195472,3.40163182150194,0.842092412866996,-0.0318012574009644,0.0341207349081365,-0.537447353964475,-0.22,-0.88,9.76
1.0642291,0,0,0,0,0.9506,65.0625,4.05181221195472,3.40163182150194,0.842092412866996,-0.0318012574009644,0.0341207349081365,-0.537447353964475,-0.22,-0.88,9.76
1.0843031,0,0,0,0,0.9506,65.0625,4.05181221195472,3.40163182150194,0.842092412866996,-0.0318012574009644,0.0341207349081365,-0.537447353964475,-0.22,-0.88,9.76
1.10628,0,0,0,0,0.9506,65.0625,4.05181221195472,3.40163182150194,0.842092412866996,-0.0318012574009644,0.0341207349081365,-0.537447353964475,-0.22,-0.88,9.76
1.2190755,0,0,0,0,0.9604,65.0625,4.05181221195472,3.40163182150194,0.842092412866996,-0.0318012574009644,0.0341207349081365,-0.537447353964475,-0.22,-0.88,9.76
1.2372179,0,0,0,0,0.9604,65.0625,4.05181221195472,3.40163182150194,0.842092412866996,-0.0318012574009644,0.0341207349081365,-0.537447353964475,-0.22,-0.88,9.76
1.2541047,0,0,0,0,0.9604,65.0625,4.05181221195472,3.40163182150194,0.842092412866996,-0.0318012574009644,0.0341207349081365,-0.537447353964475,-0.22,-0.88,9.76
1.3532456,0,0,0,0,0.9604,65.0625,4.05181221195472,3.40163182150194,0.842092412866996,-0.0318012574009644,0.0341207349081365,-0.537447353964475,-0.22,-0.88,9.76
1.3724228,0,0,0,0,0.9604,65.0625,4.05181221195472,3.40163182150194,0.842092412866996,-0.0318012574009644,0.0341207349081365,-0.537447353964475,-0.22,-0.88,9.76
1.3953192,0,0,0,0,0.9604,65.0625,4.05181221195472,3.40163182150194,0.842092412866996,-0.0318012574009644,0.0341207349081365,-0.537447353964475,-0.22,-0.88,9.76
1.4941975,0,0,0,0,0.9604,65.0625,4.05181221195472,3.40163182150194,0.842092412866996,-0.0318012574009644,0.0341207349081365,-0.537447353964475,-0.22,-0.88,9.76
1.5131697,0,0,0,0,0.9604,65.0625,4.05181221195472,3.40163182150194,0.842092412866996,-0.0318012574009644,0.0341207349081365,-0.537447353964475,-0.22,-0.88,9.76
1.5281683,0,0,0,0,0.9604,65.0625,4.05181221195472,3.40163182150194,0.842092412866996,-0.0318012574009644,0.0341207349081365,-0.537447353964475,-0.22,-0.88,9.76
1.5431175,0,0,0,0,0.9604,65.0625,4.05181221195472,3.40163182150194,0.842092412866996,-0.0318012574009644,0.0341207349081365,-0.537447353964475,-0.22,-0.88,9.76
1.6421777,0,0,0,0,0.9506,65.0625,4.05181221195472,3.40163182150194,0.842092412866996,-0.0318012574009644,0.0341207349081365,-0.537447353964475,-0.22,-0.88,9.76
1.6612,0,0,0,0,0.9506,65.0625,4.05181221195472,3.40163182150194,0.842092412866996,-0.0318012574009644,0.0341207349081365,-0.537447353964475,-0.22,-0.88,9.76
1.6773926,0,0,0,0,0.9506,65.0625,4.05181221195472,3.40163182150194,0.842092412866996,-0.0318012574009644,0.0341207349081365,-0.537447353964475,-0.22,-0.88,9.76
1.794196,0,0,0,0,0.9506,65.0625,4.05181221195472,3.40163182150194,0.842092412866996,-0.0318012574009644,0.0341207349081365,-0.537447353964475,-0.22,-0.88,9.76
1.812189,0,0,0,0,0.9506,65.0625,4.05181221195472,3.40163182150194,0.842092412866996,-0.0318012574009644,0.0341207349081365,-0.537447353964475,-0.22,-0.88,9.76
1.8291907,0,0,0,0,0.9506,65.0625,4.05181221195472,3.40163182150194,0.842092412866996,-0.0318012574009644,0.0341207349081365,-0.537447353964475,-0.22,-0.88,9.76
1.9261983,0,0,0,0,0.9506,65.0625,4.05181221195472,3.40163182150194,0.842092412866996,-0.0318012574009644,0.0341207349081365,-0.537447353964475,-0.22,-0.88,9.76
1.9463394,0,0,0,0,0.9506,65.0625,4.05181221195472,3.40163182150194,0.842092412866996,-0.0318012574009644,0.0341207349081365,-0.537447353964475,-0.22,-0.88,9.76
1.968452,0,0,0,0,0.9506,65.0625,4.05181221195472,3.40163182150194,0.842092412866996,-0.0318012574009644,0.0341207349081365,-0.537447353964475,-0.22,-0.88,9.76
2.0704953,0,0,0,0,0.9506,65.0625,4.05181221195472,3.40163182150194,0.842092412866996,-0.0318012574009644,0.0341207349081365,-0.537447353964475,-0.22,-0.88,9.76
2.0963779,0,0,0,0,0.9506,65.0625,4.05181221195472,3.40163182150194,0.842092412866996,-0.0318012574009644,0.0341207349081365,-0.537447353964475,-0.22,-0.88,9.76
2.2196113,0,0,0,0,0.9506,65.0625,4.05181221195472,3.40163182150194,0.842092412866996,-0.0318012574009644,0.0341207349081365,-0.537447353964475,-0.22,-0.88,9.76
2.2486641,0,0,0,0,0.9506,65.0625,4.05181221195472,3.40163182150194,0.842092412866996,-0.0318012574009644,0.0341207349081365,-0.537447353964475,-0.22,-0.88,9.76
2.3632255,0,0,0,0,0.9506,65.0625,4.05181221195472,3.40163182150194,0.842092412866996,-0.0318012574009644,0.0341207349081365,-0.537447353964475,-0.22,-0.88,9.76
2.3865313,0,0,0,0,0.9506,65.0625,4.05181221195472,3.40163182150194,0.842092412866996,-0.0318012574009644,0.0341207349081365,-0.537447353964475,-0.22,-0.88,9.76
2.4098295,0,0,0,0,0.9506,65.0625,4.05181221195472,3.40163182150194,0.842092412866996,-0.0318012574009644,0.0341207349081365,-0.537447353964475,-0.22,-0.88,9.76
2.5311398,0,0,0,0,0.9506,65.0625,4.05181221195472,3.40163182150194,0.842092412866996,-0.0318012574009644,0.0341207349081365,-0.537447353964475,-0.22,-0.88,9.76
2.5502065,0,0,0,0,0.9506,65.0625,4.05181221195472,3.40163182150194,0.842092412866996,-0.0318012574009644,0.0341207349081365,-0.537447353964475,-0.22,-0.88,9.76
2.5663647,0,0,0,0,0.9506,65.0625,4.05181221195472,3.40163182150194,0.842092412866996,-0.0318012574009644,0.0341207349081365,-0.537447353964475,-0.22,-0.88,9.76
2.6682261,0,0,0,0,0.9506,65.0625,4.05181221195472,3.40163182150194,0.842092412866996,-0.0318012574009644,0.0341207349081365,-0.537447353964475,-0.22,-0.88,9.76
2.6872254,0,0,0,0,0.9506,65.0625,4.05181221195472,3.40163182150194,0.842092412866996,-0.0318012574009644,0.0341207349081365,-0.537447353964475,-0.22,-0.88,9.76
2.7042487,0,0,0,0,0.9506,65.0625,4.05181221195472,3.40163182150194,0.842092412866996,-0.0318012574009644,0.0341207349081365,-0.537447353964475,-0.22,-0.88,9.76
2.8092872,0,0,0,0,0.9506,65.0625,4.05181221195472,3.40163182150194,0.842092412866996,-0.0318012574009644,0.0341207349081365,-0.537447353964475,-0.22,-0.88,9.76
2.8296361,0,0,0,0,0.9506,65.0625,4.05181221195472,3.40163182150194,0.842092412866996,-0.0318012574009644,0.0341207349081365,-0.537447353964475,-0.22,-0.88,9.76
2.9471776,0,0,0,0,0.9506,65.0625,4.05181221195472,3.40163182150194,0.842092412866996,-0.0318012574009644,0.0341207349081365,-0.537447353964475,-0.22,-0.88,9.76
2.9661734,0,0,0,0,0.9506,65.0625,4.05181221195472,3.40163182150194,0.842092412866996,-0.0318012574009644,0.0341207349081365,-0.537447353964475,-0.22,-0.88,9.76
2.9831755,0,0,0,0,0.9506,65.0625,4.05181221195472,3.40163182150194,0.842092412866996,-0.0318012574009644,0.0341207349081365,-0.537447353964475,-0.22,-0.88,9.76
3.0871466,180,0,0,0,0.9506,65.0625,4.05181221195472,3.40163182150194,0.842092412866996,-0.0318012574009644,0.0341207349081365,-0.537447353964475,-0.22,-0.88,9.76
3.107473,180,1.35,0,0,0.9506,65.0625,4.05181221195472,3.40163182150194,0.842092412866996,-0.0318012574009644,0.0341207349081365,-0.537447353964475,-0.22,-0.88,9.76
3.1292697,180,3.6,0,0,0.9604,65.0625,4.05181221195472,3.40163182150194,0.842092412866996,-0.0318012574009644,0.0341207349081365,-0.537447353964475,-0.22,-0.88,9.76
3.2303881,180,35.55,0,0,1.3622,65.0625,4.05181221195472,3.40163182150194,0.842092412866996,-0.0318012574009644,0.0341207349081365,-0.537447353964475,-0.22,-0.88,9.76
3.2505168,180,45.9,0,0,1.4308,65.0625,4.05181221195472,3.40163182150194,0.842092412866996,-0.0318012574009644,0.0341207349081365,-0.537447353964475,-0.22,-0.88,9.76
3.2681546,180,56.25,0,0,1.5974,65.0625,4.05181221195472,3.40163182150194,0.842092412866996,-0.0318012574009644,0.0340596960263688,-0.537447353964475,-0.22,-0.88,9.76
3.3672973,180,123.75,0,0,2.597,65.0625,4.16226222946428,3.31600446820794,0.842092412866996,-0.0327168406274797,0.0335103460904596,-0.537447353964475,-0.2,-0.89,9.76
3.3864656,180,135,0,0,2.891,65.0625,4.16226222946428,3.31600446820794,0.842092412866996,-0.0328999572727828,0.0333882683269243,-0.537386315082708,-0.2,-0.89,9.76
3.4239337,180,153.45,0,0,3.2634,65.0625,4.24565771062882,3.28671805973345,0.842092412866996,-0.0331441127998535,0.0332661905633889,-0.537386315082708,-0.19,-0.89,9.76
3.5352469,180,179.55,0,0,3.9004,65,4.41021680082844,3.08840881680041,0.842275529512299,-0.0353415125434902,0.0318622962827321,-0.537081120673869,-0.15,-0.91,9.76
3.555531,180,180,0,0,3.9102,65,4.49361228199298,3.05912240832593,0.842275529512299,-0.0358908624793994,0.0313739852285906,-0.537020081792102,-0.14,-0.92,9.76
3.5733061,180,180,0,0,3.9004,65,4.52066681833801,3.00278146350641,0.842275529512299,-0.0362570957700055,0.0311298297015199,-0.537020081792102,-0.12,-0.92,9.76
3.6791457,180,180,0,0,3.626,64.9375,5.04363049741136,2.49124921587184,0.842458646157602,-0.0411402063114204,0.0269181468595495,-0.536653848501495,-0.01,-0.96,9.75
3.6983185,180,180,0,0,3.5574,64.9375,5.15408051492092,2.40562186257784,0.842458646157602,-0.0422999450650064,0.0260025636330342,-0.536592809619728,0.01,-0.97,9.75
3.7152216,180,180,0,0,3.528,64.9375,5.235244123956,2.23659902811929,0.842397607275835,-0.0435207227003601,0.0249649026429836,-0.536592809619728,0.04,-0.98,9.75
3.823642,180,180,0,0,3.2438,64.9375,5.92276689322897,1.52675753755169,0.842397607275835,-0.0502960385765733,0.0191662088750534,-0.536287615210889,0.21,-1.03,9.74
3.8474581,180,180,0,0,3.1654,64.9375,6.17072146459313,1.29916188614417,0.842275529512299,-0.05249343832021,0.0172740035402551,-0.536287615210889,0.26,-1.04,9.74
3.9712332,180,180,0,0,2.6754,64.9375,7.10396693310079,0.221988318184985,0.841970335103461,-0.0615271928218275,0.00927791002868827,-0.535982420802051,0.51,-1.11,9.72
3.9914489,180,180,0,0,2.6362,64.9375,7.13102146944581,0.16564737336547,0.841970335103461,-0.062198620521272,0.00860648232924373,-0.535982420802051,0.52,-1.12,9.72
4.009529,180,180,0,0,2.5578,64.9375,7.406030577155,-0.11828922286157,0.841787218458158,-0.0643349813831411,0.00647012146737472,-0.536043459683819,0.56,-1.12,9.72
4.1082343,180,180,0,0,2.254,65,8.17471695546304,-0.997153547887718,0.841176829640481,-0.0719648416041018,-0.000488311054141488,-0.536043459683819,0.76,-1.18,9.7
4.1262133,180,180,0,0,2.1952,65,8.22882602815309,-1.10983543752675,0.841115790758713,-0.072697308185314,-0.00128181651712141,-0.536043459683819,0.78,-1.18,9.7
4.1425684,180,180,0,0,2.1658,65,8.28293510084315,-1.22251732716578,0.840993712995178,-0.0747726301654154,-0.00341817737899042,-0.535921381920283,0.84,-1.19,9.69
4.2393665,180,180,0,0,1.9502,65,8.94117146164162,-2.01575429889792,0.840627479704572,-0.0795947018250626,-0.00836232680217298,-0.535799304156748,0.97,-1.22,9.68
4.2605561,180,180,0,0,1.9012,65,9.16207149666075,-2.18700900548593,0.840444363059269,-0.0816700238051639,-0.00970518220106208,-0.53573826527498,1.01,-1.24,9.67
4.2773441,180,180,0,0,1.8424,65,9.18912603300578,-2.24334995030545,0.840444363059269,-0.0820972959775377,-0.0100103766099005,-0.535677226393212,1.02,-1.24,9.67
4.3762182,180,180,0,0,1.715,65,9.65574876725961,-2.78193673428504,0.839956052005127,-0.0869193676371849,-0.0145272538607093,-0.535616187511445,1.15,-1.27,9.65
4.3958588,180,180,0,0,1.6856,65,9.79325332111421,-2.92390503239856,0.839772935359824,-0.0885674174449124,-0.0155649148507599,-0.535555148629677,1.18,-1.29,9.64
4.4224234,180,180,0,0,1.666,65,9.96004428344329,-2.98247784934754,0.839650857596289,-0.0896050784349631,-0.0162973814319722,-0.535555148629677,1.2,-1.3,9.64
4.5272541,180,180,0,0,1.666,65.0625,10.1516579099879,-3.23712803710009,0.83934566318745,-0.0916804004150644,-0.0175791979490936,-0.535616187511445,1.25,-1.32,9.63
4.5503618,180,180,0,0,1.6758,65.0625,10.2079988548074,-3.21007350075506,0.83934566318745,-0.0917414392968321,-0.0175791979490936,-0.535616187511445,1.25,-1.32,9.63
4.5674266,180,180,0,0,1.6954,65.0625,10.2079988548074,-3.21007350075506,0.839284624305683,-0.0916804004150644,-0.0172740035402551,-0.53573826527498,1.24,-1.32,9.63
4.6764167,180,180,0,0,1.862,65.125,10.0997807094273,-2.984709721477,0.839223585423915,-0.090398583897943,-0.0150766037966184,-0.536104498565586,1.19,-1.32,9.64
4.6975758,180,180,0,0,1.8914,65.125,10.0186171003923,-2.81568688701845,0.839284624305683,-0.0897271561984984,-0.0143441372154062,-0.536226576329122,1.18,-1.32,9.64
4.7143345,180,180,0,0,1.9404,65.125,9.99156256404724,-2.75934594219894,0.83934566318745,-0.0888726118537508,-0.013611670634194,-0.536226576329122,1.15,-1.32,9.64
4.8123969,180,180,0,0,2.1854,65.125,9.58128077461292,-2.19370462187432,0.839589818714521,-0.0856375511200635,-0.0091558322651529,-0.536470731856192,1.03,-1.31,9.66
4.8326267,180,180,0,0,2.2442,65.125,9.50011716557785,-2.02468178741578,0.839650857596289,-0.0845998901300128,-0.00805713239333455,-0.53653177073796,1,-1.3,9.66
4.8545695,180,180,0,0,2.303,65.125,9.44600809288779,-1.91199989777674,0.839772935359824,-0.0836843069034975,-0.00695843252151621,-0.536592809619728,0.98,-1.3,9.66
4.9514107,180,180,0,0,2.5676,65.125,8.92750815807338,-1.12099479817407,0.84013916865043,-0.0782518464261735,-0.000122077763535372,-0.536836965146798,0.82,-1.28,9.68
4.9716755,180,180,0,0,2.646,65.125,8.79000360421878,-0.979026500060546,0.84013916865043,-0.0775804187267289,0.000488311054141488,-0.536836965146798,0.79,-1.27,9.69
4.9884524,180,180,0,0,2.6852,65.125,8.65249905036419,-0.837058201947026,0.840200207532198,-0.0762375633278398,0.00177012757126289,-0.537020081792102,0.77,-1.27,9.69
5.0954574,180,180,0,0,3.0184,65.125,7.96944002535015,0.152256140588688,0.840566440822804,-0.069401208569859,0.00933894891045596,-0.537264237319172,0.57,-1.24,9.71
5.11535,180,180,0,0,3.087,65.125,7.83193547149556,0.294224438702208,0.840627479704572,-0.0679362754074345,0.0106818043093451,-0.53732527620094,0.53,-1.23,9.71
5.1354379,180,180,0,0,3.1654,65.125,7.77782639880551,0.406906328341239,0.84068851858634,-0.0672038088262223,0.0114142708905573,-0.53732527620094,0.5,-1.22,9.71
5.2334205,180,180,0,0,3.4398,65.125,7.00914002049747,1.28577065336739,0.841054751876946,-0.0598791430141,0.0183727034120735,-0.537447353964475,0.32,-1.18,9.72
5.2525374,180,180,0,0,3.5084,65.125,6.81752639395282,1.54042084111994,0.841176829640481,-0.0576817432704633,0.0203869865104071,-0.537447353964475,0.27,-1.16,9.73
5.2739055,180,180,0,0,3.528,65.125,6.70707637644325,1.62604819441394,0.841176829640481,-0.0569492766892511,0.0210584142098517,-0.537447353964475,0.25,-1.16,9.73
5.3736572,180,180,0,0,3.6946,65.125,6.04884001564478,2.41928516614608,0.841420985167552,-0.0501129219312702,0.0269181468595495,-0.537508392846243,0.08,-1.11,9.74
5.3964392,180,180,0,0,3.7338,65.125,5.93838999813521,2.50491251944009,0.841420985167552,-0.0488311054141488,0.0279558078496002,-0.537508392846243,0.05,-1.1,9.74
5.4149892,180,180,0,0,3.7534,65.125,5.80088544428062,2.64688081755361,0.841482024049319,-0.0470609778428859,0.029359702130257,-0.537569431728011,0.01,-1.08,9.74
5.5362998,180,180,0,0,3.8514,65.125,5.16523987556824,3.10430399249812,0.841665140694623,-0.0416285173655619,0.0328999572727828,-0.537508392846243,-0.1,-1.03,9.75
5.5554697,180,180,0,0,3.8514,65.125,5.13818533922322,3.16064493731764,0.841665140694623,-0.0413233229567234,0.0330830739180858,-0.537508392846243,-0.11,-1.02,9.75
5.5724408,180,180,0,0,3.8612,65.0625,5.05478985805867,3.18993134579213,0.84172617957639,-0.0407739730208143,0.0333272294451566,-0.537508392846243,-0.12,-1.02,9.75
5.6716594,180,180,0,0,3.822,65.0625,4.91505343207462,3.19216321792159,0.841848257339926,-0.0394921565036929,0.0332051516816212,-0.53732527620094,-0.13,-1,9.75
5.692654,180,180,0,0,3.8024,65.0625,4.94210796841964,3.13582227310208,0.841909296221693,-0.0394921565036929,0.0328999572727828,-0.537264237319172,-0.12,-0.99,9.75
5.8193577,180,180,0,0,3.6064,65,5.10220331436034,2.65804017820093,0.842153451748764,-0.0416285173655619,0.0286272355490447,-0.536959042910334,-0.03,-0.98,9.75
5.8396691,180,180,0,0,3.5574,65,5.15631238705039,2.5453582885619,0.842214490630532,-0.0422389061832387,0.0276506134407618,-0.536898004028566,-0.01,-0.98,9.75
5.8562979,180,180,0,0,3.5378,65,5.21042145974044,2.43267639892287,0.842214490630532,-0.042971372764451,0.0266129524507111,-0.536836965146798,0.01,-0.99,9.75
5.957371,180,180,0,0,3.3222,64.9375,5.67481232186481,1.75435318895922,0.842397607275835,-0.0474882500152597,0.0209363364463163,-0.536470731856192,0.15,-1,9.75
5.9763987,180,180,0,0,3.2928,64.9375,5.75597593089988,1.58533035450067,0.842397607275835,-0.0485259110053104,0.0196545199291949,-0.536409692974425,0.18,-1,9.75
5.9934614,180,180,0,0,3.234,64.9375,5.83713953993496,1.41630752004213,0.842397607275835,-0.0496246108771287,0.0183727034120735,-0.536348654092657,0.21,-1.01,9.75
6.0973923,180,180,0,0,2.9302,64.875,6.43903495591392,0.596016011964958,0.842397607275835,-0.0552401879997558,0.0117805041811634,-0.535982420802051,0.38,-1.03,9.74
6.1183392,180,180,0,0,2.8518,64.875,6.520198564949,0.426993177506412,0.842336568394067,-0.0564609656351096,0.0103766099005066,-0.535982420802051,0.42,-1.04,9.74
6.135326,180,180,0,0,2.7734,64.875,6.65770311880359,0.285024879392891,0.842336568394067,-0.0576207043886956,0.00897271561984984,-0.535860343038515,0.45,-1.04,9.73
6.2373602,180,180,0,0,2.4794,64.875,7.23031212630806,-0.618662109848818,0.842153451748764,-0.0636025148019288,0.00177012757126289,-0.535555148629677,0.63,-1.06,9.72
6.2552705,180,180,0,0,2.4108,64.875,7.33853027168817,-0.844025889126879,0.842153451748764,-0.0647622535555149,0.000244155527070744,-0.535433070866142,0.67,-1.07,9.72
6.2737069,180,180,0,0,2.3814,64.875,7.47603482554276,-0.985994187240399,0.842092412866996,-0.0659219923091009,-0.00128181651712141,-0.535372031984374,0.71,-1.07,9.72
6.3892668,180,180,0,0,2.0972,64.8125,8.10275290573728,-2.00236306612114,0.841787218458158,-0.0727583470670817,-0.00988829884636513,-0.534944759812,0.92,-1.09,9.7
6.4083085,180,180,0,0,2.0482,64.8125,8.18391651477236,-2.17138590057969,0.84172617957639,-0.0731856192394555,-0.0105597265458097,-0.534883720930233,0.95,-1.09,9.69
6.4243369,180,180,0,0,2.0286,64.8125,8.26508012380744,-2.34040873503823,0.841665140694623,-0.0741012024659708,-0.0119636208264665,-0.534883720930233,0.97,-1.09,9.69
6.5214033,180,180,0,0,1.9012,64.8125,8.61902096842224,-2.93310459170787,0.841359946285784,-0.077946652017335,-0.0168467313678813,-0.534700604284929,1.1,-1.11,9.68
6.5403227,180,180,0,0,1.862,64.875,8.78358005862186,-3.13141383464091,0.841237868522249,-0.0794115851797595,-0.0183116645303058,-0.534639565403162,1.13,-1.11,9.67
6.5564612,180,180,0,0,1.8522,64.875,8.81063459496688,-3.18775477946043,0.841176829640481,-0.0798388573521333,-0.0186778978209119,-0.534639565403162,1.15,-1.12,9.67
6.6563556,180,180,0,0,1.7934,64.875,9.08564370267607,-3.47169137568747,0.840871635231643,-0.0824024903863761,-0.0211194530916194,-0.534639565403162,1.21,-1.14,9.66
6.6754137,180,180,0,0,1.7934,64.875,9.11269823902109,-3.52803232050698,0.840810596349875,-0.0829518403222853,-0.0214246475004578,-0.534639565403162,1.22,-1.14,9.66
6.6924201,180,180,0,0,1.7934,64.875,9.19609372018563,-3.55731872898147,0.840749557468107,-0.0834401513764268,-0.0216077641457608,-0.534639565403162,1.23,-1.14,9.66
6.7912807,180,180,0,0,1.8424,64.875,9.22538012866012,-3.47392324781693,0.840627479704572,-0.0836232680217298,-0.0208142586827809,-0.534883720930233,1.21,-1.16,9.66
6.8093832,180,180,0,0,1.8718,64.9375,9.25466653713461,-3.39052776665239,0.840566440822804,-0.0836843069034975,-0.0203869865104071,-0.534944759812,1.21,-1.16,9.66
6.8243922,180,180,0,0,1.8816,64.9375,9.25466653713461,-3.39052776665239,0.840566440822804,-0.0836843069034975,-0.0201428309833364,-0.534944759812,1.2,-1.16,9.66
6.8393809,180,180,0,0,1.9208,64.9375,9.22761200078959,-3.33418682183287,0.840566440822804,-0.0836232680217298,-0.019837636574498,-0.535005798693768,1.2,-1.17,9.66
6.9373699,180,180,0,0,2.0972,64.9375,9.03823024637441,-2.93980020809627,0.840566440822804,-0.0816089849233962,-0.0161142647866691,-0.535433070866142,1.12,-1.17,9.67
6.9576811,180,180,0,0,2.1364,65,9.04046211850387,-2.80006378211221,0.840566440822804,-0.0812427516327901,-0.0150766037966184,-0.535494109747909,1.1,-1.18,9.67
6.974322,180,180,0,0,2.156,65,8.98635304581382,-2.68738189247318,0.840566440822804,-0.0808154794604163,-0.0139779039248001,-0.535555148629677,1.07,-1.18,9.67
7.0692894,180,180,0,0,2.3716,65,8.74509409083805,-2.04057696311348,0.840810596349875,-0.0780076908991027,-0.0087285600927791,-0.535799304156748,0.94,-1.19,9.68
7.0874543,180,180,0,0,2.4402,65,8.66393048180297,-1.87155412865494,0.840810596349875,-0.0771531465543551,-0.00738570469389001,-0.535860343038515,0.93,-1.19,9.68
7.1044369,180,180,0,0,2.4696,65,8.58276687276789,-1.70253129419639,0.840871635231643,-0.0763596410913752,-0.0061038881767686,-0.535921381920283,0.9,-1.19,9.69
7.2044197,180,180,0,0,2.7636,65,8.17694882759251,-0.857417121903661,0.841237868522249,-0.0720869193676372,0.000671427699444546,-0.535982420802051,0.74,-1.19,9.7
7.2246436,180,180,0,0,2.8028,65,8.09578521855743,-0.688394287445115,0.841298907404016,-0.0711102972593542,0.0021973997436367,-0.535982420802051,0.71,-1.19,9.7
7.2425568,180,180,0,0,2.8714,65,8.01462160952235,-0.519371452986569,0.841359946285784,-0.0701947140328389,0.00372337178782885,-0.536043459683819,0.67,-1.19,9.7
7.3393738,180,180,0,0,3.1262,64.9375,7.58174902800194,0.382083664125677,0.841604101812855,-0.0654947201367271,0.0111701153634865,-0.536165537447354,0.5,-1.19,9.72
7.3574062,180,180,0,0,3.1948,64.9375,7.52763995531188,0.494765553764708,0.841665140694623,-0.0642739425013734,0.0127571262894464,-0.536104498565586,0.46,-1.19,9.72
7.3723548,180,180,0,0,3.2242,64.9375,7.36308086511227,0.693074796697743,0.84172617957639,-0.0637245925654642,0.0134895928706586,-0.536104498565586,0.44,-1.19,9.72
7.3894078,180,180,0,0,3.2536,64.9375,7.28191725607719,0.862097631156289,0.841787218458158,-0.0625038149301105,0.0150155649148508,-0.536104498565586,0.4,-1.19,9.72
7.4884346,180,180,0,0,3.5084,64.9375,6.79270372973726,1.73649821192351,0.841909296221693,-0.0573765488616249,0.0222181529634377,-0.536226576329122,0.23,-1.18,9.73
7.5104927,180,180,0,0,3.5476,64.9375,6.68448558435715,1.96186199120157,0.841909296221693,-0.0562168101080388,0.0236220472440945,-0.536226576329122,0.2,-1.17,9.73
7.527496,180,180,0,0,3.5672,64.9375,6.65743104801213,2.01820293602109,0.841970335103461,-0.0552401879997558,0.0249038637612159,-0.536287615210889,0.17,-1.17,9.73
7.6235447,180,180,0,0,3.6554,64.9375,6.24938113070728,2.72358068232976,0.841970335103461,-0.0513947384483916,0.0299700909479338,-0.536348654092657,0.04,-1.16,9.73
7.6433522,180,180,0,0,3.6848,64.9375,6.11187657685268,2.86554898044328,0.842031373985229,-0.0504791552218763,0.0308856741744491,-0.536348654092657,0.02,-1.15,9.73
7.6594658,180,180,0,0,3.6946,64.9375,6.08482204050766,2.9218899252628,0.842031373985229,-0.0498687664041995,0.031679179637429,-0.536287615210889,0,-1.15,9.73
7.7593252,180,180,0,0,3.724,64.9375,5.86615387761799,3.23288105783486,0.842092412866996,-0.0473661722517243,0.0344869681987426,-0.536226576329122,-0.07,-1.14,9.73
7.7774856,180,180,0,0,3.724,64.9375,5.83909934127296,3.28922200265438,0.842153451748764,-0.0470609778428859,0.0347311237258133,-0.536165537447354,-0.07,-1.14,9.73
7.7947073,180,180,0,0,3.724,64.9375,5.78275839645345,3.26216746630935,0.842153451748764,-0.0469999389611182,0.0348532014893487,-0.536165537447354,-0.08,-1.14,9.73
7.9173833,180,180,0,0,3.6554,64.875,5.80981293279847,3.20582652148984,0.842336568394067,-0.0469389000793505,0.0343038515534395,-0.535921381920283,-0.07,-1.13,9.74
7.9374674,180,180,0,0,3.626,64.875,5.8368674691435,3.14948557667032,0.842397607275835,-0.0471830556064213,0.0338155404992981,-0.535860343038515,-0.05,-1.13,9.74
7.9555697,180,180,0,0,3.6162,64.875,5.86392200548852,3.0931446318508,0.842458646157602,-0.0476713666605628,0.0329609961545504,-0.535799304156748,-0.04,-1.13,9.74
8.0524294,180,180,0,0,3.4594,64.875,6.0533037599037,2.6987580181142,0.842641762802905,-0.0498077275224318,0.0294817798937923,-0.535494109747909,0.03,-1.13,9.74
8.0737205,180,180,0,0,3.4398,64.8125,6.10741283259376,2.58607612847517,0.842641762802905,-0.050540194103644,0.0285051577855094,-0.535433070866142,0.05,-1.13,9.74
8.0917027,180,180,0,0,3.4006,64.8125,6.13446736893878,2.52973518365565,0.842641762802905,-0.0508453885124825,0.0279558078496002,-0.535433070866142,0.07,-1.13,9.74
8.1904497,180,180,0,0,3.2046,64.8125,6.48617634142412,1.79730290100195,0.842702801684673,-0.054629799182079,0.02215711408167,-0.535188915339071,0.2,-1.13,9.73
8.2094423,180,180,0,0,3.1458,64.8125,6.5673399504592,1.62828006654341,0.842702801684673,-0.0559726545809681,0.0202649087468718,-0.535188915339071,0.25,-1.13,9.73
8.2255341,180,180,0,0,3.1066,64.8125,6.64850355949427,1.45925723208486,0.842702801684673,-0.0563999267533419,0.0196545199291949,-0.535188915339071,0.26,-1.13,9.73
8.3265205,180,180,0,0,2.8028,64.8125,7.02726706832464,0.670484004611644,0.842641762802905,-0.0607336873588476,0.0128792040529817,-0.535005798693768,0.42,-1.13,9.73
8.3487402,180,180,0,0,2.7342,64.8125,7.10843067735971,0.501461170153098,0.842580723921138,-0.0616492705853629,0.011475309772325,-0.535066837575536,0.47,-1.13,9.72
8.3654997,180,180,0,0,2.7048,64.8125,7.18959428639479,0.332438335694552,0.84251968503937,-0.0625648538118782,0.0101324543734359,-0.535005798693768,0.48,-1.13,9.72
8.4654292,180,180,0,0,2.4206,64.75,7.67880781273472,-0.541962245072667,0.842458646157602,-0.0671427699444546,0.00292986632484893,-0.534639565403162,0.65,-1.13,9.71
8.4856774,180,180,0,0,2.3912,64.75,7.7599714217698,-0.710985079531214,0.842397607275835,-0.0681193920527376,0.00146493316242446,-0.534639565403162,0.68,-1.14,9.71
8.5034309,180,180,0,0,2.3324,64.75,7.84113503080488,-0.88000791398976,0.842397607275835,-0.0690349752792529,6.1038881767686e-05,-0.534517487639626,0.72,-1.14,9.71
8.6045028,180,180,0,0,2.1168,64.75,8.19061213116075,-1.75217662262752,0.842214490630532,-0.0731856192394555,-0.00695843252151621,-0.534212293230788,0.88,-1.13,9.7
8.6254837,180,180,0,0,2.0972,64.75,8.27177574019583,-1.92119945708606,0.842153451748764,-0.0739791247024355,-0.00824024903863761,-0.53415125434902,0.92,-1.13,9.69
8.6423888,180,180,0,0,2.058,64.75,8.32588481288588,-2.03388134672509,0.842092412866996,-0.0747726301654154,-0.00946102667399133,-0.534090215467253,0.93,-1.13,9.69
8.7474163,180,180,0,0,1.9404,64.75,8.67759378537122,-2.76631362937879,0.841848257339926,-0.0781908075444058,-0.0155649148507599,-0.53390709882195,1.07,-1.12,9.68
8.7684048,180,180,0,0,1.9306,64.75,8.73170285806127,-2.87899551901782,0.841787218458158,-0.0786180797167796,-0.0164804980772752,-0.53390709882195,1.09,-1.12,9.68
8.7865439,180,180,0,0,1.9208,64.75,8.70241644958678,-2.96239100018236,0.84172617957639,-0.0790453518891534,-0.0172740035402551,-0.53390709882195,1.11,-1.12,9.67
8.8865265,180,180,0,0,1.8914,64.75,8.86474366765693,-3.30043666909946,0.841543062931087,-0.0805102850515779,-0.020020753219801,-0.53390709882195,1.17,-1.11,9.67
8.9056162,180,180,0,0,1.9012,64.75,8.89179820400196,-3.35677761391897,0.841482024049319,-0.0805102850515779,-0.0203869865104071,-0.53390709882195,1.17,-1.11,9.67
8.9225693,180,180,0,0,1.911,64.75,8.89179820400196,-3.35677761391897,0.841482024049319,-0.0805713239333455,-0.0204480253921748,-0.533968137703717,1.18,-1.11,9.67
9.0293531,180,180,0,0,1.9796,64.8125,8.80840272283742,-3.32749120544448,0.841420985167552,-0.0800219739974364,-0.020020753219801,-0.534212293230788,1.16,-1.11,9.67
9.051499,180,180,0,0,2.009,64.8125,8.78134818649239,-3.27115026062497,0.841359946285784,-0.0797778184703656,-0.0196545199291949,-0.534273332112556,1.16,-1.11,9.67
9.0696896,180,180,0,0,2.0286,64.8125,8.75429365014737,-3.21480931580545,0.841359946285784,-0.0794726240615272,-0.0192272477568211,-0.534334370994323,1.15,-1.1,9.67
9.1664319,180,180,0,0,2.1854,64.8125,8.56491189573219,-2.82042270206884,0.841420985167552,-0.0771531465543551,-0.0158090703778307,-0.534700604284929,1.06,-1.1,9.68
9.1867046,180,180,0,0,2.2246,64.875,8.51080282304213,-2.70774081242981,0.841420985167552,-0.0766037966184459,-0.0148934871513154,-0.534822682048465,1.04,-1.1,9.68
9.2034229,180,180,0,0,2.2736,64.875,8.48374828669711,-2.6513998676103,0.841420985167552,-0.0759323689190014,-0.0139168650430324,-0.534883720930233,1.02,-1.1,9.68
9.3094292,180,180,0,0,2.5284,64.875,8.13203931421177,-1.9189675849566,0.841543062931087,-0.0724531526582433,-0.00842336568394067,-0.535372031984374,0.89,-1.1,9.7
9.3297917,180,180,0,0,2.5578,64.875,8.07793024152172,-1.80628569531757,0.841604101812855,-0.0720869193676372,-0.00781297686626381,-0.535372031984374,0.88,-1.1,9.7
9.3467728,180,180,0,0,2.6166,64.875,7.96971209614162,-1.58092191603951,0.841604101812855,-0.0709271806140511,-0.00598181041323323,-0.535494109747909,0.84,-1.1,9.7
9.4475103,180,180,0,0,2.8714,64.9375,7.53460764249174,-0.819203224911317,0.841787218458158,-0.0665323811267778,0.000366233290606116,-0.535799304156748,0.69,-1.1,9.71
9.4665553,180,180,0,0,2.94,64.9375,7.50755310614671,-0.762862280091801,0.841787218458158,-0.066105108954404,0.00103766099005066,-0.535860343038515,0.66,-1.1,9.72
9.4836025,180,180,0,0,2.9694,64.9375,7.42638949711163,-0.593839445633256,0.841848257339926,-0.0651895257278887,0.00238051638893975,-0.535921381920283,0.64,-1.1,9.72
9.5923849,180,180,0,0,3.2732,64.9375,6.88306689808165,0.393243024772995,0.841970335103461,-0.0593908319599585,0.0105597265458097,-0.536287615210889,0.45,-1.09,9.73
9.610591,180,180,0,0,3.3026,64.9375,6.8289578253916,0.505924914412025,0.841970335103461,-0.058902520905817,0.0112311542452542,-0.536348654092657,0.43,-1.09,9.73
9.6276581,180,180,0,0,3.3516,64.9375,6.80190328904658,0.562265859231541,0.841970335103461,-0.057925898797534,0.012635048525911,-0.536409692974425,0.4,-1.08,9.73
9.7255171,180,180,0,0,3.5378,65,6.33974429905167,1.38032549517925,0.842031373985229,-0.0537752548373314,0.0184337422938412,-0.536592809619728,0.24,-1.08,9.74
9.7468077,180,180,0,0,3.5672,65,6.23152615367157,1.60568927445731,0.842031373985229,-0.05249343832021,0.0202649087468718,-0.536592809619728,0.21,-1.08,9.74
9.7647677,180,180,0,0,3.5672,65,6.20447161732654,1.66203021927682,0.842031373985229,-0.0521272050296039,0.0208752975645486,-0.536592809619728,0.2,-1.07,9.74
9.8665277,180,180,0,0,3.6358,65,5.85053077271174,2.25472607594647,0.842092412866996,-0.0485259110053104,0.0261246413965696,-0.536653848501495,0.07,-1.07,9.74
9.8854749,180,180,0,0,3.6456,65,5.79642170002169,2.3674079655855,0.842092412866996,-0.0482817554782396,0.0265519135689434,-0.536653848501495,0.07,-1.07,9.74
9.9013898,180,180,0,0,3.6554,65,5.76936716367667,2.42374891040501,0.842092412866996,-0.0479155221876335,0.0272843801501556,-0.536592809619728,0.05,-1.07,9.74
10.0034994,180,180,0,0,3.6554,64.9375,5.69043542677105,2.73250817084761,0.842153451748764,-0.0469389000793505,0.0297869743026308,-0.536470731856192,0,-1.09,9.74
10.0215668,180,180,0,0,3.6554,64.9375,5.74677637159057,2.75956270719264,0.842153451748764,-0.0469999389611182,0.0300311298297015,-0.536470731856192,0,-1.09,9.74
10.0383586,180,180,0,0,3.6456,64.9375,5.74677637159057,2.75956270719264,0.842153451748764,-0.0470609778428859,0.0302142464750046,-0.536409692974425,0,-1.09,9.74
10.1395367,180,180,0,0,3.5574,64.9375,5.88651279757462,2.75733083506318,0.842275529512299,-0.0485869498870781,0.0298480131843985,-0.536165537447354,0.01,-1.11,9.74
10.1691013,180,180,0,0,3.5084,64.9375,5.96990827873916,2.72804442658869,0.842275529512299,-0.0490752609412196,0.02954281877556,-0.536104498565586,0.03,-1.12,9.74
10.2834573,180,180,0,0,3.3516,64.875,6.38242194030294,2.30213953224813,0.842397607275835,-0.0535921381920283,0.0258194469877312,-0.535677226393212,0.13,-1.15,9.73
10.303911,180,180,0,0,3.3124,64.875,6.43653101299299,2.1894576426091,0.842397607275835,-0.0540194103644021,0.0253921748153574,-0.535616187511445,0.15,-1.16,9.73
10.32782,180,180,0,0,3.2634,64.875,6.60109010319261,1.99114839967606,0.842458646157602,-0.0553012268815235,0.024110358298236,-0.535555148629677,0.18,-1.16,9.73
10.4365334,180,180,0,0,3.0086,64.8125,7.1218219101365,1.33987972605744,0.842397607275835,-0.0604895318317768,0.0187389367026796,-0.535188915339071,0.32,-1.19,9.72
10.4568206,180,180,0,0,2.9498,64.8125,7.20298551917157,1.17085689159889,0.842458646157602,-0.0614051150582921,0.0176402368308613,-0.535127876457303,0.35,-1.19,9.72
10.4776999,180,180,0,0,2.891,64.8125,7.25709459186163,1.05817500195986,0.842458646157602,-0.0623206982848074,0.0165415369590429,-0.535005798693768,0.38,-1.2,9.72
10.5766669,180,180,0,0,2.646,64.75,7.72148545398599,0.379851791996213,0.842397607275835,-0.0668986144173839,0.0109869987181835,-0.534700604284929,0.51,-1.22,9.71
10.5964734,180,180,0,0,2.5872,64.75,7.80264906302107,0.210828957537667,0.842397607275835,-0.0677531587621315,0.00982725996459745,-0.534639565403162,0.54,-1.22,9.71
10.6125421,180,180,0,0,2.5578,64.75,7.85675813571112,0.0981470678986365,0.842397607275835,-0.0686077031068791,0.00860648232924373,-0.534517487639626,0.57,-1.22,9.71
10.7095419,180,180,0,0,2.3226,64.75,8.26480805301597,-0.607230678410037,0.842336568394067,-0.0728193859488494,0.00256363303424281,-0.53415125434902,0.72,-1.23,9.7
10.7310564,180,180,0,0,2.2932,64.75,8.31891712570603,-0.719912568049068,0.842275529512299,-0.073673930293597,0.00140389428065678,-0.534090215467253,0.74,-1.23,9.7
10.7506109,180,180,0,0,2.254,64.75,8.4000807347411,-0.888935402507614,0.842275529512299,-0.0741012024659708,0.000854544344747604,-0.534029176585485,0.77,-1.23,9.69
10.8475911,180,180,0,0,2.107,64.6875,8.7540215793559,-1.48163125917726,0.842153451748764,-0.077763535372032,-0.00433376060550571,-0.533723982176647,0.88,-1.23,9.68
10.8665282,180,180,0,0,2.0776,64.6875,8.80813065204596,-1.59431314881629,0.842092412866996,-0.0780687297808704,-0.00488311054141488,-0.533723982176647,0.92,-1.23,9.68
10.8836373,180,180,0,0,2.0678,64.6875,8.88929426108103,-1.76333598327483,0.842031373985229,-0.0791063907709211,-0.00634804370383935,-0.533662943294879,0.93,-1.23,9.68
10.9845655,180,180,0,0,1.9698,64.6875,9.13278508818627,-2.27040448665047,0.841848257339926,-0.0814258682780931,-0.0106207654275774,-0.533540865531344,1.02,-1.23,9.67
11.003583,180,180,0,0,1.96,64.6875,9.15983962453129,-2.32674543146999,0.841848257339926,-0.0818531404504669,-0.0112311542452542,-0.533540865531344,1.04,-1.23,9.67
11.0205887,180,180,0,0,1.96,64.6875,9.18689416087632,-2.3830863762895,0.841787218458158,-0.0821583348593054,-0.0118415430629311,-0.533479826649576,1.05,-1.23,9.67
11.1206569,180,180,0,0,1.96,64.6875,9.15537588027236,-2.6062182834381,0.841665140694623,-0.0824635292681438,-0.0139168650430324,-0.533540865531344,1.09,-1.21,9.66
11.156634,180,180,0,0,1.9796,64.6875,9.18243041661739,-2.66255922825762,0.841665140694623,-0.0823414515046084,-0.0141610205701032,-0.533601904413111,1.09,-1.21,9.66
11.2616266,180,180,0,0,2.0678,64.75,9.01563945428831,-2.60398641130864,0.841665140694623,-0.080876518342184,-0.0137337483977294,-0.533846059940182,1.07,-1.19,9.67
11.2948451,180,180,0,0,2.107,64.75,8.90518943677874,-2.51835905801463,0.841665140694623,-0.0800830128792041,-0.0130623206982848,-0.533968137703717,1.05,-1.18,9.67
11.4026355,180,180,0,0,2.2736,64.75,8.5760712563795,-2.12174057214856,0.841787218458158,-0.0766648355002136,-0.00988829884636513,-0.534334370994323,0.96,-1.16,9.68
11.4239822,180,180,0,0,2.3226,64.8125,8.54901672003448,-2.06539962732905,0.841848257339926,-0.0758713300372337,-0.0091558322651529,-0.534395409876091,0.94,-1.15,9.69
11.4417155,180,180,0,0,2.3716,64.8125,8.43856670252491,-1.97977227403504,0.841848257339926,-0.0751388634560215,-0.00836232680217298,-0.534517487639626,0.92,-1.15,9.69
11.54259,180,180,0,0,2.597,64.8125,8.02828491309059,-1.41413095371042,0.841970335103461,-0.0708051028505158,-0.0039064884331319,-0.534944759812,0.8,-1.12,9.7
11.5746256,180,180,0,0,2.6754,64.8125,7.86372582289098,-1.21582171077739,0.842031373985229,-0.0695843252151621,-0.00244155527070744,-0.535066837575536,0.77,-1.12,9.71
11.6735421,180,180,0,0,2.9106,64.875,7.34299401594709,-0.564553037158766,0.842153451748764,-0.0645791369102118,0.00244155527070744,-0.535494109747909,0.63,-1.09,9.72
11.6938486,180,180,0,0,2.9694,64.875,7.28888494325704,-0.451871147519735,0.842153451748764,-0.0636025148019288,0.0034792162607581,-0.535555148629677,0.61,-1.08,9.72
11.7115923,180,180,0,0,3.0282,64.875,7.17843492574747,-0.36624379422573,0.842153451748764,-0.0626258926936459,0.00451687725080877,-0.535677226393212,0.58,-1.08,9.72
11.8119394,180,180,0,0,3.2536,64.9375,6.63064858245857,0.341365824212407,0.842275529512299,-0.0574375877433925,0.00970518220106208,-0.535982420802051,0.44,-1.05,9.74
11.8410523,180,180,0,0,3.3222,64.9375,6.54948497342349,0.510388658670953,0.842336568394067,-0.0559726545809681,0.0112921931270219,-0.536104498565586,0.4,-1.04,9.74
11.9604701,180,180,0,0,3.528,64.9375,5.97464409378955,1.27433922192861,0.842397607275835,-0.0506012329854117,0.0170298480131844,-0.536287615210889,0.25,-1.01,9.75
11.9807258,180,180,0,0,3.5574,64.9375,5.89124861262501,1.30362563040309,0.842397607275835,-0.0499298052859672,0.017884392357932,-0.536287615210889,0.22,-1.01,9.75
12.1045269,180,180,0,0,3.5868,64.9375,5.53730776801021,1.89632148707274,0.84251968503937,-0.0463895501434414,0.0219129585545993,-0.536348654092657,0.12,-0.99,9.75
12.1225437,180,180,0,0,3.5966,64.9375,5.51025323166519,1.95266243189225,0.84251968503937,-0.0460233168528353,0.0223402307269731,-0.536348654092657,0.11,-0.99,9.75
12.1397136,180,180,0,0,3.5966,64.9375,5.51025323166519,1.95266243189225,0.84251968503937,-0.0457181224439968,0.0226454251358115,-0.536287615210889,0.1,-0.99,9.75
12.2515492,180,180,0,0,3.577,64.9375,5.42908962263011,2.1216852663508,0.842641762802905,-0.045290850271623,0.0236830861258622,-0.536165537447354,0.08,-0.99,9.75
12.2695399,180,180,0,0,3.5672,64.875,5.45614415897513,2.06534432153128,0.842641762802905,-0.0454739669169261,0.0236830861258622,-0.536165537447354,0.08,-1,9.75
12.2844867,180,180,0,0,3.5574,64.875,5.45614415897513,2.06534432153128,0.842641762802905,-0.0455350057986938,0.0236830861258622,-0.536104498565586,0.08,-1,9.75
12.2996384,180,180,0,0,3.5378,64.875,5.45614415897513,2.06534432153128,0.842641762802905,-0.0457791613257645,0.0235610083623268,-0.536104498565586,0.09,-1,9.75
12.4095519,180,180,0,0,3.4104,64.875,5.78749421150384,1.80846226164927,0.842702801684673,-0.0485259110053104,0.0217298419092962,-0.535799304156748,0.15,-1.03,9.75
12.4284914,180,180,0,0,3.3908,64.875,5.87088969266838,1.77917585317478,0.842763840566441,-0.0491973387047549,0.0212415308551547,-0.53573826527498,0.16,-1.03,9.75
12.4454298,180,180,0,0,3.381,64.875,5.8979442290134,1.72283490835526,0.842763840566441,-0.049563571995361,0.020997375328084,-0.53573826527498,0.18,-1.04,9.74
12.5444522,180,180,0,0,3.2144,64.8125,6.31045789057718,1.2969300140147,0.842763840566441,-0.0537752548373314,0.0176402368308613,-0.535433070866142,0.28,-1.07,9.74
12.5636897,180,180,0,0,3.1752,64.8125,6.42090790808675,1.2113026607207,0.842763840566441,-0.0546908380638467,0.0168467313678813,-0.535310993102606,0.3,-1.08,9.74
12.5815817,180,180,0,0,3.1164,64.8125,6.53135792559632,1.12567530742669,0.842763840566441,-0.0557284990538973,0.0160532259049014,-0.535249954220839,0.31,-1.08,9.74
12.6851981,180,180,0,0,2.8812,64.75,7.02503519619517,0.530747578627588,0.842763840566441,-0.0606116095953122,0.0117805041811634,-0.534883720930233,0.45,-1.12,9.73
12.7096024,180,180,0,0,2.793,64.75,7.13548521370474,0.445120225333583,0.842763840566441,-0.0615882317035952,0.0108649209546481,-0.534822682048465,0.46,-1.13,9.73
12.7267563,180,180,0,0,2.7636,64.75,7.16253975004977,0.388779280514068,0.842702801684673,-0.062992125984252,0.00952206555575902,-0.534700604284929,0.5,-1.14,9.72
12.8275997,180,180,0,0,2.5186,64.75,7.68327155699365,-0.262489393104554,0.842641762802905,-0.0676921198803638,0.00488311054141488,-0.534273332112556,0.62,-1.17,9.71
12.8478935,180,180,0,0,2.499,64.6875,7.84783064719327,-0.46079863603759,0.842641762802905,-0.0686687419886468,0.00396752731489959,-0.534212293230788,0.65,-1.17,9.71
12.8645434,180,180,0,0,2.4402,64.6875,7.87488518353829,-0.517139580857105,0.842580723921138,-0.0691570530427883,0.00354025514252579,-0.53415125434902,0.66,-1.17,9.71
12.9636238,180,180,0,0,2.2638,64.6875,8.34150791779212,-1.0557263648367,0.842458646157602,-0.0734297747665263,-0.00091558322651529,-0.533846059940182,0.78,-1.2,9.7
12.9816309,180,180,0,0,2.2344,64.6875,8.36856245413715,-1.11206730965621,0.842458646157602,-0.0738570469389001,-0.00134285539888909,-0.533846059940182,0.79,-1.2,9.69
12.9998844,180,180,0,0,2.2148,64.6875,8.50606700799174,-1.25403560776973,0.842397607275835,-0.0750167856924861,-0.00256363303424281,-0.533723982176647,0.82,-1.21,9.69
13.0976362,180,180,0,0,2.107,64.6875,8.77884424357147,-1.67770862998083,0.842214490630532,-0.077946652017335,-0.00585973264969786,-0.533540865531344,0.92,-1.22,9.68
13.1165423,180,180,0,0,2.0874,64.6875,8.80589877991649,-1.73404957480034,0.842214490630532,-0.0784349630714765,-0.0065311603491424,-0.533540865531344,0.92,-1.22,9.68
13.1358805,180,180,0,0,2.0678,64.6875,8.86000785260654,-1.84673146443938,0.842153451748764,-0.078923274125618,-0.00714154916681926,-0.533479826649576,0.95,-1.22,9.68
13.2619289,180,180,0,0,2.0188,64.6875,9.10573055184124,-2.21406354183096,0.841909296221693,-0.0813037905145578,-0.00994933772813282,-0.533418787767808,1.01,-1.23,9.67
13.2909901,180,180,0,0,2.0188,64.6875,9.10573055184124,-2.21406354183096,0.841909296221693,-0.0815479460416285,-0.0102545321369713,-0.533479826649576,1.02,-1.23,9.67
13.4026259,180,180,0,0,2.0678,64.6875,9.16207149666075,-2.18700900548593,0.841787218458158,-0.0816089849233962,-0.00988829884636513,-0.533601904413111,1.01,-1.24,9.67
13.4218311,180,180,0,0,2.0874,64.6875,9.13501696031573,-2.13066806066642,0.841787218458158,-0.0814869071598608,-0.0095831044375267,-0.533662943294879,1.01,-1.24,9.67
13.4397571,180,180,0,0,2.107,64.75,9.1079624239707,-2.0743271158469,0.841787218458158,-0.0812427516327901,-0.00921687114692059,-0.533723982176647,1,-1.24,9.67
13.5406514,180,180,0,0,2.2246,64.75,8.97268974224557,-1.79262239174932,0.841787218458158,-0.0797167795885979,-0.00671427699444546,-0.533968137703717,0.94,-1.24,9.68
13.5619115,180,180,0,0,2.254,64.75,8.94563520590055,-1.73628144692981,0.841787218458158,-0.0792284685344564,-0.0061038881767686,-0.534090215467253,0.92,-1.24,9.68
13.5786925,180,180,0,0,2.2736,64.75,8.83518518839098,-1.6506540936358,0.841787218458158,-0.0786180797167796,-0.00543246047732406,-0.53415125434902,0.91,-1.24,9.68
13.6786484,180,180,0,0,2.4696,64.8125,8.53535341646623,-1.17064012660519,0.841848257339926,-0.0753219801013245,-0.00177012757126289,-0.534517487639626,0.81,-1.22,9.69
13.7109329,180,180,0,0,2.5382,64.8125,8.39784886261164,-1.02867182849167,0.841909296221693,-0.0741012024659708,-0.000549349935909174,-0.534639565403162,0.77,-1.21,9.7
13.8186565,180,180,0,0,2.7734,64.8125,7.98756707317732,-0.463030508167054,0.841970335103461,-0.0695232863333944,0.00415064396020265,-0.535127876457303,0.66,-1.19,9.71
13.8507554,180,180,0,0,2.8518,64.875,7.82300798297771,-0.264721265234018,0.842031373985229,-0.068241469816273,0.00549349935909174,-0.535249954220839,0.62,-1.18,9.71
13.9516234,180,180,0,0,3.0576,64.875,7.35638524872387,0.273865518745573,0.842092412866996,-0.0636635536836965,0.00988829884636513,-0.535616187511445,0.49,-1.15,9.72
13.9696572,180,180,0,0,3.1164,64.875,7.32933071237885,0.330206463565089,0.842092412866996,-0.063175242629555,0.0103766099005066,-0.535616187511445,0.47,-1.14,9.72
13.98562,180,180,0,0,3.136,64.875,7.16477162217923,0.528515706498124,0.842153451748764,-0.0616492705853629,0.0117194652993957,-0.53573826527498,0.45,-1.14,9.72
14.0837377,180,180,0,0,3.3222,64.9375,6.64180794310588,1.04004795413269,0.842214490630532,-0.0570103155710187,0.0158701092595984,-0.535982420802051,0.33,-1.1,9.73
14.1036406,180,180,0,0,3.3614,64.9375,6.61475340676086,1.09638889895221,0.842275529512299,-0.0565220045168773,0.0162363425502045,-0.535982420802051,0.32,-1.1,9.73
14.1218055,180,180,0,0,3.4006,64.9375,6.58769887041583,1.15272984377172,0.842275529512299,-0.0560947323445034,0.0166636147225783,-0.535982420802051,0.29,-1.09,9.74
14.221676,180,180,0,0,3.5084,64.9375,6.09178972768751,1.60792114658677,0.842397607275835,-0.0516999328572301,0.0202038698651041,-0.536104498565586,0.2,-1.06,9.74
14.2431637,180,180,0,0,3.5378,64.9375,6.06473519134249,1.66426209140629,0.842397607275835,-0.0509674662760178,0.0206921809192456,-0.536165537447354,0.18,-1.05,9.74
14.2597138,180,180,0,0,3.5476,64.9375,6.03768065499746,1.7206030362258,0.842397607275835,-0.050357077458341,0.021180491973387,-0.536165537447354,0.17,-1.05,9.74
14.3606976,180,180,0,0,3.5182,64.9375,5.7897260836333,1.94819868763333,0.84251968503937,-0.0483427943600073,0.0225843862540438,-0.536104498565586,0.12,-1.03,9.75
14.3828203,180,180,0,0,3.5084,64.875,5.70633060246876,1.97748509610782,0.842580723921138,-0.0477324055423305,0.0228285417811146,-0.536104498565586,0.12,-1.02,9.75
14.4005888,180,180,0,0,3.5182,64.875,5.70633060246876,1.97748509610782,0.842580723921138,-0.0476713666605628,0.0228895806628823,-0.536104498565586,0.12,-1.02,9.75
14.4986701,180,180,0,0,3.479,64.875,5.67704419399427,1.89408961494327,0.842641762802905,-0.0476103277787951,0.0222791918452054,-0.535982420802051,0.13,-1.02,9.75
14.5186165,180,180,0,0,3.4692,64.875,5.70409873033929,1.83774867012376,0.842702801684673,-0.0477324055423305,0.0219129585545993,-0.535921381920283,0.13,-1.01,9.75
14.5346842,180,180,0,0,3.4496,64.875,5.70409873033929,1.83774867012376,0.842702801684673,-0.0479765610694012,0.0215467252639932,-0.535921381920283,0.14,-1.01,9.75
14.631538,180,180,0,0,3.3614,64.875,5.86642594840945,1.49970300120667,0.842824879448208,-0.0494414942318257,0.019044131111518,-0.53573826527498,0.2,-1.01,9.75
14.6517328,180,180,0,0,3.3222,64.875,5.89348048475448,1.44336205638715,0.842824879448208,-0.0499908441677348,0.0184337422938412,-0.535677226393212,0.22,-1.01,9.75
14.6697075,180,180,0,0,3.3026,64.8125,5.94758955744453,1.33068016674812,0.842824879448208,-0.0506012329854117,0.0177623145943966,-0.535616187511445,0.23,-1.02,9.75
14.7675921,180,180,0,0,3.1556,64.8125,6.30376227418879,0.877720736062535,0.842885918329976,-0.0540194103644021,0.0138558261612647,-0.535310993102606,0.33,-1.03,9.74
14.7867276,180,180,0,0,3.1066,64.8125,6.35787134687884,0.765038846423504,0.842885918329976,-0.054812915827382,0.0130012818165171,-0.535249954220839,0.36,-1.04,9.74
14.8050257,180,180,0,0,3.0478,64.8125,6.38492588322387,0.708697901603988,0.842885918329976,-0.0556674601721296,0.0121467374717695,-0.535188915339071,0.38,-1.04,9.74
14.924721,180,180,0,0,2.7832,64.75,6.93271222651278,0.00108828316585097,0.842885918329976,-0.0605505707135445,0.00677531587621315,-0.534761643166697,0.52,-1.07,9.73
14.9467093,180,180,0,0,2.7244,64.75,7.01387583554786,-0.167934551292695,0.842885918329976,-0.0614051150582921,0.00585973264969786,-0.534700604284929,0.54,-1.07,9.73
14.9628016,180,180,0,0,2.7048,64.75,7.0972713167124,-0.197220959767185,0.842885918329976,-0.062198620521272,0.00494414942318257,-0.534639565403162,0.57,-1.08,9.73
15.0586885,180,180,0,0,2.5088,64.6875,7.4512121613272,-0.789916816436827,0.842763840566441,-0.0657999145455655,0.00091558322651529,-0.534334370994323,0.67,-1.09,9.72
15.077621,180,180,0,0,2.4598,64.6875,7.56166217883676,-0.875544169730833,0.842763840566441,-0.0665323811267778,0,-0.534273332112556,0.69,-1.09,9.71
15.1028987,180,180,0,0,2.4206,64.6875,7.61577125152682,-0.988226059369863,0.842702801684673,-0.0676921198803638,-0.00134285539888909,-0.53415125434902,0.73,-1.1,9.71
15.2026552,180,180,0,0,2.2638,64.6875,7.99899850461611,-1.49752643487496,0.842580723921138,-0.0710492583775865,-0.00500518830495025,-0.533968137703717,0.83,-1.12,9.7
15.2337503,180,180,0,0,2.2148,64.6875,8.1365030584707,-1.63949473298849,0.84251968503937,-0.0723921137764756,-0.00647012146737472,-0.53390709882195,0.86,-1.12,9.7
15.3427355,180,180,0,0,2.1266,64.6875,8.40928029405042,-2.06316775519958,0.842275529512299,-0.0753219801013245,-0.00970518220106208,-0.533785021058414,0.94,-1.14,9.69
15.3617167,180,180,0,0,2.107,64.6875,8.43633483039545,-2.1195087000191,0.842275529512299,-0.0755661356283953,-0.00994933772813282,-0.533723982176647,0.95,-1.14,9.69
15.3797545,180,180,0,0,2.0972,64.6875,8.51973031155999,-2.14879510849359,0.842214490630532,-0.0762375633278398,-0.0106207654275774,-0.533723982176647,0.97,-1.14,9.69
15.4856167,180,180,0,0,2.0972,64.6875,8.60089392059507,-2.31781794295213,0.842092412866996,-0.0772752243178905,-0.011658426417628,-0.533785021058414,1,-1.15,9.68
15.5045368,180,180,0,0,2.0972,64.6875,8.60089392059507,-2.31781794295213,0.842092412866996,-0.0773362631996582,-0.0117194652993957,-0.533785021058414,1,-1.15,9.68
15.5207629,180,180,0,0,2.0972,64.6875,8.65723486541458,-2.29076340660711,0.842031373985229,-0.0774583409631936,-0.0115973875358603,-0.533846059940182,1,-1.15,9.68
15.6257219,180,180,0,0,2.156,64.75,8.63018032906955,-2.23442246178759,0.841970335103461,-0.0771531465543551,-0.0106818043093451,-0.533968137703717,0.98,-1.16,9.68
15.6457202,180,180,0,0,2.1854,64.75,8.5760712563795,-2.12174057214856,0.841970335103461,-0.0768479521455167,-0.0100714154916682,-0.534029176585485,0.97,-1.16,9.68
15.6641163,180,180,0,0,2.205,64.75,8.5760712563795,-2.12174057214856,0.841970335103461,-0.0767258743819813,-0.00982725996459745,-0.534090215467253,0.96,-1.16,9.68
15.8006182,180,180,0,0,2.3912,64.8125,8.30552589292924,-1.55833112395341,0.841970335103461,-0.0740401635842031,-0.00537142159555637,-0.534517487639626,0.86,-1.16,9.69
15.8196885,180,180,0,0,2.4304,64.8125,8.27847135658422,-1.50199017913389,0.841970335103461,-0.073490813648294,-0.00457791613257645,-0.534578526521394,0.84,-1.16,9.7
15.8346083,180,180,0,0,2.45,64.8125,8.25141682023919,-1.44564923431438,0.841970335103461,-0.0730025025941525,-0.00378441066959653,-0.534639565403162,0.82,-1.16,9.7
15.8518103,180,180,0,0,2.499,64.8125,8.19730774754914,-1.33296734467535,0.841970335103461,-0.0727583470670817,-0.00335713849722273,-0.534700604284929,0.81,-1.16,9.7
15.9506254,180,180,0,0,2.6754,64.8125,7.92676238409888,-0.769557896480193,0.841970335103461,-0.0699505585057682,0.00115973875358603,-0.535066837575536,0.71,-1.16,9.71
15.9699396,180,180,0,0,2.7244,64.875,7.87265331140883,-0.656876006841162,0.841970335103461,-0.0693401696880913,0.00207532198010132,-0.535127876457303,0.69,-1.16,9.71
15.987318,180,180,0,0,2.7538,64.875,7.81854423871878,-0.544194117202131,0.842031373985229,-0.0687908197521821,0.00299090520661661,-0.535127876457303,0.67,-1.16,9.71
16.1358394,180,180,0,0,3.0478,64.875,7.46683526623344,0.188238165451569,0.842031373985229,-0.0639687480925349,0.0101934932552036,-0.535677226393212,0.5,-1.16,9.72
16.1568294,180,180,0,0,3.0968,64.875,7.2752216396888,0.442888353204119,0.842031373985229,-0.063175242629555,0.0111090764817189,-0.53573826527498,0.47,-1.15,9.72
16.2586176,180,180,0,0,3.2634,64.9375,6.94833533141902,0.979243265054247,0.842092412866996,-0.0595739486052616,0.0156259537325276,-0.535921381920283,0.36,-1.14,9.73
16.2775962,180,180,0,0,3.2928,64.9375,6.89422625872897,1.09192515469328,0.842092412866996,-0.0588414820240493,0.0164804980772752,-0.535982420802051,0.34,-1.14,9.73
16.2937506,180,180,0,0,3.3124,64.9375,6.84011718603892,1.20460704433231,0.842092412866996,-0.0581090154428371,0.0172740035402551,-0.535982420802051,0.32,-1.14,9.73
16.3928801,180,180,0,0,3.43,64.9375,6.5673399504592,1.62828006654341,0.842153451748764,-0.0552401879997558,0.0208752975645486,-0.536104498565586,0.23,-1.13,9.73
16.4198232,180,180,0,0,3.4496,64.9375,6.45688993294963,1.71390741983741,0.842153451748764,-0.0545077214185436,0.0217298419092962,-0.536104498565586,0.21,-1.12,9.73
16.4395597,180,180,0,0,3.4692,64.9375,6.4298353966046,1.77024836465693,0.842153451748764,-0.0543246047732406,0.0220350363181347,-0.536104498565586,0.2,-1.12,9.73
16.5620589,180,180,0,0,3.4986,64.9375,6.23822177005996,2.02489855240948,0.842275529512299,-0.05249343832021,0.0240493194164683,-0.536043459683819,0.15,-1.11,9.74
16.5888948,180,180,0,0,3.4986,64.9375,6.23822177005996,2.02489855240948,0.842275529512299,-0.0523713605566746,0.024110358298236,-0.536043459683819,0.15,-1.11,9.74
16.6108495,180,180,0,0,3.4888,64.9375,6.23822177005996,2.02489855240948,0.842336568394067,-0.0523103216749069,0.024110358298236,-0.535982420802051,0.15,-1.11,9.74
16.7129089,180,180,0,0,3.43,64.875,6.29233084275001,1.91221666277045,0.842458646157602,-0.052676554965513,0.0230726973081853,-0.535860343038515,0.17,-1.11,9.74
16.7397711,180,180,0,0,3.4104,64.875,6.31938537909504,1.85587571795093,0.842458646157602,-0.0529817493743515,0.0224623084905085,-0.535799304156748,0.18,-1.11,9.74
16.7548286,180,180,0,0,3.3908,64.875,6.31938537909504,1.85587571795093,0.842458646157602,-0.0531038271378868,0.0222181529634377,-0.53573826527498,0.19,-1.11,9.74
16.8547676,180,180,0,0,3.2536,64.875,6.50876713351022,1.46148910421432,0.842580723921138,-0.0549349935909174,0.0192882866385888,-0.535494109747909,0.26,-1.11,9.73
16.8738863,180,180,0,0,3.2144,64.8125,6.53582166985524,1.40514815939481,0.842580723921138,-0.0554843435268266,0.0185558200573765,-0.535494109747909,0.27,-1.11,9.73
16.8928326,180,180,0,0,3.1948,64.8125,6.5899307425453,1.29246626975578,0.842641762802905,-0.0559726545809681,0.0177623145943966,-0.535433070866142,0.29,-1.11,9.73
17.0129063,180,180,0,0,2.9694,64.8125,6.86047610599555,0.729056821560623,0.842702801684673,-0.0590856375511201,0.0130623206982848,-0.535066837575536,0.4,-1.11,9.73
17.0347611,180,180,0,0,2.9204,64.8125,6.94163971503063,0.560033987102077,0.842702801684673,-0.0599401818958677,0.011658426417628,-0.535005798693768,0.44,-1.11,9.73
17.0522127,180,180,0,0,2.8812,64.8125,6.96869425137566,0.503693042282562,0.842702801684673,-0.0602453763047061,0.0112311542452542,-0.534944759812,0.44,-1.11,9.73
17.1608594,180,180,0,0,2.6656,64.75,7.29334868751597,-0.172398295551622,0.842763840566441,-0.0636025148019288,0.00598181041323323,-0.534639565403162,0.57,-1.11,9.72
17.1840938,180,180,0,0,2.6264,64.75,7.34745776020602,-0.285080185190653,0.842763840566441,-0.0642129036196057,0.00506622718671794,-0.534578526521394,0.6,-1.11,9.72
17.2006916,180,180,0,0,2.6068,64.75,7.40156683289607,-0.397762074829684,0.842763840566441,-0.065128486846121,0.00366233290606116,-0.534456448757859,0.62,-1.11,9.72
17.3008918,180,180,0,0,2.4206,64.6875,7.67211219634633,-0.961171523024837,0.842702801684673,-0.0680583531709699,-0.000854544344747604,-0.53415125434902,0.72,-1.11,9.71
17.3196518,180,180,0,0,2.401,64.6875,7.72622126903638,-1.07385341266387,0.842702801684673,-0.0683635475798083,-0.00128181651712141,-0.53415125434902,0.73,-1.11,9.71
17.3348218,180,180,0,0,2.3716,64.6875,7.75327580538141,-1.13019435748338,0.842702801684673,-0.0689739363974852,-0.00213636086186901,-0.534090215467253,0.75,-1.11,9.71
17.4328472,180,180,0,0,2.254,64.6875,8.05310757730616,-1.610208324514,0.842580723921138,-0.071537569431728,-0.00604284929500092,-0.53390709882195,0.84,-1.11,9.7
17.4541697,180,180,0,0,2.2246,64.6875,8.08016211365118,-1.66654926933351,0.842580723921138,-0.0719648416041018,-0.00665323811267778,-0.533846059940182,0.86,-1.11,9.7
17.4719599,180,180,0,0,2.2148,64.6875,8.13427118634123,-1.77923115897254,0.84251968503937,-0.0723921137764756,-0.00732466581212232,-0.533846059940182,0.87,-1.11,9.7
17.5727954,180,180,0,0,2.156,64.6875,8.26954386806636,-2.06093588307012,0.842397607275835,-0.0740401635842031,-0.00988829884636513,-0.533785021058414,0.93,-1.12,9.69
17.5917001,180,180,0,0,2.1462,64.6875,8.29659840441139,-2.11727682788963,0.842397607275835,-0.0742843191112739,-0.0101934932552036,-0.533785021058414,0.94,-1.12,9.69
17.6110384,180,180,0,0,2.1462,64.6875,8.32365294075642,-2.17361777270915,0.842336568394067,-0.0744063968748093,-0.0104376487822743,-0.533785021058414,0.95,-1.12,9.69
17.7358476,180,180,0,0,2.1756,64.6875,8.35070747710144,-2.22995871752866,0.842275529512299,-0.0748336690471831,-0.0110480375999512,-0.533846059940182,0.96,-1.12,9.69
17.754829,180,180,0,0,2.1756,64.6875,8.35070747710144,-2.22995871752866,0.842214490630532,-0.0747115912836477,-0.0109259598364158,-0.53390709882195,0.96,-1.11,9.69
