Time (s),Setpoint (deg),Motor Position (deg),Tension 1 (N),Tension 2 (N),Tension 3 (N),Heading (deg),Pitch (deg),Roll (deg),Quaternion W,Quaternion X,Quaternion Y,Quaternion Z,Gravity X,Gravity Y,Gravity Z
0,0,0,0,0,0,0,0,0,0,0,0,0,0,0,0
0.0206793,0,0.45,0.8722,0,0,87.5,0.404729762009537,6.08759805422005,0.721357504730513,0.0132454373435879,0.0520051272660685,-0.6905939083196,-0.91,-0.51,9.75
0.0473776,0,0,0.8624,0,0,87.5,0.404729762009537,6.08759805422005,0.721357504730513,0.0131843984618202,0.0520661661478362,-0.6905939083196,-0.91,-0.51,9.75
0.1504688,0,0,0.8526,0,0,87.5,0.461070706829052,6.11465259056507,0.721357504730513,0.0126960874076787,0.0522492827931392,-0.6905939083196,-0.91,-0.52,9.75
0.1760771,0,0,0.8526,0,0,87.4375,0.488125243174078,6.05831164574556,0.721357504730513,0.0124519318806079,0.0521882439113715,-0.690532869437832,-0.9,-0.53,9.75
0.1931662,0,0,0.8526,0,0,87.4375,0.488125243174078,6.05831164574556,0.721357504730513,0.0122688152353049,0.0521882439113715,-0.690532869437832,-0.9,-0.53,9.75
0.2921573,0,0,0.8526,0,0,87.4375,0.627861669158135,6.05607977361609,0.721418543612281,0.0114142708905573,0.0520661661478362,-0.690532869437832,-0.88,-0.54,9.75
0.3112004,0,0,0.8526,0,0,87.4375,0.627861669158135,6.05607977361609,0.721418543612281,0.0111701153634865,0.0518830495025331,-0.690532869437832,-0.88,-0.54,9.75
0.3272097,0,0,0.8526,0,0,87.4375,0.654916205503161,5.99973882879658,0.721418543612281,0.0111701153634865,0.0518830495025331,-0.690532869437832,-0.88,-0.54,9.75
0.3430077,0,0,0.8526,0,0,87.4375,0.654916205503161,5.99973882879658,0.721418543612281,0.0109259598364158,0.0517609717389977,-0.690532869437832,-0.88,-0.54,9.75
0.3579601,0,0,0.8526,0,0,87.4375,0.654916205503161,5.99973882879658,0.721479582494049,0.0108649209546481,0.0516999328572301,-0.690532869437832,-0.87,-0.54,9.75
0.3740702,0,0,0.8526,0,0,87.4375,0.681970741848187,5.94339788397706,0.721479582494049,0.0107428431911127,0.0515778550936947,-0.690532869437832,-0.87,-0.54,9.75
0.389099,0,0,0.8526,0,0,87.4375,0.681970741848187,5.94339788397706,0.721479582494049,0.0106818043093451,0.051516816211927,-0.690532869437832,-0.87,-0.54,9.75
0.403983,0,0,0.8722,0,0,87.4375,0.681970741848187,5.94339788397706,0.721479582494049,0.0105597265458097,0.0513947384483916,-0.690532869437832,-0.87,-0.54,9.75
0.4191549,0,0,0.8722,0,0,87.4375,0.681970741848187,5.94339788397706,0.721479582494049,0.010498687664042,0.0513336995666239,-0.690532869437832,-0.86,-0.54,9.75
0.4351258,0,0,0.8722,0,0,87.4375,0.681970741848187,5.94339788397706,0.721479582494049,0.0103766099005066,0.0512116218030886,-0.690532869437832,-0.86,-0.54,9.75
0.4500149,0,0,0.8722,0,0,87.4375,0.709025278193212,5.88705693915755,0.721479582494049,0.0102545321369713,0.0510895440395532,-0.690532869437832,-0.86,-0.54,9.75
0.4640192,0,0,0.8722,0,0,87.4375,0.709025278193212,5.88705693915755,0.721479582494049,0.0101934932552036,0.0509674662760178,-0.690532869437832,-0.85,-0.54,9.75
0.4800335,0,0,0.8722,0,0,87.4375,0.709025278193212,5.88705693915755,0.721540621375816,0.0100714154916682,0.0508453885124825,-0.690532869437832,-0.85,-0.54,9.75
0.4950042,0,0,0.882,0,0,87.4375,0.736079814538238,5.83071599433803,0.721540621375816,0.00994933772813282,0.0507843496307148,-0.690532869437832,-0.85,-0.54,9.75
0.5109641,0,0,0.882,0,0,87.4375,0.736079814538238,5.83071599433803,0.721540621375816,0.00982725996459745,0.0506012329854117,-0.690532869437832,-0.84,-0.54,9.75
0.5259727,0,0,0.882,0,0,87.4375,0.736079814538238,5.83071599433803,0.721540621375816,0.00982725996459745,0.0506012329854117,-0.690532869437832,-0.84,-0.54,9.75
0.6261567,0,0,0.9114,0,0,87.4375,0.79018888722829,5.718034104699,0.721601660257584,0.0091558322651529,0.0498687664041995,-0.690532869437832,-0.82,-0.54,9.75
0.6441912,0,0,0.9114,0,0,87.4375,0.79018888722829,5.718034104699,0.721601660257584,0.00891167673808216,0.0496246108771287,-0.690532869437832,-0.82,-0.54,9.75
0.65918,0,0,0.9114,0,0,87.4375,0.817243423573316,5.66169315987949,0.721601660257584,0.00878959897454679,0.0495025331135934,-0.690532869437832,-0.81,-0.54,9.75
0.6741965,0,0,0.9114,0,0,87.4375,0.817243423573316,5.66169315987949,0.721601660257584,0.00878959897454679,0.0495025331135934,-0.690532869437832,-0.81,-0.54,9.75
0.774176,0,0,0.9604,0,0,87.4375,0.871352496263368,5.54901127024046,0.721662699139352,0.00811817127510224,0.0487700665323811,-0.6905939083196,-0.8,-0.54,9.75
0.7920966,0,0,0.9604,0,0,87.4375,0.871352496263368,5.54901127024046,0.721662699139352,0.00793505462979918,0.0485869498870781,-0.6905939083196,-0.79,-0.54,9.75
0.8072018,0,0,0.9604,0,0,87.4375,0.871352496263368,5.54901127024046,0.721662699139352,0.00781297686626381,0.0485259110053104,-0.6905939083196,-0.79,-0.54,9.75
0.9061782,0,0,0.9898,0,0,87.4375,0.898407032608394,5.49267032542094,0.721723738021119,0.00744674357565769,0.0480986388329366,-0.6905939083196,-0.78,-0.54,9.76
0.9241697,0,0,0.9898,0,0,87.4375,0.898407032608394,5.49267032542094,0.721723738021119,0.00744674357565769,0.0480986388329366,-0.6905939083196,-0.78,-0.54,9.76
0.9400562,0,0,0.9898,0,0,87.4375,0.898407032608394,5.49267032542094,0.721723738021119,0.00744674357565769,0.0480375999511689,-0.6905939083196,-0.78,-0.54,9.76
0.9549874,0,0,0.9898,0,0,87.4375,0.898407032608394,5.49267032542094,0.721723738021119,0.00744674357565769,0.0480375999511689,-0.6905939083196,-0.78,-0.54,9.76
1.0530886,0,0,1.029,0,0,87.4375,0.842066087788879,5.46561578907591,0.721723738021119,0.0078740157480315,0.0476713666605628,-0.6905939083196,-0.78,-0.53,9.76
1.0722286,0,0,1.029,0,0,87.4375,0.842066087788879,5.46561578907591,0.721723738021119,0.00793505462979918,0.0476713666605628,-0.6905939083196,-0.78,-0.53,9.76
1.0872005,0,0,1.029,0,0,87.4375,0.785725142969363,5.43856125273089,0.721723738021119,0.00799609351156687,0.0475492888970274,-0.6905939083196,-0.78,-0.52,9.76
1.1020136,0,0,1.029,0,0,87.4375,0.785725142969363,5.43856125273089,0.721723738021119,0.00811817127510224,0.047427211133492,-0.6905939083196,-0.78,-0.52,9.76
1.2041874,0,0,1.029,0,0,87.4375,0.756438734494874,5.35516577156635,0.721662699139352,0.00848440456570836,0.0466947445522798,-0.690654947201367,-0.77,-0.51,9.76
1.2221255,0,0,1.029,0,0,87.4375,0.700097789675358,5.32811123522132,0.721662699139352,0.00854544344747604,0.0464505890252091,-0.690715986083135,-0.77,-0.5,9.76
1.2381054,0,0,1.029,0,0,87.4375,0.700097789675358,5.32811123522132,0.721662699139352,0.00860648232924373,0.0463895501434414,-0.690715986083135,-0.77,-0.5,9.76
1.3382052,0,0,1.029,0,0,87.4375,0.614470436381353,5.21766121771175,0.721662699139352,0.00891167673808216,0.0454129280351584,-0.690777024964903,-0.76,-0.48,9.76
1.356261,0,0,1.029,0,0,87.4375,0.614470436381353,5.21766121771175,0.721662699139352,0.00897271561984984,0.0452298113898553,-0.690777024964903,-0.76,-0.48,9.76
1.3710615,0,0,1.029,0,0,87.4375,0.614470436381353,5.21766121771175,0.721662699139352,0.00903375450161753,0.0450466947445523,-0.690777024964903,-0.75,-0.48,9.76
1.3871292,0,0,1.029,0,0,87.4375,0.614470436381353,5.21766121771175,0.721662699139352,0.00909479338338522,0.0449856558627846,-0.690777024964903,-0.75,-0.48,9.76
1.4860782,0,0,1.0192,0,0,87.4375,0.528843083087349,5.10721120020219,0.721662699139352,0.00946102667399133,0.0444363059268754,-0.69083806384667,-0.75,-0.46,9.76
1.505403,0,0,1.0192,0,0,87.4375,0.501788546742323,5.1635521450217,0.721662699139352,0.0095831044375267,0.0444363059268754,-0.69083806384667,-0.75,-0.46,9.76
1.5313583,0,0,0.9996,0,0,87.4375,0.501788546742323,5.1635521450217,0.721662699139352,0.00970518220106208,0.0444363059268754,-0.69083806384667,-0.76,-0.46,9.76
1.640229,0,0,0.98,0,0,87.5,0.501788546742323,5.1635521450217,0.721662699139352,0.0101934932552036,0.0445583836904108,-0.69083806384667,-0.76,-0.45,9.76
1.6593481,0,0,0.98,0,0,87.5,0.474734010397297,5.21989308984122,0.721662699139352,0.0103155710187389,0.0446194225721785,-0.69083806384667,-0.77,-0.45,9.76
1.6826879,0,0,0.98,0,0,87.5,0.418393065577782,5.19283855349619,0.721662699139352,0.0104376487822743,0.0446804614539462,-0.69083806384667,-0.77,-0.45,9.76
1.8010585,0,0,0.9212,0,0,87.5,0.391338529232756,5.24917949831571,0.721601660257584,0.0110480375999512,0.0449246169810169,-0.69083806384667,-0.78,-0.45,9.76
1.8214265,0,0,0.9212,0,0,87.5,0.391338529232756,5.24917949831571,0.721601660257584,0.0111090764817189,0.0449856558627846,-0.69083806384667,-0.78,-0.45,9.76
1.8402568,0,0,0.9212,0,0,87.5,0.391338529232756,5.24917949831571,0.721601660257584,0.0112311542452542,0.0450466947445523,-0.69083806384667,-0.78,-0.45,9.76
1.9581638,0,0,0.9016,0,0,87.5,0.36428399288773,5.30552044313522,0.721601660257584,0.0115363486540927,0.0455960446804615,-0.69083806384667,-0.8,-0.45,9.76
1.9761272,0,0,0.9016,0,0,87.5,0.36428399288773,5.30552044313522,0.721601660257584,0.0115363486540927,0.0457181224439968,-0.69083806384667,-0.8,-0.45,9.76
1.9916308,0,0,0.882,0,0,87.5,0.337229456542704,5.36186138795474,0.721601660257584,0.011475309772325,0.0457791613257645,-0.69083806384667,-0.8,-0.45,9.76
2.1030858,0,0,0.8624,0,0,87.5,0.422856809836709,5.47231140546431,0.721540621375816,0.0112921931270219,0.0467557834340475,-0.690777024964903,-0.81,-0.47,9.76
2.1211589,0,0,0.8624,0,0,87.5,0.422856809836709,5.47231140546431,0.721540621375816,0.0112311542452542,0.0468778611975829,-0.690777024964903,-0.81,-0.47,9.76
2.1361999,0,0,0.8624,0,0,87.5,0.422856809836709,5.47231140546431,0.721540621375816,0.0111701153634865,0.0471830556064213,-0.690715986083135,-0.81,-0.48,9.76
2.1521446,0,0,0.8624,0,0,87.4375,0.479197754656224,5.49936594180933,0.721540621375816,0.0111090764817189,0.0473051333699567,-0.690715986083135,-0.81,-0.48,9.76
2.2573767,0,0,0.8526,0,0,87.4375,0.564825107950229,5.6098159593189,0.721540621375816,0.010498687664042,0.048220716596472,-0.690654947201367,-0.82,-0.5,9.75
2.2812776,0,0,0.8526,0,0,87.4375,0.564825107950229,5.6098159593189,0.721540621375816,0.0102545321369713,0.0485259110053104,-0.690654947201367,-0.82,-0.5,9.75
2.2982039,0,0,0.8526,0,0,87.4375,0.621166052769744,5.63687049566392,0.721540621375816,0.0101934932552036,0.0486479887688458,-0.690654947201367,-0.82,-0.51,9.75
2.4041631,0,0,0.8526,0,0,87.4375,0.733847942408775,5.69097956835398,0.721601660257584,0.00921687114692059,0.049563571995361,-0.6905939083196,-0.82,-0.54,9.75
2.4222125,0,0,0.8526,0,0,87.4375,0.79018888722829,5.718034104699,0.721601660257584,0.00909479338338522,0.0496856497588964,-0.6905939083196,-0.82,-0.54,9.75
2.437115,0,0,0.8526,0,0,87.4375,0.79018888722829,5.718034104699,0.721601660257584,0.00903375450161753,0.0497466886406641,-0.6905939083196,-0.82,-0.54,9.75
2.4522473,0,0,0.8526,0,0,87.4375,0.79018888722829,5.718034104699,0.721601660257584,0.00885063785631447,0.0499298052859672,-0.6905939083196,-0.82,-0.55,9.75
2.5501601,0,0,0.882,0,0,87.4375,0.902870776867321,5.77214317738905,0.721601660257584,0.00805713239333455,0.0506622718671794,-0.690532869437832,-0.82,-0.57,9.75
2.5682208,0,0,0.882,0,0,87.4375,0.902870776867321,5.77214317738905,0.721601660257584,0.00793505462979918,0.0507843496307148,-0.690471830556064,-0.82,-0.57,9.75
2.5841144,0,0,0.882,0,0,87.4375,0.959211721686836,5.79919771373408,0.721601660257584,0.00781297686626381,0.0508453885124825,-0.690471830556064,-0.82,-0.57,9.75
2.6821508,0,0,0.9016,0,0,87.4375,1.01555266650635,5.82625225007911,0.721601660257584,0.00720258804858695,0.0514557773301593,-0.690471830556064,-0.82,-0.59,9.75
2.7001218,0,0,0.9016,0,0,87.4375,1.07189361132587,5.85330678642413,0.721601660257584,0.00708051028505158,0.0515778550936947,-0.690471830556064,-0.82,-0.59,9.75
2.7166001,0,0,0.9016,0,0,87.4375,1.07189361132587,5.85330678642413,0.721601660257584,0.00701947140328389,0.0516388939754624,-0.690410791674297,-0.82,-0.6,9.75
2.8332605,0,0,0.9506,0,0,87.4375,1.12823455614538,5.88036132276916,0.721601660257584,0.0065311603491424,0.0520661661478362,-0.690410791674297,-0.82,-0.61,9.75
2.8501421,0,0,0.9506,0,0,87.4375,1.12823455614538,5.88036132276916,0.721601660257584,0.0065311603491424,0.0520661661478362,-0.690410791674297,-0.82,-0.61,9.75
2.8663987,0,0,0.9506,0,0,87.4375,1.12823455614538,5.88036132276916,0.721601660257584,0.0065311603491424,0.0520661661478362,-0.690410791674297,-0.82,-0.61,9.75
2.9911359,0,0,0.9702,0,0,87.4375,1.12823455614538,5.88036132276916,0.721601660257584,0.0065311603491424,0.0520051272660685,-0.690410791674297,-0.82,-0.61,9.75
3.0103735,0,0,0.9702,0,0,87.4375,1.12823455614538,5.88036132276916,0.721601660257584,0.0065311603491424,0.0520051272660685,-0.690410791674297,-0.82,-0.61,9.75
3.0282042,180,0,0.9898,0,0,87.4375,1.12823455614538,5.88036132276916,0.721601660257584,0.0065311603491424,0.0520051272660685,-0.690410791674297,-0.82,-0.61,9.75
3.1253444,180,17.1,1.0094,0,0,87.4375,1.07189361132587,5.85330678642413,0.721601660257584,0.00671427699444546,0.0516999328572301,-0.690410791674297,-0.82,-0.6,9.75
3.1452487,180,24.3,1.0094,0,0,87.4375,1.09894814767089,5.79696584160462,0.721601660257584,0.00683635475798083,0.0515778550936947,-0.690410791674297,-0.82,-0.6,9.75
3.1600855,180,30.6,1.0094,0,0,87.4375,1.09894814767089,5.79696584160462,0.721601660257584,0.00689739363974852,0.051516816211927,-0.690410791674297,-0.82,-0.59,9.75
3.2631523,180,93.15,1.0388,0,0,87.4375,0.986266258031862,5.74285676891456,0.721601660257584,0.00762986022096075,0.050540194103644,-0.690532869437832,-0.81,-0.57,9.75
3.2824067,180,107.1,1.0388,0,0,87.4375,0.929925313212347,5.71580223256954,0.721601660257584,0.00769089910272844,0.0502349996948056,-0.690532869437832,-0.81,-0.57,9.75
3.2993369,180,118.35,1.127,0,0,87.4375,0.956979849557372,5.65946128775002,0.721540621375816,0.00775193798449612,0.0498687664041995,-0.6905939083196,-0.81,-0.56,9.75
3.4242917,180,172.35,1.4014,0,0,87.5,0.785725142969363,5.43856125273089,0.721418543612281,0.0083012879204053,0.0474882500152597,-0.690899102728438,-0.78,-0.52,9.76
3.4447518,180,176.4,1.4014,0,0,87.5,0.785725142969363,5.43856125273089,0.721418543612281,0.00836232680217298,0.0473051333699567,-0.690899102728438,-0.78,-0.51,9.76
3.4731395,180,179.55,1.4014,0,0,87.5,0.729384198149848,5.41150671638586,0.721357504730513,0.00866752121101141,0.0468778611975829,-0.690960141610206,-0.78,-0.5,9.76
3.5781136,180,180,2.6166,0,0,87.5625,0.195261158429184,5.22435683410015,0.72117438808521,0.0125129707623756,0.0443752670451077,-0.691265336019044,-0.79,-0.42,9.76
3.5995471,180,180,2.6166,0,0,87.5625,-0.000816212374388225,5.19953416988458,0.72117438808521,0.0140389428065678,0.0435207227003601,-0.691326374900812,-0.8,-0.39,9.76
3.6152999,180,180,2.6166,0,0,87.5625,-0.0571571571939038,5.17247963353956,0.72117438808521,0.0146493316242446,0.0432765671732894,-0.691326374900812,-0.81,-0.37,9.76
3.7121737,180,180,3.2732,0,0,87.5625,-1.00825760273727,5.13176179362629,0.721052310321675,0.0223402307269731,0.0399194286760667,-0.691448452664347,-0.86,-0.22,9.76
3.730247,180,180,3.2732,0,0,87.5625,-1.1209394923763,5.07765272093624,0.721052310321675,0.0240493194164683,0.0391869620948544,-0.691448452664347,-0.88,-0.19,9.76
3.7464546,180,180,3.2732,0,0,87.5625,-1.45675328916393,5.05506192885014,0.721052310321675,0.0258804858694989,0.0385155343954099,-0.691448452664347,-0.89,-0.15,9.76
3.8501385,180,180,3.6848,0,0,87.5625,-2.43490827105233,5.07068503375638,0.720747115912836,0.0354025514252579,0.0347311237258133,-0.691509491546115,-0.97,0.02,9.75
3.8704054,180,180,3.773,0,0,87.625,-2.68732658667542,5.01880783319579,0.720747115912836,0.0372947567600562,0.0339376182628334,-0.691448452664347,-0.98,0.06,9.75
3.8859167,180,180,3.773,0,0,87.625,-2.96679943864353,5.02327157745472,0.720686077031069,0.0383324177501068,0.0335713849722273,-0.691509491546115,-0.99,0.08,9.75
4.0051127,180,180,3.5868,0,0,87.625,-4.4497910517781,4.93514028123979,0.720258804858695,0.0506012329854117,0.0287493133125801,-0.69138741378258,-1.1,0.34,9.73
4.0242002,180,180,3.5868,0,0,87.625,-4.70220936740119,4.8832630806792,0.72013672709516,0.052676554965513,0.0280168467313679,-0.691326374900812,-1.1,0.36,9.73
4.0395032,180,180,3.5868,0,0,87.625,-4.9816822193693,4.88772682493813,0.720014649331624,0.054812915827382,0.027223341268388,-0.691326374900812,-1.13,0.42,9.73
4.0553729,180,180,3.2732,0,0,87.625,-5.12141864535336,4.88995869706759,0.720014649331624,0.0558505768174327,0.0268571079777818,-0.691326374900812,-1.14,0.44,9.72
4.1522681,180,180,2.9302,0,0,87.625,-6.29565099804532,4.88075913775828,0.71958737715925,0.0656778367820302,0.023133736189953,-0.691021180491973,-1.21,0.61,9.71
4.1702985,180,180,2.9302,0,0,87.625,-6.54806931366841,4.82888193719769,0.719526338277483,0.0675090032350607,0.0224623084905085,-0.690899102728438,-1.23,0.64,9.7
4.1852208,180,180,2.9302,0,0,87.625,-6.63146479483295,4.85816834567218,0.719404260513947,0.0692180919245559,0.0218519196728316,-0.69083806384667,-1.24,0.68,9.7
4.2007462,180,180,2.9302,0,0,87.625,-6.82754216563653,4.83334568145662,0.719404260513947,0.0700726362693035,0.0215467252639932,-0.69083806384667,-1.25,0.69,9.7
4.3003485,180,180,2.597,0,0,87.625,-7.63890618519584,4.79039596941388,0.719160104986877,0.0765427577366783,0.0192882866385888,-0.690471830556064,-1.3,0.81,9.68
4.3204262,180,180,2.2834,0,0,87.625,-7.72230166636038,4.81968237788837,0.719099066105109,0.0775193798449612,0.0189830922297504,-0.690410791674297,-1.31,0.83,9.68
4.33719,180,180,2.2834,0,0,87.625,-7.86203809234444,4.82191425001783,0.719099066105109,0.0781908075444058,0.0187389367026796,-0.690349752792529,-1.32,0.84,9.67
4.4343431,180,180,2.0188,0,0,87.625,-8.00177451832849,4.8241461221473,0.719160104986877,0.079899896233901,0.0185558200573765,-0.690105597265458,-1.34,0.87,9.67
4.4521966,180,180,2.0188,0,0,87.625,-8.00177451832849,4.8241461221473,0.719221143868644,0.0797167795885979,0.0186168589391442,-0.69004455838369,-1.34,0.87,9.67
4.4693267,180,180,2.0188,0,0,87.625,-8.00177451832849,4.8241461221473,0.719221143868644,0.0795947018250626,0.0187389367026796,-0.69004455838369,-1.34,0.86,9.67
4.5681179,180,180,1.8424,0,0,87.5625,-7.55327883190184,4.90084598692345,0.71958737715925,0.0763596410913752,0.0203259476286394,-0.689983519501923,-1.31,0.8,9.68
4.5877721,180,180,1.8424,0,0,87.5625,-7.4405969422628,4.9549550596135,0.719709454922786,0.0752609412195569,0.0208142586827809,-0.689983519501923,-1.31,0.78,9.68
4.6099086,180,180,1.7444,0,0,87.5625,-7.30086051627875,4.95272318748404,0.719831532686321,0.0741012024659708,0.0213025697369224,-0.689983519501923,-1.3,0.75,9.69
4.7312274,180,180,1.7542,0,0,87.5,-6.21002364475132,4.99120915526784,0.720563999267533,0.0644570591466764,0.0253311359335897,-0.689983519501923,-1.23,0.56,9.71
4.7506478,180,180,1.7542,0,0,87.5,-5.95760532912823,5.04308635582843,0.720625038149301,0.0636025148019288,0.0256973692241958,-0.689983519501923,-1.21,0.53,9.71
4.7724623,180,180,1.7542,0,0,87.5,-5.76152795832466,5.06790902004399,0.720808154794604,0.0609778428859183,0.0267350302142465,-0.689983519501923,-1.2,0.5,9.71
4.8713992,180,180,1.862,0,0,87.4375,-4.61435014197772,5.13344952417282,0.721418543612281,0.051516816211927,0.0305804797656107,-0.69004455838369,-1.12,0.31,9.73
4.8892505,180,180,2.058,0,0,87.4375,-4.36193182635463,5.18532672473341,0.721418543612281,0.0504791552218763,0.0310077519379845,-0.69004455838369,-1.11,0.27,9.73
4.904346,180,180,2.058,0,0,87.4375,-4.08245897438652,5.18086298047449,0.721540621375816,0.048403833241775,0.0318012574009644,-0.69004455838369,-1.1,0.25,9.74
4.920535,180,180,2.058,0,0,87.375,-3.99906349322198,5.151576572,0.721601660257584,0.0473661722517243,0.0322285295733382,-0.69004455838369,-1.08,0.21,9.74
5.0391586,180,180,2.3226,0,0,87.375,-2.45973093526789,5.26676240455995,0.722089971311726,0.0343038515534395,0.0374168345235915,-0.69004455838369,-0.98,-0.04,9.75
5.0585673,180,180,2.3226,0,0,87.375,-2.18025808329978,5.26229866030103,0.722151010193493,0.0321064518098028,0.0382713788683391,-0.69004455838369,-0.97,-0.06,9.75
5.08533,180,180,2.6362,0,0,87.375,-1.78810334169263,5.31194398873215,0.722212049075261,0.0289324299578832,0.0394921565036929,-0.69004455838369,-0.95,-0.12,9.75
5.1874409,180,180,2.9596,0,0,87.375,-0.613870989000666,5.32114354804147,0.722334126838796,0.0193493255203565,0.0430934505279863,-0.69004455838369,-0.87,-0.3,9.76
5.2066037,180,180,2.9596,0,0,87.375,-0.417793618197094,5.34596621225703,0.722334126838796,0.0177012757126289,0.0436428004638955,-0.69004455838369,-0.85,-0.33,9.76
5.2212684,180,180,2.9596,0,0,87.375,-0.278057192213038,5.34373434012757,0.722334126838796,0.016907770249649,0.0438869559909662,-0.69004455838369,-0.85,-0.35,9.76
5.3171388,180,180,3.283,0,0,87.375,0.533306827346276,5.3866840521703,0.722273087957029,0.0100103766099005,0.0465726667887444,-0.69004455838369,-0.79,-0.48,9.76
5.3364218,180,180,3.283,0,0,87.375,0.589647772165792,5.41373858851533,0.722273087957029,0.00952206555575902,0.0467557834340475,-0.69004455838369,-0.79,-0.49,9.76
5.3544682,180,180,3.577,0,0,87.375,0.729384198149848,5.41150671638586,0.722273087957029,0.00824024903863761,0.0473661722517243,-0.69004455838369,-0.78,-0.52,9.76
5.4753487,180,180,3.8122,0,0,87.375,1.12153893975699,5.46115204481699,0.722089971311726,0.00537142159555637,0.0485259110053104,-0.690166636147226,-0.75,-0.58,9.75
5.4932885,180,180,3.8122,0,0,87.375,1.12153893975699,5.46115204481699,0.722089971311726,0.00537142159555637,0.0485259110053104,-0.690166636147226,-0.76,-0.58,9.75
5.5091656,180,180,3.8122,0,0,87.375,1.12153893975699,5.46115204481699,0.722028932429958,0.00537142159555637,0.0485869498870781,-0.690227675028994,-0.76,-0.58,9.75
5.61617,180,180,3.9788,0,0,87.4375,0.842066087788879,5.46561578907591,0.721845815784655,0.00817921015686993,0.0479155221876335,-0.690471830556064,-0.78,-0.53,9.76
5.634168,180,180,4.0768,0,0,87.4375,0.702329661804822,5.46784766120538,0.721784776902887,0.00903375450161753,0.0476713666605628,-0.690471830556064,-0.79,-0.52,9.76
5.6491819,180,180,4.0768,0,0,87.4375,0.61893418064028,5.49713406967987,0.721784776902887,0.00946102667399133,0.0475492888970274,-0.690532869437832,-0.8,-0.51,9.76
5.6641624,180,180,4.0768,0,0,87.4375,0.562593235820765,5.47007953333484,0.721723738021119,0.010498687664042,0.0473051333699567,-0.6905939083196,-0.81,-0.49,9.76
5.7602914,180,180,4.0866,0,0,87.5,-0.136088894099518,5.48123889398216,0.721479582494049,0.0161753036684368,0.0455960446804615,-0.69083806384667,-0.87,-0.37,9.76
5.7795069,180,180,4.0866,0,0,87.5,-0.359220801248116,5.51275717458611,0.721418543612281,0.0176402368308613,0.04510773362632,-0.69083806384667,-0.87,-0.36,9.76
5.7994751,180,180,4.0866,0,0,87.5,-0.498957227232172,5.51498904671558,0.721418543612281,0.0191051699932857,0.0446804614539462,-0.690899102728438,-0.89,-0.33,9.76
5.9161754,180,180,3.871,0,0,87.5625,-1.72953052474366,5.47873495106123,0.720991271439907,0.0292986632484893,0.0409570896661173,-0.691204297137276,-0.97,-0.14,9.75
5.9341663,180,180,3.871,0,0,87.5625,-1.98194884036674,5.42685775050065,0.720930232558139,0.0311298297015199,0.0402856619666728,-0.691204297137276,-0.99,-0.1,9.75
5.9491593,180,180,3.871,0,0,87.5625,-2.06534432153128,5.45614415897513,0.720869193676372,0.0321064518098028,0.0399194286760667,-0.691265336019044,-1,-0.06,9.75
5.966355,180,180,3.871,0,0,87.5625,-2.3448171734994,5.46060790323406,0.720808154794604,0.0339986571446011,0.0391869620948544,-0.691265336019044,-1.01,-0.05,9.75
6.0672726,180,180,3.6554,0,0,87.625,-3.43565404502682,5.42212193545026,0.720502960385766,0.0437648782274309,0.0354635903070256,-0.691265336019044,-1.09,0.13,9.74
6.0852126,180,180,3.6554,0,0,87.625,-3.71512689699494,5.42658567970918,0.72038088262223,0.0458402002075322,0.0346700848440457,-0.691265336019044,-1.11,0.17,9.74
6.1046446,180,180,3.4006,0,0,87.625,-3.96754521261802,5.37470847914859,0.720319843740463,0.0478544833058658,0.0338765793810657,-0.691265336019044,-1.12,0.21,9.73
6.2213762,180,180,3.0968,0,0,87.625,-5.45053682575259,5.28657718293366,0.719831532686321,0.0597570652505646,0.0291765854849539,-0.691082219373741,-1.22,0.44,9.71
6.2404438,180,180,3.0968,0,0,87.625,-5.64661419655617,5.2617545187181,0.719709454922786,0.0615882317035952,0.0284441189037417,-0.691021180491973,-1.23,0.48,9.71
6.2573795,180,180,3.0968,0,0,87.625,-5.78635062254022,5.26398639084757,0.719709454922786,0.0625038149301105,0.0280778856131356,-0.691021180491973,-1.24,0.51,9.71
6.358208,180,180,2.7832,0,0,87.625,-6.71039653173857,5.16692760611478,0.71934322163218,0.0707440639687481,0.0243545138253067,-0.690715986083135,-1.3,0.66,9.69
6.376211,180,180,2.4794,0,0,87.625,-6.90647390254214,5.14210494189922,0.719282182750412,0.071354452786425,0.0240493194164683,-0.690715986083135,-1.3,0.69,9.69
6.3912224,180,180,2.4794,0,0,87.625,-7.0462103285262,5.14433681402868,0.719221143868644,0.0724531526582433,0.0234999694805591,-0.690654947201367,-1.31,0.7,9.69
6.4061949,180,180,2.4794,0,0,87.625,-7.10255127334571,5.11728227768366,0.719221143868644,0.0729414637123848,0.0232558139534884,-0.690654947201367,-1.31,0.72,9.69
6.5064189,180,180,2.2148,0,0,87.625,-7.46765147860783,5.01129600443301,0.719160104986877,0.0760544466825368,0.0211194530916194,-0.690410791674297,-1.32,0.78,9.68
6.524587,180,180,2.2148,0,0,87.625,-7.52399242342735,4.98424146808799,0.719160104986877,0.0761154855643045,0.020997375328084,-0.690410791674297,-1.32,0.78,9.68
6.5436233,180,180,2.2148,0,0,87.625,-7.52399242342735,4.98424146808799,0.719221143868644,0.0761154855643045,0.0208142586827809,-0.690410791674297,-1.32,0.79,9.68
6.643214,180,180,1.9992,0,0,87.625,-7.33014692475324,4.86932770631949,0.719404260513947,0.0742232802295062,0.0205701031557102,-0.690349752792529,-1.29,0.76,9.69
6.6644496,180,180,1.862,0,0,87.625,-7.30309238840821,4.81298676149998,0.719465299395715,0.0738570469389001,0.0205701031557102,-0.690349752792529,-1.28,0.74,9.69
6.6806289,180,180,1.862,0,0,87.625,-7.10701501760464,4.83780942571554,0.71958737715925,0.072514191540011,0.0208142586827809,-0.690410791674297,-1.27,0.74,9.69
6.8092887,180,180,1.8032,0,0,87.5625,-6.24154192535527,4.76807724811925,0.72013672709516,0.0649453702008179,0.0224012696087408,-0.690532869437832,-1.19,0.61,9.71
6.8286121,180,180,1.8032,0,0,87.5625,-6.07475096302619,4.70950443117027,0.720258804858695,0.0634193981566258,0.0227675028993469,-0.690532869437832,-1.18,0.58,9.71
6.8455517,180,180,1.8424,0,0,87.5625,-5.87867359222262,4.73432709538583,0.72038088262223,0.0618323872306659,0.0231947750717207,-0.690532869437832,-1.15,0.54,9.72
6.9502852,180,180,1.9698,0,0,87.5,-4.8734640739892,4.66236304566007,0.720930232558139,0.0524323994384423,0.0256973692241958,-0.6905939083196,-1.07,0.39,9.73
6.9693769,180,180,1.9698,0,0,87.5,-4.6503321668406,4.63084476505611,0.720991271439907,0.0515778550936947,0.0260025636330342,-0.6905939083196,-1.06,0.37,9.74
6.9864021,180,180,1.9698,0,0,87.5,-4.53765027720157,4.68495383774617,0.72117438808521,0.0488311054141488,0.0267960690960142,-0.690654947201367,-1.03,0.32,9.74
7.0852705,180,180,2.1756,0,0,87.4375,-3.39270433298409,4.61075791589094,0.721601660257584,0.0389428065677837,0.0297259354208631,-0.690654947201367,-0.94,0.14,9.75
7.1065759,180,180,2.1756,0,0,87.4375,-3.02983599985144,4.57700776315753,0.721601660257584,0.0379661844595007,0.0300311298297015,-0.690654947201367,-0.93,0.13,9.76
7.1305609,180,180,2.4402,0,0,87.4375,-2.77741768422835,4.62888496371811,0.721723738021119,0.0360129402429347,0.0306415186473784,-0.690654947201367,-0.92,0.09,9.76
7.2383685,180,180,2.744,0,0,87.4375,-1.54907625884633,4.5254026333884,0.72196789354819,0.025086980406519,0.0340596960263688,-0.690715986083135,-0.81,-0.12,9.77
7.2566369,180,180,2.744,0,0,87.4375,-1.29665794322324,4.57727983394899,0.722028932429958,0.0232558139534884,0.0346700848440457,-0.690715986083135,-0.8,-0.14,9.77
7.2724718,180,180,2.744,0,0,87.4375,-1.10058057241967,4.60210249816455,0.722028932429958,0.0214856863822255,0.0352804736617225,-0.690715986083135,-0.79,-0.17,9.77
7.2872457,180,180,2.744,0,0,87.4375,-1.01718509125513,4.57281608969006,0.722028932429958,0.0206311420374779,0.0355856680705609,-0.690715986083135,-0.77,-0.2,9.77
7.3855334,180,180,3.0478,0,0,87.4375,-0.122425590531273,4.58647939325831,0.722089971311726,0.0133675151071232,0.0380272233412684,-0.690715986083135,-0.71,-0.33,9.77
7.4034308,180,180,3.332,0,0,87.4375,0.0173108354527833,4.58424752112884,0.722028932429958,0.0122077763535372,0.0384544955136422,-0.690715986083135,-0.7,-0.34,9.77
7.4193883,180,180,3.332,0,0,87.4375,0.100706316617325,4.55496111265435,0.722028932429958,0.0111701153634865,0.038881767686016,-0.690777024964903,-0.7,-0.36,9.77
7.4376685,180,180,3.332,0,0,87.4375,0.213388206256355,4.6090701853444,0.722028932429958,0.0106818043093451,0.0391259232130867,-0.690777024964903,-0.69,-0.38,9.77
7.5433031,180,180,3.5868,0,0,87.4375,0.68893842902804,4.62942910530104,0.721906854666422,0.00708051028505158,0.0407129341390466,-0.69083806384667,-0.67,-0.45,9.77
7.5623269,180,180,3.5868,0,0,87.4375,0.68893842902804,4.62942910530104,0.721906854666422,0.00689739363974852,0.0408960507843496,-0.69083806384667,-0.67,-0.45,9.77
7.5783187,180,180,3.5868,0,0,87.4375,0.745279373847556,4.65648364164606,0.721906854666422,0.00677531587621315,0.0410791674296527,-0.69083806384667,-0.67,-0.46,9.77
7.6833979,180,180,3.92,0,0,87.5,0.607774819992963,4.79845193975959,0.721723738021119,0.00805713239333455,0.0415674784837942,-0.690960141610206,-0.69,-0.44,9.77
7.702392,180,180,3.92,0,0,87.5,0.524379338828421,4.82773834823407,0.721662699139352,0.00866752121101141,0.0415674784837942,-0.691021180491973,-0.7,-0.44,9.77
7.7183389,180,180,3.92,0,0,87.5,0.468038394008906,4.80068381188905,0.721662699139352,0.00939998779222365,0.0415674784837942,-0.691021180491973,-0.71,-0.43,9.77
7.81532,180,180,3.9788,0,0,87.5,-0.0886754377978567,4.94934772639096,0.721418543612281,0.0144662149789416,0.041018128547885,-0.691204297137276,-0.77,-0.35,9.76
7.8343458,180,180,3.9788,0,0,87.5,-0.228411863781913,4.95157959852042,0.721357504730513,0.0158090703778307,0.0408350119025819,-0.691265336019044,-0.79,-0.33,9.76
7.8546137,180,180,3.9788,0,0,87.5,-0.36814828976597,4.95381147064989,0.721357504730513,0.0164804980772752,0.0407739730208143,-0.691265336019044,-0.8,-0.3,9.76
7.9764731,180,180,3.871,0,0,87.5625,-1.54014877032847,5.08434833732463,0.720930232558139,0.0264908746871757,0.0386376121589452,-0.691509491546115,-0.9,-0.14,9.76
7.9957354,180,180,3.871,0,0,87.5625,-1.62354425149302,5.11363474579912,0.720869193676372,0.0281999633766709,0.0382103399865714,-0.691509491546115,-0.92,-0.11,9.76
8.0255563,180,180,3.871,0,0,87.5625,-1.84667615864161,5.14515302640307,0.720747115912836,0.0308246352926814,0.0375999511688946,-0.691570530427883,-0.94,-0.07,9.76
8.1395171,180,180,3.7044,0,0,87.625,-3.15841306518817,5.27792176520727,0.720319843740463,0.0409570896661173,0.0352804736617225,-0.691570530427883,-1.05,0.09,9.74
8.1584878,180,180,3.4888,0,0,87.625,-3.24180854635272,5.30720817368176,0.720319843740463,0.0418726728926326,0.0350973570164195,-0.691570530427883,-1.06,0.11,9.74
8.174379,180,180,3.4888,0,0,87.625,-3.52128139832083,5.31167191794069,0.720197765976927,0.0438259171091986,0.034609045962278,-0.691570530427883,-1.09,0.16,9.74
8.2733314,180,180,3.2242,0,0,87.6875,-4.60988639771879,5.41292237614094,0.719770493804553,0.0534700604284929,0.0323506073368736,-0.691509491546115,-1.18,0.31,9.73
8.2935351,180,180,3.2242,0,0,87.6875,-4.83301830486739,5.44444065674489,0.719648416041018,0.0553622657632912,0.0318012574009644,-0.691448452664347,-1.2,0.36,9.72
8.3168081,180,180,3.2242,0,0,87.6875,-5.1124911568355,5.44890440100382,0.71958737715925,0.0571934322163218,0.0313739852285906,-0.69138741378258,-1.21,0.38,9.72
8.4273825,180,180,2.6558,0,0,87.6875,-6.17404161988844,5.49381391438455,0.719160104986877,0.066288225599707,0.0289934688396509,-0.691143258255509,-1.3,0.54,9.7
8.4452892,180,180,2.6558,0,0,87.6875,-6.3137780458725,5.49604578651402,0.719099066105109,0.0676921198803638,0.0286272355490447,-0.691082219373741,-1.32,0.57,9.69
8.46027,180,180,2.6558,0,0,87.6875,-6.48056900820158,5.554618603463,0.719038027223341,0.0689739363974852,0.0283220411402063,-0.691021180491973,-1.33,0.58,9.69
8.476418,180,180,2.6558,0,0,87.6875,-6.53690995302109,5.52756406711797,0.719038027223341,0.0695232863333944,0.0281389244949033,-0.691021180491973,-1.33,0.59,9.69
8.5964569,180,180,2.3814,0,0,87.6875,-7.12291019330235,5.59283250045534,0.718854910578038,0.07465055240188,0.0267350302142465,-0.690715986083135,-1.38,0.69,9.68
8.6173214,180,180,2.1462,0,0,87.6875,-7.17925113812186,5.56577796411031,0.718854910578038,0.0748336690471831,0.0266739913324788,-0.690654947201367,-1.38,0.69,9.68
8.6346514,180,180,2.1462,0,0,87.6875,-7.17925113812186,5.56577796411031,0.718915949459806,0.0750167856924861,0.0266129524507111,-0.690654947201367,-1.39,0.69,9.68
8.7354441,180,180,1.9796,0,0,87.625,-7.0688011206123,5.48015061081631,0.719099066105109,0.0737349691753647,0.0266739913324788,-0.690532869437832,-1.37,0.67,9.68
8.7533585,180,180,1.9796,0,0,87.625,-7.01246017579278,5.50720514716133,0.719160104986877,0.0730635414759202,0.0267960690960142,-0.690532869437832,-1.36,0.66,9.68
8.7693773,180,180,1.9796,0,0,87.625,-6.92906469462824,5.47791873868685,0.719221143868644,0.072697308185314,0.0268571079777818,-0.690532869437832,-1.36,0.66,9.68
8.7843407,180,180,1.9796,0,0,87.625,-6.87272374980872,5.50497327503187,0.719282182750412,0.0719038027223341,0.0270402246230849,-0.6905939083196,-1.35,0.64,9.69
8.898412,180,180,1.8816,0,0,87.625,-6.11993254719839,5.38113202474552,0.719770493804553,0.0655557590184948,0.0283220411402063,-0.690654947201367,-1.28,0.54,9.7
8.9174553,180,180,1.8816,0,0,87.625,-5.92385517639482,5.40595468896108,0.719831532686321,0.064151864737838,0.0285661966672771,-0.690654947201367,-1.27,0.51,9.7
8.9363339,180,180,1.8816,0,0,87.5625,-5.84045969523028,5.3766682804866,0.719953610449857,0.0626869315754135,0.0288713910761155,-0.690654947201367,-1.25,0.49,9.71
9.035513,180,180,1.9502,0,0,87.5625,-4.89159112181637,5.27764969441581,0.720502960385766,0.0548739547091497,0.0305804797656107,-0.690715986083135,-1.17,0.36,9.72
9.0565572,180,180,1.9502,0,0,87.5625,-4.66845921466777,5.24613141381186,0.720563999267533,0.0531648660196545,0.0309467130562168,-0.690715986083135,-1.15,0.33,9.73
9.0727461,180,180,1.9502,0,0,87.5625,-4.44532730751917,5.2146131332079,0.720686077031069,0.0514557773301593,0.0312519074650552,-0.690715986083135,-1.13,0.3,9.73
9.1783136,180,180,2.3226,0,0,87.5,-3.41306325294073,5.08630813866263,0.721113349203443,0.0424220228285418,0.0332661905633889,-0.690777024964903,-1.04,0.14,9.74
9.1963093,180,180,2.3226,0,0,87.5,-3.21698588213715,5.11113080287819,0.721235426966978,0.0405298174937435,0.0336934627357627,-0.690777024964903,-1.02,0.11,9.75
9.2113085,180,180,2.3226,0,0,87.5,-3.0772494561531,5.10889893074873,0.721296465848746,0.0386376121589452,0.0340596960263688,-0.690777024964903,-1,0.08,9.75
9.2263535,180,180,2.3226,0,0,87.5,-2.8541175490045,5.07738065014477,0.721296465848746,0.03772202893243,0.0342428126716719,-0.69083806384667,-0.99,0.06,9.75
9.3255921,180,180,2.5872,0,0,87.5,-1.79479895808103,4.89273471077998,0.721601660257584,0.0283220411402063,0.0362570957700055,-0.690899102728438,-0.89,-0.09,9.76
9.3446528,180,180,2.5872,0,0,87.5,-1.59872158727745,4.91755737499554,0.721662699139352,0.0265519135689434,0.0365622901788439,-0.690899102728438,-0.87,-0.11,9.76
9.3676541,180,180,2.8714,0,0,87.5,-1.51532610611291,4.88827096652105,0.721662699139352,0.0248428248794482,0.03692852346945,-0.690899102728438,-0.85,-0.14,9.76
9.4654287,180,180,3.1458,0,0,87.5,-0.622798477518521,4.76219784410524,0.721723738021119,0.0179454312396997,0.0382103399865714,-0.690960141610206,-0.78,-0.26,9.77
9.4837371,180,180,3.1458,0,0,87.5,-0.399666570369923,4.73067956350129,0.721784776902887,0.0160532259049014,0.0385155343954099,-0.690960141610206,-0.76,-0.29,9.77
9.5006857,180,180,3.1458,0,0,87.5,-0.316271089205382,4.7013931550268,0.721784776902887,0.0154428370872246,0.0385765732771776,-0.690960141610206,-0.75,-0.3,9.77
9.6054303,180,180,3.4006,0,0,87.5,0.15704726143684,4.58201564899938,0.721723738021119,0.0111090764817189,0.0391259232130867,-0.691082219373741,-0.7,-0.37,9.77
9.6245521,180,180,3.4006,0,0,87.5,0.269729151075871,4.63612472168943,0.721723738021119,0.0103766099005066,0.0392480009766221,-0.691082219373741,-0.69,-0.38,9.77
9.6447166,180,180,3.6162,0,0,87.5,0.296783687420897,4.57978377686991,0.721662699139352,0.0100103766099005,0.0393090398583898,-0.691143258255509,-0.69,-0.39,9.77
9.7643972,180,180,3.773,0,0,87.5,0.323838223765923,4.5234428320504,0.721601660257584,0.0100103766099005,0.0385765732771776,-0.691265336019044,-0.68,-0.38,9.77
9.7824107,180,180,3.773,0,0,87.5,0.240442742601381,4.55272924052489,0.721540621375816,0.0103766099005066,0.0383934566318745,-0.691326374900812,-0.68,-0.37,9.77
9.7983605,180,180,3.773,0,0,87.5,0.184101797781866,4.52567470417986,0.721540621375816,0.0106207654275774,0.0383324177501068,-0.691326374900812,-0.68,-0.36,9.77
9.8966832,180,180,3.871,0,0,87.5625,-0.291448424989819,4.50531578422323,0.721357504730513,0.0144662149789416,0.0370506012329854,-0.691509491546115,-0.72,-0.29,9.77
9.9185472,180,180,3.871,0,0,87.5625,-0.37484390615436,4.53460219269772,0.721357504730513,0.0155649148507599,0.0366843679423793,-0.691509491546115,-0.72,-0.27,9.77
9.937855,180,180,3.8906,0,0,87.5625,-0.570921276957932,4.50977952848215,0.721296465848746,0.016724653604346,0.0363181346517732,-0.691570530427883,-0.74,-0.25,9.77
10.0534569,180,180,3.8416,0,0,87.625,-1.54907625884633,4.5254026333884,0.720991271439907,0.0249649026429836,0.0338155404992981,-0.691753647073186,-0.81,-0.1,9.77
10.0726265,180,180,3.8416,0,0,87.625,-1.63247174001087,4.55468904186289,0.720930232558139,0.0256973692241958,0.0335713849722273,-0.691753647073186,-0.83,-0.07,9.77
10.096834,180,180,3.8416,0,0,87.625,-1.91194459197898,4.55915278612182,0.720869193676372,0.0280168467313679,0.0329609961545504,-0.691814685954953,-0.84,-0.05,9.76
10.2146777,180,180,3.5378,0,0,87.625,-3.00054959137695,4.66040324432207,0.720441921503998,0.0378441066959653,0.0303363242385399,-0.691875724836721,-0.94,0.12,9.76
10.2437156,180,180,3.5378,0,0,87.6875,-3.28002244334506,4.66486698858099,0.720319843740463,0.0403467008484405,0.0296648965390954,-0.691875724836721,-0.96,0.16,9.75
10.2606243,180,180,3.5378,0,0,87.6875,-3.41975886932912,4.66709886071046,0.720258804858695,0.0421168284197034,0.0292376243667216,-0.691875724836721,-0.98,0.19,9.75
10.3635342,180,180,3.3124,0,0,87.6875,-4.50836386872708,4.76834931891071,0.719892571568089,0.0508453885124825,0.0271012635048526,-0.691814685954953,-1.07,0.35,9.74
10.3834266,180,180,3.3124,0,0,87.6875,-4.73149577587568,4.79986759951466,0.719831532686321,0.05249343832021,0.0267350302142465,-0.691753647073186,-1.08,0.37,9.73
10.3984104,180,180,3.0576,0,0,87.6875,-4.92757314667925,4.7750449352991,0.719709454922786,0.0542025270097052,0.0263077580418727,-0.691692608191418,-1.1,0.4,9.73
10.4983967,180,180,2.793,0,0,87.6875,-5.7367052941091,4.87183164924042,0.719404260513947,0.0619544649942013,0.0247207471159128,-0.691448452664347,-1.18,0.53,9.71
10.5536103,180,180,2.793,0,0,87.6875,-5.82010077527364,4.90111805771491,0.71934322163218,0.0632362815113227,0.0244765915888421,-0.69138741378258,-1.2,0.56,9.71
10.652751,180,180,2.5284,0,0,87.6875,-6.71262840386803,5.02719118013072,0.719160104986877,0.0695843252151621,0.0238051638893975,-0.691021180491973,-1.27,0.65,9.7
10.6736041,180,180,2.2932,0,0,87.6875,-6.79602388503257,5.05647758860521,0.719099066105109,0.0702557529146066,0.0238051638893975,-0.691021180491973,-1.28,0.66,9.69
10.6884589,180,180,2.2932,0,0,87.6875,-6.8230784213776,5.11281853342473,0.719099066105109,0.0706219862052127,0.0238051638893975,-0.690960141610206,-1.29,0.67,9.69
10.7874958,180,180,2.107,0,0,87.6875,-6.85013295772263,5.16915947824424,0.719221143868644,0.0711102972593542,0.0245986693523775,-0.690777024964903,-1.31,0.66,9.69
10.8078223,180,180,2.107,0,0,87.625,-6.79379201290311,5.19621401458927,0.719282182750412,0.0708661417322835,0.0248428248794482,-0.690777024964903,-1.31,0.66,9.69
10.8257316,180,180,2.107,0,0,87.625,-6.79379201290311,5.19621401458927,0.719282182750412,0.0707440639687481,0.0249649026429836,-0.690777024964903,-1.3,0.65,9.69
10.923672,180,180,1.9894,0,0,87.625,-6.37235086282148,5.32925482418494,0.71958737715925,0.0675090032350607,0.0267350302142465,-0.690654947201367,-1.29,0.59,9.7
10.9434725,180,180,1.9894,0,0,87.625,-6.23261443683742,5.32702295205547,0.719709454922786,0.066105108954404,0.0273454190319233,-0.690654947201367,-1.28,0.56,9.7
10.9618422,180,180,1.9404,0,0,87.625,-6.14921895567288,5.29773654358098,0.719770493804553,0.0656167979002625,0.0275895745589941,-0.690654947201367,-1.27,0.55,9.7
11.0625409,180,180,1.9698,0,0,87.5625,-5.36490947245859,5.39702720044323,0.720258804858695,0.0588414820240493,0.0302142464750046,-0.690654947201367,-1.22,0.42,9.72
11.0828368,180,180,1.9698,0,0,87.5625,-5.14177756530999,5.36550891983928,0.720319843740463,0.0574375877433925,0.0307025575291461,-0.690654947201367,-1.21,0.39,9.72
11.1018612,180,180,1.9698,0,0,87.5625,-5.08543662049048,5.3925634561843,0.720441921503998,0.0560336934627358,0.0312519074650552,-0.690654947201367,-1.19,0.36,9.72
11.1996021,180,180,2.0776,0,0,87.5,-4.13433617494711,5.43328129609757,0.720869193676372,0.049380455350058,0.033632423853995,-0.6905939083196,-1.13,0.22,9.73
11.2177722,180,180,2.0776,0,0,87.5,-3.96754521261802,5.37470847914859,0.720930232558139,0.0478544833058658,0.0341817737899042,-0.6905939083196,-1.13,0.21,9.73
11.2339115,180,180,2.254,0,0,87.5,-3.77146784181445,5.39953114336416,0.720991271439907,0.046267472379906,0.0347311237258133,-0.6905939083196,-1.11,0.18,9.74
11.3316311,180,180,2.4794,0,0,87.5,-2.76402645145157,5.46730351962245,0.721357504730513,0.0380882622230361,0.0375389122871269,-0.6905939083196,-1.04,0.03,9.75
11.3504461,180,180,2.4794,0,0,87.4375,-2.68063097028703,5.43801711114796,0.721418543612281,0.0363791735335409,0.0380882622230361,-0.6905939083196,-1.03,0,9.75
11.3677859,180,180,2.4794,0,0,87.4375,-2.51384000795794,5.37944429419898,0.721479582494049,0.0355856680705609,0.0383324177501068,-0.6905939083196,-1.01,-0.03,9.75
11.4674877,180,180,2.7342,0,0,87.4375,-1.56273956241457,5.42016213411225,0.721662699139352,0.0277116523225295,0.0408350119025819,-0.6905939083196,-0.94,-0.17,9.75
11.4868307,180,180,2.7342,0,0,87.4375,-1.39594860008549,5.36158931716328,0.721662699139352,0.026246719160105,0.0412012451931881,-0.6905939083196,-0.93,-0.19,9.76
11.5086374,180,180,2.9988,0,0,87.4375,-1.25621217410143,5.35935744503381,0.721723738021119,0.024110358298236,0.0418116340108649,-0.6905939083196,-0.91,-0.22,9.76
11.6086218,180,180,3.2536,0,0,87.4375,-0.530475507836125,5.29185713956698,0.721723738021119,0.0184947811756089,0.0430934505279863,-0.690654947201367,-0.86,-0.32,9.76
11.6277549,180,180,3.2536,0,0,87.4375,-0.47413456301661,5.31891167591201,0.721723738021119,0.0175791979490936,0.0432765671732894,-0.690654947201367,-0.85,-0.33,9.76
11.6485446,180,180,3.2536,0,0,87.4375,-0.334398137032553,5.31667980378254,0.721723738021119,0.016724653604346,0.0434596838185924,-0.690715986083135,-0.84,-0.35,9.76
11.7797576,180,180,3.479,0,0,87.5,-0.000816212374388225,5.19953416988458,0.721601660257584,0.0140999816883355,0.0437648782274309,-0.69083806384667,-0.81,-0.39,9.76
11.7985429,180,180,3.6456,0,0,87.5,-0.000816212374388225,5.19953416988458,0.721601660257584,0.0139779039248001,0.0436428004638955,-0.69083806384667,-0.8,-0.39,9.76
11.8176523,180,180,3.6456,0,0,87.5,-0.000816212374388225,5.19953416988458,0.721601660257584,0.0140389428065678,0.0435207227003601,-0.690899102728438,-0.8,-0.39,9.76
11.9166434,180,180,3.7632,0,0,87.5,-0.253234527997476,5.147656969324,0.721479582494049,0.015748031496063,0.0422999450650064,-0.691082219373741,-0.81,-0.35,9.76
11.9345656,180,180,3.7632,0,0,87.5,-0.253234527997476,5.147656969324,0.721418543612281,0.0164194591955075,0.041994750656168,-0.691082219373741,-0.81,-0.33,9.76
11.9516469,180,180,3.7632,0,0,87.5,-0.365916417636506,5.09354789663394,0.721418543612281,0.016724653604346,0.0418726728926326,-0.691143258255509,-0.81,-0.33,9.76
12.0578854,180,180,3.822,0,0,87.5625,-1.03754401121176,5.04836631246175,0.72117438808521,0.021973997436367,0.0393700787401575,-0.691326374900812,-0.85,-0.22,9.76
12.0778819,180,180,3.8024,0,0,87.5625,-1.15022590085079,4.99425723977169,0.72117438808521,0.023133736189953,0.038881767686016,-0.69138741378258,-0.86,-0.19,9.76
12.096905,180,180,3.8024,0,0,87.5625,-1.23362138201534,5.02354364824618,0.721113349203443,0.0237441250076299,0.0385765732771776,-0.69138741378258,-0.86,-0.18,9.76
12.1956428,180,180,3.7142,0,0,87.5625,-2.01793086522962,4.92425299138393,0.720869193676372,0.0303363242385399,0.0357077458340963,-0.691570530427883,-0.91,-0.05,9.76
12.2169174,180,180,3.7142,0,0,87.625,-2.21400823603319,4.89943032716837,0.720808154794604,0.0324116462186413,0.034792162607581,-0.69163156930965,-0.93,-0.01,9.76
12.2336032,180,180,3.7142,0,0,87.625,-2.35374466201725,4.90166219929784,0.720747115912836,0.0331441127998535,0.0344869681987426,-0.69163156930965,-0.94,0.01,9.76
12.3314909,180,180,3.577,0,0,87.625,-3.24850416274111,4.88799889572959,0.720441921503998,0.0404687786119758,0.0314350241103583,-0.691753647073186,-0.99,0.14,9.75
12.351836,180,180,3.381,0,0,87.625,-3.36118605238014,4.83388982303954,0.720319843740463,0.041994750656168,0.0308246352926814,-0.691753647073186,-1,0.17,9.75
12.3697697,180,180,3.381,0,0,87.625,-3.50092247836419,4.836121695169,0.720319843740463,0.0427272172373802,0.030519440883843,-0.691753647073186,-1.01,0.18,9.75
12.4756625,180,180,3.1556,0,0,87.6875,-4.45202292390756,4.79540385525573,0.719892571568089,0.0518830495025331,0.0269791857413172,-0.691692608191418,-1.08,0.36,9.73
12.4959655,180,180,3.1556,0,0,87.6875,-4.73149577587568,4.79986759951466,0.719892571568089,0.0525544772019777,0.0266739913324788,-0.691692608191418,-1.08,0.38,9.73
12.5126924,180,180,3.1556,0,0,87.6875,-4.92757314667925,4.7750449352991,0.719770493804553,0.0540194103644021,0.0261246413965696,-0.691692608191418,-1.1,0.4,9.73
12.6095079,180,180,2.9106,0,0,87.6875,-5.73893716623856,4.73209522325636,0.719526338277483,0.0606116095953122,0.0235610083623268,-0.691509491546115,-1.15,0.53,9.72
12.6319101,180,180,2.6656,0,0,87.6875,-5.87867359222262,4.73432709538583,0.719465299395715,0.0617103094671306,0.0231947750717207,-0.691448452664347,-1.16,0.55,9.72
12.6486799,180,180,2.6656,0,0,87.6875,-5.93501453704213,4.7072725590408,0.719465299395715,0.0627479704571812,0.0227675028993469,-0.691448452664347,-1.17,0.57,9.71
12.7467092,180,180,2.4304,0,0,87.6875,-6.41056475981382,4.68691363908417,0.71934322163218,0.0660440700726363,0.0214246475004578,-0.691265336019044,-1.19,0.64,9.71
12.7687121,180,180,2.4304,0,0,87.6875,-6.46690570463334,4.65985910273914,0.71934322163218,0.0665323811267778,0.0212415308551547,-0.691265336019044,-1.2,0.65,9.71
12.7865215,180,180,2.4304,0,0,87.6875,-6.55030118579788,4.68914551121363,0.71934322163218,0.0670206921809192,0.0211194530916194,-0.691204297137276,-1.2,0.66,9.7
12.8835696,180,180,2.2344,0,0,87.6875,-6.55030118579788,4.68914551121363,0.719404260513947,0.0675090032350607,0.0211194530916194,-0.691082219373741,-1.21,0.66,9.7
12.9059273,180,180,2.2344,0,0,87.6875,-6.55030118579788,4.68914551121363,0.719465299395715,0.06726484770799,0.0212415308551547,-0.691082219373741,-1.21,0.66,9.7
12.9216235,180,180,2.0874,0,0,87.6875,-6.49396024097836,4.71620004755866,0.719465299395715,0.0668986144173839,0.0213636086186901,-0.691021180491973,-1.2,0.65,9.71
13.0215069,180,180,2.0188,0,0,87.625,-6.07475096302619,4.70950443117027,0.719770493804553,0.0636635536836965,0.0227064640175792,-0.691021180491973,-1.18,0.59,9.71
13.0405575,180,180,2.0188,0,0,87.625,-5.96206907338716,4.76361350386032,0.719831532686321,0.0627479704571812,0.0230726973081853,-0.691021180491973,-1.17,0.57,9.71
13.0555101,180,180,2.0188,0,0,87.625,-5.87867359222262,4.73432709538583,0.719892571568089,0.0617713483488982,0.0234999694805591,-0.691021180491973,-1.16,0.55,9.72
13.1559239,180,180,2.009,0,0,87.5625,-5.15070505382785,4.80656321590305,0.720319843740463,0.0560336934627358,0.0258194469877312,-0.691021180491973,-1.12,0.44,9.73
13.174667,180,180,2.009,0,0,87.5625,-5.01096862784379,4.80433134377359,0.72038088262223,0.0547518769456144,0.0263077580418727,-0.690960141610206,-1.11,0.41,9.73
13.1926141,180,180,2.0776,0,0,87.5625,-4.92757314667925,4.7750449352991,0.720441921503998,0.0540804492461698,0.0265519135689434,-0.690960141610206,-1.1,0.39,9.73
13.2916252,180,180,2.2148,0,0,87.5625,-4.05986818230042,4.84504918368686,0.720869193676372,0.0466337056705121,0.0296038576573277,-0.690960141610206,-1.05,0.25,9.74
13.3195997,180,180,2.2148,0,0,87.5625,-3.80744986667733,4.89692638424745,0.720930232558139,0.0451687725080877,0.0301532075932369,-0.690960141610206,-1.03,0.21,9.74
13.3401742,180,180,2.2148,0,0,87.5,-3.61137249587376,4.92174904846301,0.721052310321675,0.0437648782274309,0.0307635964109138,-0.690899102728438,-1.02,0.2,9.75
13.4646929,180,180,2.401,0,0,87.5,-2.46419467952682,4.98728955259184,0.721418543612281,0.0343038515534395,0.034792162607581,-0.690899102728438,-0.95,0.01,9.75
13.4847397,180,180,2.6264,0,0,87.5,-2.32445825354276,4.98505768046238,0.721418543612281,0.0328389183910151,0.0354025514252579,-0.690899102728438,-0.94,-0.01,9.76
13.5121992,180,180,2.6264,0,0,87.5,-2.26811730872325,5.0121122168074,0.721479582494049,0.0314350241103583,0.0360129402429347,-0.690899102728438,-0.93,-0.05,9.76
13.6256499,180,180,2.8714,0,0,87.5,-1.20433497354085,5.10693912941072,0.721601660257584,0.0238051638893975,0.0393090398583898,-0.69083806384667,-0.87,-0.19,9.76
13.6445731,180,180,2.8714,0,0,87.5,-1.1209394923763,5.07765272093624,0.721601660257584,0.0227675028993469,0.0397973509125313,-0.69083806384667,-0.87,-0.21,9.76
13.6605199,180,180,3.1164,0,0,87.5,-1.06459854755679,5.10470725728126,0.721601660257584,0.0217298419092962,0.0402856619666728,-0.690899102728438,-0.86,-0.23,9.76
13.7585154,180,180,3.332,0,0,87.5,-0.476366435146073,5.17917524992795,0.721601660257584,0.0182506256485381,0.0419337117744003,-0.690899102728438,-0.84,-0.3,9.76
13.7788609,180,180,3.332,0,0,87.5,-0.420025490326558,5.20622978627297,0.721540621375816,0.0177012757126289,0.042177867301471,-0.690899102728438,-0.83,-0.32,9.76
13.80385,180,180,3.332,0,0,87.5,-0.392970953981532,5.14988884145346,0.721540621375816,0.0170298480131844,0.0424830617103095,-0.690960141610206,-0.83,-0.33,9.76
13.9108528,180,180,3.5182,0,0,87.5,-0.223948119522986,5.23105245048854,0.721418543612281,0.0164804980772752,0.043154489409754,-0.691021180491973,-0.83,-0.35,9.76
13.9289003,180,180,3.5182,0,0,87.5,-0.307343600687527,5.26033885896303,0.721418543612281,0.0166025758408106,0.043154489409754,-0.691082219373741,-0.83,-0.34,9.76
13.9459456,180,180,3.6554,0,0,87.5,-0.307343600687527,5.26033885896303,0.721418543612281,0.0166636147225783,0.043154489409754,-0.691082219373741,-0.83,-0.34,9.76
14.0476016,180,180,3.7338,0,0,87.5625,-0.613870989000666,5.32114354804147,0.721235426966978,0.0194714032838918,0.0427272172373802,-0.691204297137276,-0.86,-0.3,9.76
14.0687268,180,180,3.7338,0,0,87.5625,-0.670211933820182,5.29408901169644,0.72117438808521,0.019837636574498,0.0426661783556125,-0.691204297137276,-0.87,-0.29,9.76
14.0866298,180,180,3.7338,0,0,87.5625,-0.809948359804238,5.29632088382591,0.721113349203443,0.0211194530916194,0.0422999450650064,-0.691265336019044,-0.88,-0.27,9.76
14.1860965,180,180,3.7436,0,0,87.5625,-1.36889406374046,5.30524837234376,0.720869193676372,0.0263687969236404,0.0407129341390466,-0.691448452664347,-0.93,-0.17,9.76
14.2056047,180,180,3.7436,0,0,87.5625,-1.59202597088906,5.33676665294771,0.720808154794604,0.0275895745589941,0.0403467008484405,-0.691509491546115,-0.94,-0.15,9.75
14.2217424,180,180,3.6946,0,0,87.625,-1.73176239687312,5.33899852507718,0.720747115912836,0.0288103521943478,0.0399194286760667,-0.691509491546115,-0.95,-0.13,9.75
14.317634,180,180,3.5868,0,0,87.625,-2.4304445267934,5.35015788572449,0.720502960385766,0.0346700848440457,0.0378441066959653,-0.69163156930965,-1,-0.02,9.75
14.3398306,180,180,3.5868,0,0,87.625,-2.57018095277746,5.35238975785396,0.720441921503998,0.0360129402429347,0.0373557956418238,-0.691692608191418,-1.01,0,9.75
14.359808,180,180,3.5868,0,0,87.625,-2.70991737876151,5.35462162998342,0.72038088262223,0.0373557956418238,0.0368674845876824,-0.691692608191418,-1.02,0.02,9.75
14.4575842,180,180,3.4202,0,0,87.6875,-3.57762234314034,5.28461738159566,0.720014649331624,0.0443752670451077,0.0342428126716719,-0.691814685954953,-1.08,0.16,9.74
14.4768116,180,180,3.4202,0,0,87.6875,-3.7173587691244,5.28684925372513,0.719953610449857,0.0457791613257645,0.0337545016175304,-0.691814685954953,-1.09,0.18,9.74
14.5012658,180,180,3.2242,0,0,87.6875,-3.91343613992797,5.26202658950956,0.719831532686321,0.047244094488189,0.0332051516816212,-0.691814685954953,-1.1,0.21,9.74
14.6259355,180,180,2.9988,0,0,87.75,-5.0042730114554,5.22354062172576,0.719465299395715,0.0559116156992004,0.0297869743026308,-0.691753647073186,-1.17,0.38,9.72
14.6516711,180,180,2.9988,0,0,87.75,-5.20035038225897,5.19871795751019,0.71934322163218,0.0578038210339987,0.0289934688396509,-0.691692608191418,-1.19,0.42,9.72
14.7787066,180,180,2.5382,0,0,87.75,-5.92831892065374,5.12648183699297,0.719099066105109,0.0635414759201611,0.0263687969236404,-0.691570530427883,-1.23,0.54,9.71
14.8005808,180,180,2.5382,0,0,87.75,-6.0680553466378,5.12871370912244,0.719038027223341,0.0645791369102118,0.0258804858694989,-0.691570530427883,-1.24,0.55,9.71
14.8176859,180,180,2.5382,0,0,87.75,-6.12439629145732,5.10165917277741,0.719038027223341,0.0648843313190502,0.0256973692241958,-0.691509491546115,-1.24,0.57,9.71
14.9276399,180,180,2.3422,0,0,87.75,-6.32047366226089,5.07683650856185,0.719038027223341,0.0665323811267778,0.0246597082341452,-0.69138741378258,-1.24,0.6,9.7
14.9465687,180,180,2.3422,0,0,87.75,-6.34976007073538,4.99344102739731,0.719099066105109,0.0664713422450101,0.0244765915888421,-0.69138741378258,-1.24,0.6,9.7
14.9626858,180,180,2.1854,0,0,87.6875,-6.29341912591586,5.02049556374233,0.719099066105109,0.066288225599707,0.0244155527070744,-0.69138741378258,-1.24,0.6,9.7
15.0757105,180,180,2.0874,0,0,87.6875,-6.04323268242224,4.93263633831886,0.71934322163218,0.0637856314472319,0.0244765915888421,-0.69138741378258,-1.21,0.56,9.71
15.0937445,180,180,2.0874,0,0,87.6875,-5.98689173760272,4.95969087466389,0.71934322163218,0.0634193981566258,0.0245376304706098,-0.69138741378258,-1.2,0.55,9.71
15.1085756,180,180,2.0874,0,0,87.6875,-5.87644172009316,4.87406352136988,0.719465299395715,0.062198620521272,0.0247207471159128,-0.69138741378258,-1.19,0.54,9.71
15.2165867,180,180,2.058,0,0,87.6875,-5.31749601615693,4.86513603285203,0.719831532686321,0.0564609656351096,0.0259415247512666,-0.691448452664347,-1.13,0.44,9.73
15.2367265,180,180,2.058,0,0,87.6875,-5.09436410900833,4.83361775224808,0.719892571568089,0.0558505768174327,0.0260636025148019,-0.691448452664347,-1.12,0.43,9.73
15.2526427,180,180,2.0972,0,0,87.6875,-5.06730957266331,4.77727680742856,0.719892571568089,0.0552401879997558,0.0261856802783373,-0.691448452664347,-1.11,0.42,9.73
15.356593,180,180,2.1952,0,0,87.625,-4.22889101675897,4.76388557465178,0.72038088262223,0.0476713666605628,0.0281389244949033,-0.691448452664347,-1.04,0.29,9.74
15.3747834,180,180,2.1952,0,0,87.625,-4.08915459077491,4.76165370252232,0.72038088262223,0.0469999389611182,0.0283220411402063,-0.691448452664347,-1.03,0.26,9.74
15.3916765,180,180,2.1952,0,0,87.625,-4.00575910961037,4.73236729404783,0.720441921503998,0.0463285112616737,0.0285051577855094,-0.691448452664347,-1.03,0.26,9.74
15.4976727,180,180,2.352,0,0,87.5625,-3.08394507254149,4.68968965279656,0.720808154794604,0.0386986510407129,0.0306415186473784,-0.691509491546115,-0.95,0.13,9.75
15.5167401,180,180,2.352,0,0,87.5625,-3.02760412772197,4.71674418914158,0.720869193676372,0.0366233290606116,0.0313129463468229,-0.691448452664347,-0.93,0.09,9.76
15.5325645,180,180,2.548,0,0,87.5625,-2.74813127575386,4.71228044488265,0.720869193676372,0.0358908624793994,0.031496062992126,-0.691509491546115,-0.93,0.08,9.76
15.634289,180,180,2.7734,0,0,87.5625,-1.96605366466903,4.67183467576085,0.721113349203443,0.0291155466031862,0.033632423853995,-0.691509491546115,-0.86,-0.04,9.76
15.6535636,180,180,2.7734,0,0,87.5625,-1.82631723868498,4.66960280363138,0.721113349203443,0.0278337300860648,0.0339986571446011,-0.691509491546115,-0.85,-0.06,9.76
15.6718746,180,180,2.7734,0,0,87.5625,-1.74292175752044,4.64031639515689,0.721113349203443,0.027223341268388,0.0341817737899042,-0.691509491546115,-0.84,-0.08,9.76
15.7696065,180,180,2.9988,0,0,87.5625,-1.1276351087647,4.65844344298407,0.721235426966978,0.0217908807910639,0.0360129402429347,-0.691509491546115,-0.8,-0.18,9.77
15.7897944,180,180,2.9988,0,0,87.5625,-0.987898682780638,4.6562115708546,0.721235426966978,0.0208752975645486,0.0363181346517732,-0.691509491546115,-0.79,-0.2,9.77
15.8078922,180,180,3.2144,0,0,87.5625,-0.904503201616097,4.62692516238011,0.721235426966978,0.0200817921015687,0.0366233290606116,-0.691570530427883,-0.79,-0.21,9.77
15.9048235,180,180,3.4006,0,0,87.5625,-0.568689404828469,4.64951595446621,0.72117438808521,0.0173960813037905,0.0376609900506623,-0.69163156930965,-0.76,-0.26,9.77
15.9248282,180,180,3.4006,0,0,87.5625,-0.512348460008954,4.67657049081124,0.72117438808521,0.0170298480131844,0.0377830678141976,-0.69163156930965,-0.76,-0.27,9.77
15.9440276,180,180,3.4006,0,0,87.5625,-0.512348460008954,4.67657049081124,0.721113349203443,0.0168467313678813,0.0379661844595007,-0.69163156930965,-0.76,-0.27,9.77
16.0470273,180,180,3.5476,0,0,87.5625,-0.539402996353979,4.73291143563075,0.720991271439907,0.0175791979490936,0.0382103399865714,-0.691753647073186,-0.77,-0.27,9.77
16.0678648,180,180,3.5476,0,0,87.625,-0.622798477518521,4.76219784410524,0.720991271439907,0.0180064701214674,0.0382103399865714,-0.691753647073186,-0.78,-0.26,9.77
16.0856741,180,180,3.6456,0,0,87.625,-0.622798477518521,4.76219784410524,0.720991271439907,0.0182506256485381,0.0381493011048038,-0.691753647073186,-0.78,-0.25,9.77
16.1850271,180,180,3.6848,0,0,87.625,-1.06906229181572,4.82523440531315,0.720747115912836,0.0222791918452054,0.0374778734053592,-0.691875724836721,-0.83,-0.19,9.76
16.2078108,180,180,3.6848,0,0,87.625,-1.20879871779977,4.82746627744261,0.720747115912836,0.0232558139534884,0.0372337178782885,-0.691936763718489,-0.84,-0.17,9.76
16.2257693,180,180,3.6848,0,0,87.625,-1.29219419896431,4.8567526859171,0.720686077031069,0.0237441250076299,0.0371726789965208,-0.691936763718489,-0.85,-0.15,9.76
16.3247879,180,180,3.6554,0,0,87.6875,-1.93453538406508,4.89496658290945,0.720441921503998,0.0294207410120247,0.0358298235976317,-0.692058841482024,-0.91,-0.05,9.76
16.3438223,180,180,3.6554,0,0,87.6875,-2.01793086522962,4.92425299138393,0.72038088262223,0.0306415186473784,0.0355246291887933,-0.692058841482024,-0.92,-0.03,9.76
16.3610299,180,180,3.6554,0,0,87.6875,-2.24106277237822,4.95577127198789,0.720319843740463,0.0318622962827321,0.0352194347799548,-0.692058841482024,-0.92,-0.02,9.76
16.4610885,180,180,3.4398,0,0,87.6875,-2.96679943864353,5.02327157745472,0.720014649331624,0.0383934566318745,0.033632423853995,-0.692180919245559,-0.99,0.08,9.75
16.4890376,180,180,3.4398,0,0,87.6875,-3.10653586462759,5.02550344958418,0.719953610449857,0.0397363120307636,0.0332661905633889,-0.692180919245559,-1,0.1,9.75
16.5060415,180,180,3.4398,0,0,87.75,-3.24627229061164,5.02773532171365,0.719892571568089,0.0410791674296527,0.0329609961545504,-0.692180919245559,-1.02,0.14,9.75
16.6295991,180,180,3.2732,0,0,87.75,-4.27853634519009,5.15604031625892,0.719465299395715,0.0498687664041995,0.0308856741744491,-0.692119880363792,-1.11,0.28,9.73
16.6518525,180,180,3.0674,0,0,87.75,-4.33487729000961,5.1289857799139,0.719404260513947,0.050540194103644,0.0307025575291461,-0.692119880363792,-1.11,0.29,9.73
